3:16:11:582 Nachm. 03/28/17 - $GPGSV,3,1,12,10,16,295,25,12,45,233,23,15,40,192,29,18,12,267,20*7C

3:16:11:586 Nachm. 03/28/17 - $GPGSV,3,2,12,24,74,286,31,32,09,320,13,01,05,016,,13,17,160,*7B

3:16:11:586 Nachm. 03/28/17 - $GPGSV,3,3,12,17,39,064,,19,45,097,,25,04,239,,28,06,056,*77

3:16:11:586 Nachm. 03/28/17 - $GLGSV,3,1,10,74,38,285,27,73,66,043,24,65,18,336,14,71,24,223,26*6F

3:16:11:586 Nachm. 03/28/17 - $GLGSV,3,2,10,72,40,284,24,82,34,046,,80,21,080,,84,00,157,*6F

3:16:11:586 Nachm. 03/28/17 - $GLGSV,3,3,10,83,33,113,,81,03,007,*61

3:16:11:592 Nachm. 03/28/17 - $GPGGA,131607.0,5208.415038,N,01138.733976,E,1,05,1.2,58.9,M,45.0,M,,*6D

3:16:11:593 Nachm. 03/28/17 - $GNGNS,131607.0,5208.415038,N,01138.733976,E,AA,10,1.2,58.9,45.0,,*5D

3:16:11:595 Nachm. 03/28/17 - $GPVTG,74.3,T,73.8,M,0.0,N,0.0,K,A*2F

3:16:11:597 Nachm. 03/28/17 - $GPRMC,131607.0,A,5208.415038,N,01138.733976,E,0.0,74.3,280317,0.4,E,A*3C

3:16:11:600 Nachm. 03/28/17 - $GPGSA,A,2,10,12,15,18,24,,,,,,,,1.5,1.2,0.9*34

3:16:11:600 Nachm. 03/28/17 - $GNGSA,A,2,10,12,15,18,24,,,,,,,,1.5,1.2,0.9*2A

3:16:11:601 Nachm. 03/28/17 - $GNGSA,A,2,65,71,72,73,74,,,,,,,,1.5,1.2,0.9*24

3:16:12:582 Nachm. 03/28/17 - $GPGSV,3,1,12,10,16,295,23,12,45,233,24,15,40,192,31,18,12,267,23*77

3:16:12:583 Nachm. 03/28/17 - $GPGSV,3,2,12,24,74,286,27,32,09,320,13,01,05,016,,13,17,160,*7C

3:16:12:592 Nachm. 03/28/17 - $GPGSV,3,3,12,17,39,064,,19,45,097,,25,04,239,,28,06,056,*77

3:16:12:609 Nachm. 03/28/17 - $GLGSV,3,1,10,74,38,285,21,73,66,043,27,65,18,336,14,71,24,223,28*64

3:16:12:612 Nachm. 03/28/17 - $GLGSV,3,2,10,72,40,284,26,82,34,046,,80,21,080,,84,00,157,*6D

3:16:12:614 Nachm. 03/28/17 - $GLGSV,3,3,10,83,33,113,,81,03,007,*61

3:16:12:614 Nachm. 03/28/17 - $GPGGA,131608.0,5208.414873,N,01138.731833,E,1,05,1.2,61.8,M,45.0,M,,*6D

3:16:12:614 Nachm. 03/28/17 - $GNGNS,131608.0,5208.414873,N,01138.731833,E,AA,10,1.2,61.8,45.0,,*5D

3:16:12:615 Nachm. 03/28/17 - $GPVTG,74.3,T,73.8,M,0.0,N,0.0,K,A*2F

3:16:12:615 Nachm. 03/28/17 - $GPRMC,131608.0,A,5208.414873,N,01138.731833,E,0.0,74.3,280317,0.4,E,A*37

3:16:12:615 Nachm. 03/28/17 - $GPGSA,A,2,10,12,15,18,24,,,,,,,,1.5,1.2,0.9*34

3:16:12:616 Nachm. 03/28/17 - $GNGSA,A,2,10,12,15,18,24,,,,,,,,1.5,1.2,0.9*2A

3:16:12:616 Nachm. 03/28/17 - $GNGSA,A,2,65,71,72,73,74,,,,,,,,1.5,1.2,0.9*24

3:16:13:584 Nachm. 03/28/17 - $GPGSV,3,1,12,10,16,295,22,12,45,233,25,15,40,192,29,18,12,267,22*7F

3:16:13:585 Nachm. 03/28/17 - $GPGSV,3,2,12,24,74,286,24,25,04,239,18,32,09,320,13,01,05,016,*7E

3:16:13:588 Nachm. 03/28/17 - $GPGSV,3,3,12,13,17,160,,17,39,064,,19,45,097,,28,06,056,*7F

3:16:13:590 Nachm. 03/28/17 - $GLGSV,3,1,10,74,38,285,26,73,66,043,31,65,18,336,14,71,24,223,23*6F

3:16:13:601 Nachm. 03/28/17 - $GLGSV,3,2,10,72,40,284,22,82,34,046,,80,21,080,,84,00,157,*69

3:16:13:602 Nachm. 03/28/17 - $GLGSV,3,3,10,83,33,113,,81,03,007,*61

3:16:13:602 Nachm. 03/28/17 - $GPGGA,131609.0,5208.414876,N,01138.732288,E,1,05,1.2,59.6,M,45.0,M,,*65

3:16:13:603 Nachm. 03/28/17 - $GNGNS,131609.0,5208.414876,N,01138.732288,E,AA,10,1.2,59.6,45.0,,*55

3:16:13:605 Nachm. 03/28/17 - $GPVTG,74.3,T,73.8,M,0.0,N,0.0,K,A*2F

3:16:13:605 Nachm. 03/28/17 - $GPRMC,131609.0,A,5208.414876,N,01138.732288,E,0.0,74.3,280317,0.4,E,A*3A

3:16:13:605 Nachm. 03/28/17 - $GPGSA,A,2,10,12,15,18,24,,,,,,,,1.5,1.2,0.9*34

3:16:13:606 Nachm. 03/28/17 - $GNGSA,A,2,10,12,15,18,24,,,,,,,,1.5,1.2,0.9*2A

3:16:13:606 Nachm. 03/28/17 - $GNGSA,A,2,65,71,72,73,74,,,,,,,,1.5,1.2,0.9*24

3:16:14:584 Nachm. 03/28/17 - $GPGSV,3,1,12,10,16,295,26,12,45,233,21,15,40,192,30,18,12,267,26*73

3:16:14:585 Nachm. 03/28/17 - $GPGSV,3,2,12,24,74,286,24,25,04,239,17,32,09,320,13,01,05,016,*71

3:16:14:586 Nachm. 03/28/17 - $GPGSV,3,3,12,13,17,160,,17,39,064,,19,45,097,,28,06,056,*7F

3:16:14:594 Nachm. 03/28/17 - $GLGSV,3,1,10,74,38,285,21,73,66,043,31,65,18,336,14,71,24,223,29*62

3:16:14:596 Nachm. 03/28/17 - $GLGSV,3,2,10,72,40,284,23,82,34,046,,80,21,080,,84,00,157,*68

3:16:14:597 Nachm. 03/28/17 - $GLGSV,3,3,10,83,33,113,,81,03,007,*61

3:16:14:597 Nachm. 03/28/17 - $GPGGA,131610.0,5208.414859,N,01138.732463,E,1,05,1.2,59.7,M,45.0,M,,*62

3:16:14:600 Nachm. 03/28/17 - $GNGNS,131610.0,5208.414859,N,01138.732463,E,AA,10,1.2,59.7,45.0,,*52

3:16:14:603 Nachm. 03/28/17 - $GPVTG,74.3,T,73.8,M,0.0,N,0.0,K,A*2F

3:16:14:604 Nachm. 03/28/17 - $GPRMC,131610.0,A,5208.414859,N,01138.732463,E,0.0,74.3,280317,0.4,E,A*3C

3:16:14:604 Nachm. 03/28/17 - $GPGSA,A,2,10,12,15,18,24,,,,,,,,1.5,1.2,0.9*34

3:16:14:604 Nachm. 03/28/17 - $GNGSA,A,2,10,12,15,18,24,,,,,,,,1.5,1.2,0.9*2A

3:16:14:604 Nachm. 03/28/17 - $GNGSA,A,2,65,71,72,73,74,,,,,,,,1.5,1.2,0.9*24

3:16:15:584 Nachm. 03/28/17 - $GPGSV,3,1,12,10,16,295,26,12,45,233,27,15,40,192,30,18,12,267,29*7A

3:16:15:585 Nachm. 03/28/17 - $GPGSV,3,2,12,24,74,286,25,25,04,239,16,32,09,320,13,01,05,016,*71

3:16:15:590 Nachm. 03/28/17 - $GPGSV,3,3,12,13,17,160,,17,39,064,,19,45,097,,28,06,056,*7F

3:16:15:592 Nachm. 03/28/17 - $GLGSV,3,1,10,74,38,285,25,73,66,043,32,65,18,336,14,71,24,223,27*6B

3:16:15:599 Nachm. 03/28/17 - $GLGSV,3,2,10,72,40,284,23,82,34,046,,80,21,080,,84,00,157,*68

3:16:15:616 Nachm. 03/28/17 - $GLGSV,3,3,10,83,33,113,,81,03,007,*61

3:16:15:617 Nachm. 03/28/17 - $GPGGA,131611.0,5208.414836,N,01138.732860,E,1,05,1.2,59.5,M,45.0,M,,*67

3:16:15:617 Nachm. 03/28/17 - $GNGNS,131611.0,5208.414836,N,01138.732860,E,AA,10,1.2,59.5,45.0,,*57

3:16:15:617 Nachm. 03/28/17 - $GPVTG,74.3,T,73.8,M,0.0,N,0.0,K,A*2F

3:16:15:617 Nachm. 03/28/17 - $GPRMC,131611.0,A,5208.414836,N,01138.732860,E,0.0,74.3,280317,0.4,E,A*3B

3:16:15:618 Nachm. 03/28/17 - $GPGSA,A,2,10,12,15,18,24,,,,,,,,1.5,1.2,0.9*34

3:16:15:618 Nachm. 03/28/17 - $GNGSA,A,2,10,12,15,18,24,,,,,,,,1.5,1.2,0.9*2A

3:16:15:618 Nachm. 03/28/17 - $GNGSA,A,2,65,71,72,73,74,,,,,,,,1.5,1.2,0.9*24

3:16:16:585 Nachm. 03/28/17 - $GPGSV,3,1,12,10,16,295,25,12,45,233,32,15,40,192,22,18,12,267,30*76

3:16:16:586 Nachm. 03/28/17 - $GPGSV,3,2,12,24,74,286,27,25,04,239,18,32,09,320,13,01,05,016,*7D

3:16:16:587 Nachm. 03/28/17 - $GPGSV,3,3,12,13,17,160,,17,39,064,,19,45,097,,28,06,056,*7F

3:16:16:590 Nachm. 03/28/17 - $GLGSV,3,1,10,74,38,285,28,73,66,043,26,65,18,336,17,71,24,223,29*6E

3:16:16:598 Nachm. 03/28/17 - $GLGSV,3,2,10,72,40,284,20,82,34,046,,80,21,080,,84,00,157,*6B

3:16:16:604 Nachm. 03/28/17 - $GLGSV,3,3,10,83,33,113,,81,03,007,*61

3:16:16:605 Nachm. 03/28/17 - $GPGGA,131612.0,5208.414895,N,01138.733182,E,1,05,1.2,59.2,M,45.0,M,,*6E

3:16:16:605 Nachm. 03/28/17 - $GNGNS,131612.0,5208.414895,N,01138.733182,E,AA,10,1.2,59.2,45.0,,*5E

3:16:16:606 Nachm. 03/28/17 - $GPVTG,74.3,T,73.8,M,0.0,N,0.0,K,A*2F

3:16:16:606 Nachm. 03/28/17 - $GPRMC,131612.0,A,5208.414895,N,01138.733182,E,0.0,74.3,280317,0.4,E,A*35

3:16:16:607 Nachm. 03/28/17 - $GPGSA,A,2,10,12,15,18,24,,,,,,,,1.5,1.2,0.9*34

3:16:16:607 Nachm. 03/28/17 - $GNGSA,A,2,10,12,15,18,24,,,,,,,,1.5,1.2,0.9*2A

3:16:16:607 Nachm. 03/28/17 - $GNGSA,A,2,65,71,72,73,74,,,,,,,,1.5,1.2,0.9*24

3:16:17:585 Nachm. 03/28/17 - $GPGSV,3,1,12,10,16,295,26,12,45,233,33,15,40,192,16,18,12,267,30*73

3:16:17:586 Nachm. 03/28/17 - $GPGSV,3,2,12,24,74,286,31,25,04,239,18,32,09,320,13,01,05,016,*7A

3:16:17:588 Nachm. 03/28/17 - $GPGSV,3,3,12,13,17,160,,17,39,064,,19,45,097,,28,06,056,*7F

3:16:17:589 Nachm. 03/28/17 - $GLGSV,3,1,10,74,38,285,29,73,66,043,18,65,18,336,19,71,24,223,30*64

3:16:17:596 Nachm. 03/28/17 - $GLGSV,3,2,10,72,40,284,20,82,34,046,,80,21,080,,84,00,157,*6B

3:16:17:601 Nachm. 03/28/17 - $GLGSV,3,3,10,83,33,113,,81,03,007,*61

3:16:17:602 Nachm. 03/28/17 - $GPGGA,131613.0,5208.414920,N,01138.733316,E,1,05,1.2,58.9,M,45.0,M,,*65

3:16:17:602 Nachm. 03/28/17 - $GNGNS,131613.0,5208.414920,N,01138.733316,E,AA,10,1.2,58.9,45.0,,*55

3:16:17:603 Nachm. 03/28/17 - $GPVTG,74.3,T,73.8,M,0.0,N,0.0,K,A*2F

3:16:17:603 Nachm. 03/28/17 - $GPRMC,131613.0,A,5208.414920,N,01138.733316,E,0.0,74.3,280317,0.4,E,A*34

3:16:17:604 Nachm. 03/28/17 - $GPGSA,A,2,10,12,15,18,24,,,,,,,,1.5,1.2,0.9*34

3:16:17:604 Nachm. 03/28/17 - $GNGSA,A,2,10,12,15,18,24,,,,,,,,1.5,1.2,0.9*2A

3:16:17:605 Nachm. 03/28/17 - $GNGSA,A,2,65,71,72,73,74,,,,,,,,1.5,1.2,0.9*24

3:16:18:583 Nachm. 03/28/17 - $GPGSV,3,1,12,10,16,295,26,12,45,233,27,15,40,192,28,18,12,267,24*7E

3:16:18:583 Nachm. 03/28/17 - $GPGSV,3,2,12,24,74,286,25,25,04,239,21,32,09,320,15,01,05,016,*73

3:16:18:584 Nachm. 03/28/17 - $GPGSV,3,3,12,13,17,160,,17,39,064,,19,45,097,,28,06,056,*7F

3:16:18:592 Nachm. 03/28/17 - $GLGSV,3,1,10,74,38,285,27,82,34,046,15,73,66,043,31,65,18,336,18*6B

3:16:18:593 Nachm. 03/28/17 - $GLGSV,3,2,10,71,24,223,26,72,40,284,20,80,21,080,,84,00,157,*63

3:16:18:593 Nachm. 03/28/17 - $GLGSV,3,3,10,83,33,113,,81,03,007,*61

3:16:18:601 Nachm. 03/28/17 - $GPGGA,131614.0,5208.414915,N,01138.733345,E,1,05,1.0,58.9,M,45.0,M,,*60

3:16:18:602 Nachm. 03/28/17 - $GNGNS,131614.0,5208.414915,N,01138.733345,E,AA,11,1.0,58.9,45.0,,*51

3:16:18:602 Nachm. 03/28/17 - $GPVTG,74.3,T,73.8,M,0.0,N,0.0,K,A*2F

3:16:18:602 Nachm. 03/28/17 - $GPRMC,131614.0,A,5208.414915,N,01138.733345,E,0.0,74.3,280317,0.4,E,A*33

3:16:18:602 Nachm. 03/28/17 - $GPGSA,A,2,10,12,15,18,24,,,,,,,,1.3,1.0,0.8*31

3:16:18:603 Nachm. 03/28/17 - $GNGSA,A,2,10,12,15,18,24,,,,,,,,1.3,1.0,0.8*2F

3:16:18:603 Nachm. 03/28/17 - $GNGSA,A,2,65,71,72,73,74,82,,,,,,,1.3,1.0,0.8*2B

3:16:19:584 Nachm. 03/28/17 - $GPGSV,3,1,12,10,16,295,29,12,45,233,23,15,40,192,27,17,39,064,15*7F

3:16:19:585 Nachm. 03/28/17 - $GPGSV,3,2,12,18,12,267,23,24,74,286,25,25,04,239,18,32,09,320,15*72

3:16:19:587 Nachm. 03/28/17 - $GPGSV,3,3,12,01,05,016,,13,17,160,,19,45,097,,28,06,056,*72

3:16:19:590 Nachm. 03/28/17 - $GLGSV,3,1,10,74,38,285,23,82,34,046,15,73,66,043,31,65,18,336,19*6E

3:16:19:599 Nachm. 03/28/17 - $GLGSV,3,2,10,71,24,223,25,72,40,284,24,80,21,080,,84,00,157,*64

3:16:19:599 Nachm. 03/28/17 - $GLGSV,3,3,10,83,33,113,,81,03,007,*61

3:16:19:599 Nachm. 03/28/17 - $GPGGA,131615.0,5208.414881,N,01138.733295,E,1,06,0.9,59.0,M,45.0,M,,*62

3:16:19:599 Nachm. 03/28/17 - $GNGNS,131615.0,5208.414881,N,01138.733295,E,AA,12,0.9,59.0,45.0,,*53

3:16:19:599 Nachm. 03/28/17 - $GPVTG,74.3,T,73.8,M,0.0,N,0.0,K,A*2F

3:16:19:600 Nachm. 03/28/17 - $GPRMC,131615.0,A,5208.414881,N,01138.733295,E,0.0,74.3,280317,0.4,E,A*32

3:16:19:600 Nachm. 03/28/17 - $GPGSA,A,2,10,12,15,17,18,24,,,,,,,1.2,0.9,0.8*3E

3:16:19:600 Nachm. 03/28/17 - $GNGSA,A,2,10,12,15,17,18,24,,,,,,,1.2,0.9,0.8*20

3:16:19:600 Nachm. 03/28/17 - $GNGSA,A,2,65,71,72,73,74,82,,,,,,,1.2,0.9,0.8*22

3:16:20:584 Nachm. 03/28/17 - $GPGSV,3,1,12,10,16,295,24,12,45,233,29,15,40,192,26,17,39,064,15*79

3:16:20:585 Nachm. 03/28/17 - $GPGSV,3,2,12,18,12,267,20,24,74,286,23,25,04,239,18,32,09,320,15*77

3:16:20:590 Nachm. 03/28/17 - $GPGSV,3,3,12,01,05,016,,13,17,160,,19,45,097,,28,06,056,*72

3:16:20:591 Nachm. 03/28/17 - $GLGSV,3,1,10,74,38,285,28,82,34,046,15,73,66,043,29,65,18,336,19*6C

3:16:20:592 Nachm. 03/28/17 - $GLGSV,3,2,10,71,24,223,27,72,40,284,25,80,21,080,,84,00,157,*67

3:16:20:594 Nachm. 03/28/17 - $GLGSV,3,3,10,83,33,113,,81,03,007,*61

3:16:20:599 Nachm. 03/28/17 - $GPGGA,131616.0,5208.414884,N,01138.733296,E,1,06,0.9,59.0,M,45.0,M,,*67

3:16:20:602 Nachm. 03/28/17 - $GNGNS,131616.0,5208.414884,N,01138.733296,E,AA,12,0.9,59.0,45.0,,*56

3:16:20:606 Nachm. 03/28/17 - $GPVTG,74.3,T,73.8,M,0.0,N,0.0,K,A*2F

3:16:20:607 Nachm. 03/28/17 - $GPRMC,131616.0,A,5208.414884,N,01138.733296,E,0.0,74.3,280317,0.4,E,A*37

3:16:20:608 Nachm. 03/28/17 - $GPGSA,A,2,10,12,15,17,18,24,,,,,,,1.2,0.9,0.8*3E

3:16:20:608 Nachm. 03/28/17 - $GNGSA,A,2,10,12,15,17,18,24,,,,,,,1.2,0.9,0.8*20

3:16:20:608 Nachm. 03/28/17 - $GNGSA,A,2,65,71,72,73,74,82,,,,,,,1.2,0.9,0.8*22

3:16:21:583 Nachm. 03/28/17 - $GPGSV,3,1,12,10,16,295,30,12,45,233,26,15,40,192,27,17,39,064,16*71

3:16:21:584 Nachm. 03/28/17 - $GPGSV,3,2,12,18,12,267,17,24,74,286,20,25,04,239,17,32,09,320,15*7F

3:16:21:584 Nachm. 03/28/17 - $GPGSV,3,3,12,01,05,016,,13,17,160,,19,45,097,,28,06,056,*72

3:16:21:584 Nachm. 03/28/17 - $GLGSV,3,1,10,74,38,285,29,82,34,046,15,73,66,043,30,65,18,336,18*64

3:16:21:584 Nachm. 03/28/17 - $GLGSV,3,2,10,71,24,223,27,72,40,284,21,80,21,080,,84,00,157,*63

3:16:21:584 Nachm. 03/28/17 - $GLGSV,3,3,10,83,33,113,,81,03,007,*61

3:16:21:585 Nachm. 03/28/17 - $GPGGA,131617.0,5208.414882,N,01138.733298,E,1,06,0.9,59.0,M,45.0,M,,*6E

3:16:21:594 Nachm. 03/28/17 - $GNGNS,131617.0,5208.414882,N,01138.733298,E,AA,12,0.9,59.0,45.0,,*5F

3:16:21:594 Nachm. 03/28/17 - $GPVTG,74.3,T,73.8,M,0.0,N,0.0,K,A*2F

3:16:21:595 Nachm. 03/28/17 - $GPRMC,131617.0,A,5208.414882,N,01138.733298,E,0.0,74.3,280317,0.4,E,A*3E

3:16:21:595 Nachm. 03/28/17 - $GPGSA,A,2,10,12,15,17,18,24,,,,,,,1.2,0.9,0.8*3E

3:16:21:595 Nachm. 03/28/17 - $GNGSA,A,2,10,12,15,17,18,24,,,,,,,1.2,0.9,0.8*20

3:16:21:596 Nachm. 03/28/17 - $GNGSA,A,2,65,71,72,73,74,82,,,,,,,1.2,0.9,0.8*22

3:16:22:585 Nachm. 03/28/17 - $GPGSV,3,1,12,10,16,295,31,12,45,233,23,15,40,192,27,17,39,064,16*75

3:16:22:586 Nachm. 03/28/17 - $GPGSV,3,2,12,18,12,267,20,24,74,286,18,25,04,239,19,32,09,320,15*7E

3:16:22:587 Nachm. 03/28/17 - $GPGSV,3,3,12,01,05,016,,13,17,160,,19,45,097,,28,06,056,*72

3:16:22:587 Nachm. 03/28/17 - $GLGSV,3,1,10,74,38,285,28,82,34,046,14,73,66,043,29,65,18,336,18*6C

3:16:22:592 Nachm. 03/28/17 - $GLGSV,3,2,10,71,24,223,21,72,40,284,20,80,21,080,,84,00,157,*64

3:16:22:598 Nachm. 03/28/17 - $GLGSV,3,3,10,83,33,113,,81,03,007,*61

3:16:22:599 Nachm. 03/28/17 - $GPGGA,131618.0,5208.414873,N,01138.733277,E,1,06,0.9,59.1,M,45.0,M,,*6F

3:16:22:605 Nachm. 03/28/17 - $GNGNS,131618.0,5208.414873,N,01138.733277,E,AA,12,0.9,59.1,45.0,,*5E

3:16:22:610 Nachm. 03/28/17 - $GPVTG,74.3,T,73.8,M,0.0,N,0.0,K,A*2F

3:16:22:611 Nachm. 03/28/17 - $GPRMC,131618.0,A,5208.414873,N,01138.733277,E,0.0,74.3,280317,0.4,E,A*3E

3:16:22:612 Nachm. 03/28/17 - $GPGSA,A,2,10,12,15,17,18,24,,,,,,,1.2,0.9,0.8*3E

3:16:22:612 Nachm. 03/28/17 - $GNGSA,A,2,10,12,15,17,18,24,,,,,,,1.2,0.9,0.8*20

3:16:22:613 Nachm. 03/28/17 - $GNGSA,A,2,65,71,72,73,74,82,,,,,,,1.2,0.9,0.8*22

3:16:23:584 Nachm. 03/28/17 - $GPGSV,3,1,12,10,16,295,28,12,45,233,23,15,40,192,28,17,39,064,16*72

3:16:23:585 Nachm. 03/28/17 - $GPGSV,3,2,12,18,12,267,23,24,74,286,23,25,04,239,17,32,09,320,15*7B

3:16:23:586 Nachm. 03/28/17 - $GPGSV,3,3,12,01,05,016,,13,17,160,,19,45,097,,28,06,056,*72

3:16:23:602 Nachm. 03/28/17 - $GLGSV,3,1,10,74,38,285,21,82,34,046,14,73,66,043,28,65,18,336,18*64

3:16:23:604 Nachm. 03/28/17 - $GLGSV,3,2,10,71,24,223,26,72,40,284,22,80,21,080,,84,00,157,*61

3:16:23:605 Nachm. 03/28/17 - $GLGSV,3,3,10,83,33,113,,81,03,007,*61

3:16:23:605 Nachm. 03/28/17 - $GPGGA,131619.0,5208.414870,N,01138.733284,E,1,06,0.9,59.1,M,45.0,M,,*61

3:16:23:606 Nachm. 03/28/17 - $GNGNS,131619.0,5208.414870,N,01138.733284,E,AA,12,0.9,59.1,45.0,,*50

3:16:23:609 Nachm. 03/28/17 - $GPVTG,74.3,T,73.8,M,0.0,N,0.0,K,A*2F

3:16:23:609 Nachm. 03/28/17 - $GPRMC,131619.0,A,5208.414870,N,01138.733284,E,0.0,74.3,280317,0.4,E,A*30

3:16:23:610 Nachm. 03/28/17 - $GPGSA,A,2,10,12,15,17,18,24,,,,,,,1.2,0.9,0.8*3E

3:16:23:610 Nachm. 03/28/17 - $GNGSA,A,2,10,12,15,17,18,24,,,,,,,1.2,0.9,0.8*20

3:16:23:610 Nachm. 03/28/17 - $GNGSA,A,2,65,71,72,73,74,82,,,,,,,1.2,0.9,0.8*22

3:16:24:585 Nachm. 03/28/17 - $GPGSV,3,1,12,10,16,295,28,12,45,233,19,15,40,192,24,17,39,064,16*77

3:16:24:586 Nachm. 03/28/17 - $GPGSV,3,2,12,18,12,267,26,24,74,286,27,25,04,239,17,32,09,320,15*7A

3:16:24:592 Nachm. 03/28/17 - $GPGSV,3,3,12,01,05,016,,13,17,160,,19,45,097,,28,06,056,*72

3:16:24:593 Nachm. 03/28/17 - $GLGSV,3,1,10,74,38,285,20,82,34,046,14,73,66,043,19,65,18,336,18*67

3:16:24:593 Nachm. 03/28/17 - $GLGSV,3,2,10,71,24,223,19,72,40,284,19,80,21,080,,84,00,157,*65

3:16:24:595 Nachm. 03/28/17 - $GLGSV,3,3,10,83,33,113,,81,03,007,*61

3:16:24:595 Nachm. 03/28/17 - $GPGGA,131620.0,5208.414868,N,01138.733279,E,1,06,0.9,59.1,M,45.0,M,,*60

3:16:24:599 Nachm. 03/28/17 - $GNGNS,131620.0,5208.414868,N,01138.733279,E,AA,12,0.9,59.1,45.0,,*51

3:16:24:599 Nachm. 03/28/17 - $GPVTG,74.3,T,73.8,M,0.0,N,0.0,K,A*2F

3:16:24:599 Nachm. 03/28/17 - $GPRMC,131620.0,A,5208.414868,N,01138.733279,E,0.0,74.3,280317,0.4,E,A*31

3:16:24:599 Nachm. 03/28/17 - $GPGSA,A,2,10,12,15,17,18,24,,,,,,,1.2,0.9,0.8*3E

3:16:24:599 Nachm. 03/28/17 - $GNGSA,A,2,10,12,15,17,18,24,,,,,,,1.2,0.9,0.8*20

3:16:24:599 Nachm. 03/28/17 - $GNGSA,A,2,65,71,72,73,74,82,,,,,,,1.2,0.9,0.8*22

3:16:25:585 Nachm. 03/28/17 - $GPGSV,3,1,12,10,16,295,29,12,45,233,23,15,40,192,28,17,39,064,16*73

3:16:25:586 Nachm. 03/28/17 - $GPGSV,3,2,12,18,12,267,23,19,45,097,13,24,74,286,26,25,04,239,18*79

3:16:25:587 Nachm. 03/28/17 - $GPGSV,3,3,12,32,09,320,15,01,05,016,,13,17,160,,28,06,056,*78

3:16:25:591 Nachm. 03/28/17 - $GLGSV,3,1,10,74,38,285,23,82,34,046,14,73,66,043,30,65,18,336,18*6F

3:16:25:592 Nachm. 03/28/17 - $GLGSV,3,2,10,71,24,223,23,72,40,284,17,80,21,080,,84,00,157,*62

3:16:25:604 Nachm. 03/28/17 - $GLGSV,3,3,10,83,33,113,,81,03,007,*61

3:16:25:605 Nachm. 03/28/17 - $GPGGA,131621.0,5208.414862,N,01138.733289,E,1,07,0.9,59.1,M,45.0,M,,*65

3:16:25:606 Nachm. 03/28/17 - $GNGNS,131621.0,5208.414862,N,01138.733289,E,AA,13,0.9,59.1,45.0,,*54

3:16:25:609 Nachm. 03/28/17 - $GPVTG,74.3,T,73.8,M,0.0,N,0.0,K,A*2F

3:16:25:615 Nachm. 03/28/17 - $GPRMC,131621.0,A,5208.414862,N,01138.733289,E,0.0,74.3,280317,0.4,E,A*35

3:16:25:615 Nachm. 03/28/17 - $GPGSA,A,2,10,12,15,17,18,19,24,,,,,,1.2,0.9,0.8*36

3:16:25:617 Nachm. 03/28/17 - $GNGSA,A,2,10,12,15,17,18,19,24,,,,,,1.2,0.9,0.8*28

3:16:25:617 Nachm. 03/28/17 - $GNGSA,A,2,65,71,72,73,74,82,,,,,,,1.2,0.9,0.8*22

3:16:26:584 Nachm. 03/28/17 - $GPGSV,3,1,12,10,16,295,30,12,45,233,21,15,40,192,24,17,39,064,16*75

3:16:26:585 Nachm. 03/28/17 - $GPGSV,3,2,12,18,12,267,21,19,45,097,13,24,74,286,22,25,04,239,21*75

3:16:26:586 Nachm. 03/28/17 - $GPGSV,3,3,12,32,09,320,15,01,05,016,,13,17,160,,28,06,056,*78

3:16:26:592 Nachm. 03/28/17 - $GLGSV,3,1,10,74,38,285,24,82,34,046,14,73,66,043,26,65,18,336,18*6F

3:16:26:594 Nachm. 03/28/17 - $GLGSV,3,2,10,71,24,223,22,72,40,284,23,80,21,080,,84,00,157,*64

3:16:26:596 Nachm. 03/28/17 - $GLGSV,3,3,10,83,33,113,,81,03,007,*61

3:16:26:599 Nachm. 03/28/17 - $GPGGA,131622.0,5208.414857,N,01138.733215,E,1,07,0.9,59.2,M,45.0,M,,*66

3:16:26:605 Nachm. 03/28/17 - $GNGNS,131622.0,5208.414857,N,01138.733215,E,AA,13,0.9,59.2,45.0,,*57

3:16:26:605 Nachm. 03/28/17 - $GPVTG,74.3,T,73.8,M,0.0,N,0.0,K,A*2F

3:16:26:606 Nachm. 03/28/17 - $GPRMC,131622.0,A,5208.414857,N,01138.733215,E,0.0,74.3,280317,0.4,E,A*35

3:16:26:607 Nachm. 03/28/17 - $GPGSA,A,2,10,12,15,17,18,19,24,,,,,,1.2,0.9,0.8*36

3:16:26:607 Nachm. 03/28/17 - $GNGSA,A,2,10,12,15,17,18,19,24,,,,,,1.2,0.9,0.8*28

3:16:26:608 Nachm. 03/28/17 - $GNGSA,A,2,65,71,72,73,74,82,,,,,,,1.2,0.9,0.8*22

3:16:27:585 Nachm. 03/28/17 - $GPGSV,3,1,12,10,16,295,30,12,45,233,19,13,17,160,12,15,40,192,24*77

3:16:27:586 Nachm. 03/28/17 - $GPGSV,3,2,12,17,39,064,16,18,12,267,18,19,45,097,13,24,74,286,27*7B

3:16:27:589 Nachm. 03/28/17 - $GPGSV,3,3,12,25,04,239,21,32,09,320,15,01,05,016,,28,06,056,*73

3:16:27:590 Nachm. 03/28/17 - $GLGSV,3,1,10,74,38,285,23,82,34,046,14,73,66,043,17,65,18,336,14*66

3:16:27:590 Nachm. 03/28/17 - $GLGSV,3,2,10,71,24,223,23,72,40,284,27,80,21,080,,84,00,157,*61

3:16:27:591 Nachm. 03/28/17 - $GLGSV,3,3,10,83,33,113,,81,03,007,*61

3:16:27:607 Nachm. 03/28/17 - $GPGGA,131623.0,5208.414857,N,01138.733135,E,1,08,0.8,59.3,M,45.0,M,,*69

3:16:27:607 Nachm. 03/28/17 - $GNGNS,131623.0,5208.414857,N,01138.733135,E,AA,14,0.8,59.3,45.0,,*50

3:16:27:608 Nachm. 03/28/17 - $GPVTG,74.3,T,73.8,M,0.0,N,0.0,K,A*2F

3:16:27:608 Nachm. 03/28/17 - $GPRMC,131623.0,A,5208.414857,N,01138.733135,E,0.0,74.3,280317,0.4,E,A*35

3:16:27:608 Nachm. 03/28/17 - $GPGSA,A,2,10,12,13,15,17,18,19,24,,,,,1.1,0.8,0.8*36

3:16:27:608 Nachm. 03/28/17 - $GNGSA,A,2,10,12,13,15,17,18,19,24,,,,,1.1,0.8,0.8*28

3:16:27:608 Nachm. 03/28/17 - $GNGSA,A,2,65,71,72,73,74,82,,,,,,,1.1,0.8,0.8*20

3:16:28:584 Nachm. 03/28/17 - $GPGSV,3,1,12,10,16,295,29,12,45,233,19,13,17,160,12,15,40,192,24*7F

3:16:28:585 Nachm. 03/28/17 - $GPGSV,3,2,12,17,39,064,16,18,12,267,18,19,45,097,13,24,74,286,27*7B

3:16:28:590 Nachm. 03/28/17 - $GPGSV,3,3,12,25,04,239,19,32,09,320,15,01,05,016,,28,06,056,*78

3:16:28:604 Nachm. 03/28/17 - $GLGSV,3,1,10,74,38,285,24,82,34,046,14,73,66,043,17,65,18,336,20*66

3:16:28:604 Nachm. 03/28/17 - $GLGSV,3,2,10,71,24,223,25,72,40,284,27,80,21,080,,84,00,157,*67

3:16:28:605 Nachm. 03/28/17 - $GLGSV,3,3,10,83,33,113,,81,03,007,*61

3:16:28:605 Nachm. 03/28/17 - $GPGGA,131624.0,5208.414860,N,01138.733155,E,1,08,0.8,59.3,M,45.0,M,,*6C

3:16:28:606 Nachm. 03/28/17 - $GNGNS,131624.0,5208.414860,N,01138.733155,E,AA,14,0.8,59.3,45.0,,*55

3:16:28:606 Nachm. 03/28/17 - $GPVTG,74.3,T,73.8,M,0.0,N,0.0,K,A*2F

3:16:28:607 Nachm. 03/28/17 - $GPRMC,131624.0,A,5208.414860,N,01138.733155,E,0.0,74.3,280317,0.4,E,A*30

3:16:28:607 Nachm. 03/28/17 - $GPGSA,A,2,10,12,13,15,17,18,19,24,,,,,1.1,0.8,0.8*36

3:16:28:608 Nachm. 03/28/17 - $GNGSA,A,2,10,12,13,15,17,18,19,24,,,,,1.1,0.8,0.8*28

3:16:28:608 Nachm. 03/28/17 - $GNGSA,A,2,65,71,72,73,74,82,,,,,,,1.1,0.8,0.8*20

3:16:29:585 Nachm. 03/28/17 - $GPGSV,3,1,12,10,16,295,28,12,45,233,19,13,17,160,12,15,40,192,24*7E

3:16:29:586 Nachm. 03/28/17 - $GPGSV,3,2,12,17,39,064,16,18,12,267,18,19,45,097,13,24,74,286,27*7B

3:16:29:587 Nachm. 03/28/17 - $GPGSV,3,3,12,25,04,239,19,32,09,320,15,01,05,016,,28,06,056,*78

3:16:29:591 Nachm. 03/28/17 - $GLGSV,3,1,10,74,38,285,24,82,34,046,14,73,66,043,16,65,18,336,21*66

3:16:29:592 Nachm. 03/28/17 - $GLGSV,3,2,10,71,24,223,26,72,40,284,27,80,21,080,,84,00,157,*64

3:16:29:594 Nachm. 03/28/17 - $GLGSV,3,3,10,83,33,113,,81,03,007,*61

3:16:29:595 Nachm. 03/28/17 - $GPGGA,131625.0,5208.414860,N,01138.733158,E,1,08,0.8,59.3,M,45.0,M,,*60

3:16:29:607 Nachm. 03/28/17 - $GNGNS,131625.0,5208.414860,N,01138.733158,E,AA,14,0.8,59.3,45.0,,*59

3:16:29:607 Nachm. 03/28/17 - $GPVTG,74.3,T,73.8,M,0.0,N,0.0,K,A*2F

3:16:29:617 Nachm. 03/28/17 - $GPRMC,131625.0,A,5208.414860,N,01138.733158,E,0.0,74.3,280317,0.4,E,A*3C

3:16:29:617 Nachm. 03/28/17 - $GPGSA,A,2,10,12,13,15,17,18,19,24,,,,,1.1,0.8,0.8*36

3:16:29:618 Nachm. 03/28/17 - $GNGSA,A,2,10,12,13,15,17,18,19,24,,,,,1.1,0.8,0.8*28

3:16:29:618 Nachm. 03/28/17 - $GNGSA,A,2,65,71,72,73,74,82,,,,,,,1.1,0.8,0.8*20

3:16:30:584 Nachm. 03/28/17 - $GPGSV,3,1,12,10,16,295,28,12,45,233,17,13,17,160,12,15,40,192,24*70

3:16:30:585 Nachm. 03/28/17 - $GPGSV,3,2,12,17,39,064,16,18,12,267,18,19,45,097,13,24,74,286,28*74

3:16:30:585 Nachm. 03/28/17 - $GPGSV,3,3,12,25,04,239,18,32,09,320,15,01,05,016,,28,06,056,*79

3:16:30:586 Nachm. 03/28/17 - $GLGSV,3,1,10,74,38,285,24,82,34,046,14,73,66,043,16,65,18,336,21*66

3:16:30:591 Nachm. 03/28/17 - $GLGSV,3,2,10,71,24,223,26,72,40,284,27,80,21,080,,84,00,157,*64

3:16:30:593 Nachm. 03/28/17 - $GLGSV,3,3,10,83,33,113,,81,03,007,*61

3:16:30:598 Nachm. 03/28/17 - $GPGGA,131626.0,5208.414858,N,01138.733156,E,1,08,0.8,59.3,M,45.0,M,,*66

3:16:30:599 Nachm. 03/28/17 - $GNGNS,131626.0,5208.414858,N,01138.733156,E,AA,14,0.8,59.3,45.0,,*5F

3:16:30:600 Nachm. 03/28/17 - $GPVTG,74.3,T,73.8,M,0.0,N,0.0,K,A*2F

3:16:30:600 Nachm. 03/28/17 - $GPRMC,131626.0,A,5208.414858,N,01138.733156,E,0.0,74.3,280317,0.4,E,A*3A

3:16:30:603 Nachm. 03/28/17 - $GPGSA,A,2,10,12,13,15,17,18,19,24,,,,,1.1,0.8,0.8*36

3:16:30:603 Nachm. 03/28/17 - $GNGSA,A,2,10,12,13,15,17,18,19,24,,,,,1.1,0.8,0.8*28

3:16:30:603 Nachm. 03/28/17 - $GNGSA,A,2,65,71,72,73,74,82,,,,,,,1.1,0.8,0.8*20

3:16:31:586 Nachm. 03/28/17 - $GPGSV,3,1,12,10,16,295,28,12,45,233,17,13,17,160,12,15,40,192,24*70

3:16:31:587 Nachm. 03/28/17 - $GPGSV,3,2,12,17,39,064,16,18,12,267,18,19,45,097,13,24,74,286,27*7B

3:16:31:592 Nachm. 03/28/17 - $GPGSV,3,3,12,25,04,239,18,32,09,320,15,01,05,016,,28,06,056,*79

3:16:31:593 Nachm. 03/28/17 - $GLGSV,3,1,10,74,38,285,23,82,34,046,14,73,66,043,16,65,18,336,22*62

3:16:31:594 Nachm. 03/28/17 - $GLGSV,3,2,10,71,24,223,26,72,40,284,27,80,21,080,,84,00,157,*64

3:16:31:595 Nachm. 03/28/17 - $GLGSV,3,3,10,83,33,113,,81,03,007,*61

3:16:31:598 Nachm. 03/28/17 - $GPGGA,131627.0,5208.414855,N,01138.733143,E,1,08,0.8,59.3,M,45.0,M,,*6E

3:16:31:611 Nachm. 03/28/17 - $GNGNS,131627.0,5208.414855,N,01138.733143,E,AA,14,0.8,59.3,45.0,,*57

3:16:31:616 Nachm. 03/28/17 - $GPVTG,74.3,T,73.8,M,0.0,N,0.0,K,A*2F

3:16:31:617 Nachm. 03/28/17 - $GPRMC,131627.0,A,5208.414855,N,01138.733143,E,0.0,74.3,280317,0.4,E,A*32

3:16:31:618 Nachm. 03/28/17 - $GPGSA,A,2,10,12,13,15,17,18,19,24,,,,,1.1,0.8,0.8*36

3:16:31:618 Nachm. 03/28/17 - $GNGSA,A,2,10,12,13,15,17,18,19,24,,,,,1.1,0.8,0.8*28

3:16:31:618 Nachm. 03/28/17 - $GNGSA,A,2,65,71,72,73,74,82,,,,,,,1.1,0.8,0.8*20

3:16:32:585 Nachm. 03/28/17 - $GPGSV,3,1,12,10,16,295,27,12,45,233,17,13,17,160,12,15,40,192,14*7C

3:16:32:586 Nachm. 03/28/17 - $GPGSV,3,2,12,17,39,064,16,18,12,267,13,19,45,097,13,24,74,286,23*74

3:16:32:587 Nachm. 03/28/17 - $GPGSV,3,3,12,25,04,239,17,32,09,320,15,01,05,016,,28,06,056,*76

3:16:32:587 Nachm. 03/28/17 - $GLGSV,3,1,10,74,38,285,27,82,34,046,14,73,66,043,24,65,18,336,21*64

3:16:32:588 Nachm. 03/28/17 - $GLGSV,3,2,10,71,24,223,27,72,40,284,27,80,21,080,,84,00,157,*65

3:16:32:589 Nachm. 03/28/17 - $GLGSV,3,3,10,83,33,113,,81,03,007,*61

3:16:32:589 Nachm. 03/28/17 - $GPGGA,131628.0,5208.414854,N,01138.733133,E,1,08,0.8,59.3,M,45.0,M,,*67

3:16:32:590 Nachm. 03/28/17 - $GNGNS,131628.0,5208.414854,N,01138.733133,E,AA,14,0.8,59.3,45.0,,*5E

3:16:32:590 Nachm. 03/28/17 - $GPVTG,74.3,T,73.8,M,0.0,N,0.0,K,A*2F

3:16:32:591 Nachm. 03/28/17 - $GPRMC,131628.0,A,5208.414854,N,01138.733133,E,0.0,74.3,280317,0.4,E,A*3B

3:16:32:592 Nachm. 03/28/17 - $GPGSA,A,2,10,12,13,15,17,18,19,24,,,,,1.1,0.8,0.8*36

3:16:32:592 Nachm. 03/28/17 - $GNGSA,A,2,10,12,13,15,17,18,19,24,,,,,1.1,0.8,0.8*28

3:16:32:598 Nachm. 03/28/17 - $GNGSA,A,2,65,71,72,73,74,82,,,,,,,1.1,0.8,0.8*20

3:16:33:583 Nachm. 03/28/17 - $GPGSV,3,1,12,10,16,295,28,12,45,233,20,13,17,160,12,15,40,192,21*71

3:16:33:584 Nachm. 03/28/17 - $GPGSV,3,2,12,17,39,064,16,18,12,267,13,19,45,097,14,24,74,286,25*75

3:16:33:585 Nachm. 03/28/17 - $GPGSV,3,3,12,25,04,239,18,32,09,320,15,01,05,016,,28,06,056,*79

3:16:33:585 Nachm. 03/28/17 - $GLGSV,3,1,10,74,38,285,27,82,34,046,14,73,66,043,28,65,18,336,23*6A

3:16:33:586 Nachm. 03/28/17 - $GLGSV,3,2,10,71,24,223,27,72,40,284,27,80,21,080,,84,00,157,*65

3:16:33:590 Nachm. 03/28/17 - $GLGSV,3,3,10,83,33,113,,81,03,007,*61

3:16:33:591 Nachm. 03/28/17 - $GPGGA,131629.0,5208.414853,N,01138.733049,E,1,08,0.8,59.4,M,45.0,M,,*6A

3:16:33:604 Nachm. 03/28/17 - $GNGNS,131629.0,5208.414853,N,01138.733049,E,AA,13,0.8,59.4,45.0,,*54

3:16:33:607 Nachm. 03/28/17 - $GPVTG,74.3,T,73.8,M,0.0,N,0.0,K,A*2F

3:16:33:607 Nachm. 03/28/17 - $GPRMC,131629.0,A,5208.414853,N,01138.733049,E,0.0,74.3,280317,0.4,E,A*31

3:16:33:608 Nachm. 03/28/17 - $GPGSA,A,2,10,12,13,15,17,18,19,24,,,,,1.1,0.8,0.8*36

3:16:33:608 Nachm. 03/28/17 - $GNGSA,A,2,10,12,13,15,17,18,19,24,,,,,1.1,0.8,0.8*28

3:16:33:608 Nachm. 03/28/17 - $GNGSA,A,2,65,71,72,73,74,,,,,,,,1.1,0.8,0.8*2A

3:16:34:582 Nachm. 03/28/17 - $GPGSV,3,1,12,10,16,295,27,12,45,233,24,13,17,160,12,15,40,192,21*7A

3:16:34:583 Nachm. 03/28/17 - $GPGSV,3,2,12,17,39,064,16,18,12,267,13,19,45,097,14,24,74,286,25*75

3:16:34:588 Nachm. 03/28/17 - $GPGSV,3,3,12,25,04,239,16,32,09,320,15,01,05,016,,28,06,056,*77

3:16:34:596 Nachm. 03/28/17 - $GLGSV,3,1,10,74,38,285,27,82,34,046,14,73,66,043,28,65,18,336,21*68

3:16:34:606 Nachm. 03/28/17 - $GLGSV,3,2,10,71,24,223,27,72,40,284,26,80,21,080,,84,00,157,*64

3:16:34:606 Nachm. 03/28/17 - $GLGSV,3,3,10,83,33,113,,81,03,007,*61

3:16:34:607 Nachm. 03/28/17 - $GPGGA,131630.0,5208.414854,N,01138.733058,E,1,06,1.0,59.4,M,45.0,M,,*62

3:16:34:607 Nachm. 03/28/17 - $GNGNS,131630.0,5208.414854,N,01138.733058,E,AA,11,1.0,59.4,45.0,,*50

3:16:34:608 Nachm. 03/28/17 - $GPVTG,74.3,T,73.8,M,0.0,N,0.0,K,A*2F

3:16:34:608 Nachm. 03/28/17 - $GPRMC,131630.0,A,5208.414854,N,01138.733058,E,0.0,74.3,280317,0.4,E,A*3E

3:16:34:609 Nachm. 03/28/17 - $GPGSA,A,2,10,12,15,18,19,24,,,,,,,1.3,1.0,0.9*38

3:16:34:609 Nachm. 03/28/17 - $GNGSA,A,2,10,12,15,18,19,24,,,,,,,1.3,1.0,0.9*26

3:16:34:609 Nachm. 03/28/17 - $GNGSA,A,2,65,71,72,73,74,,,,,,,,1.3,1.0,0.9*20

3:16:35:582 Nachm. 03/28/17 - $GPGSV,3,1,12,10,16,295,28,12,45,233,23,13,17,160,12,15,40,192,21*72

3:16:35:587 Nachm. 03/28/17 - $GPGSV,3,2,12,17,39,064,14,18,12,267,15,19,45,097,17,24,74,286,24*73

3:16:35:589 Nachm. 03/28/17 - $GPGSV,3,3,12,25,04,239,19,32,09,320,15,01,05,016,,28,06,056,*78

3:16:35:591 Nachm. 03/28/17 - $GLGSV,3,1,10,74,38,285,28,82,34,046,14,73,66,043,26,65,18,336,22*6A

3:16:35:593 Nachm. 03/28/17 - $GLGSV,3,2,10,71,24,223,27,72,40,284,27,80,21,080,,84,00,157,*65

3:16:35:595 Nachm. 03/28/17 - $GLGSV,3,3,10,83,33,113,,81,03,007,*61

3:16:35:603 Nachm. 03/28/17 - $GPGGA,131631.0,5208.414846,N,01138.732780,E,1,07,0.9,59.8,M,45.0,M,,*66

3:16:35:617 Nachm. 03/28/17 - $GNGNS,131631.0,5208.414846,N,01138.732780,E,AA,12,0.9,59.8,45.0,,*56

3:16:35:619 Nachm. 03/28/17 - $GPVTG,74.3,T,73.8,M,0.0,N,0.0,K,A*2F

3:16:35:620 Nachm. 03/28/17 - $GPRMC,131631.0,A,5208.414846,N,01138.732780,E,0.0,74.3,280317,0.4,E,A*3F

3:16:35:620 Nachm. 03/28/17 - $GPGSA,A,2,10,12,15,17,18,19,24,,,,,,1.2,0.9,0.8*36

3:16:35:621 Nachm. 03/28/17 - $GNGSA,A,2,10,12,15,17,18,19,24,,,,,,1.2,0.9,0.8*28

3:16:35:621 Nachm. 03/28/17 - $GNGSA,A,2,65,71,72,73,74,,,,,,,,1.2,0.9,0.8*28

3:16:36:582 Nachm. 03/28/17 - $GPGSV,3,1,12,10,16,295,28,12,45,233,24,13,17,160,12,15,40,192,18*7F

3:16:36:583 Nachm. 03/28/17 - $GPGSV,3,2,12,17,39,064,14,18,12,267,15,19,45,097,17,24,74,286,27*70

3:16:36:585 Nachm. 03/28/17 - $GPGSV,3,3,12,25,04,239,19,32,09,320,15,01,05,016,,28,06,056,*78

3:16:36:599 Nachm. 03/28/17 - $GLGSV,3,1,10,74,38,285,27,82,34,046,14,73,66,043,26,65,18,336,23*64

3:16:36:600 Nachm. 03/28/17 - $GLGSV,3,2,10,71,24,223,26,72,40,284,27,80,21,080,,84,00,157,*64

3:16:36:600 Nachm. 03/28/17 - $GLGSV,3,3,10,83,33,113,,81,03,007,*61

3:16:36:600 Nachm. 03/28/17 - $GPGGA,131632.0,5208.414850,N,01138.732772,E,1,07,0.9,59.8,M,45.0,M,,*6F

3:16:36:601 Nachm. 03/28/17 - $GNGNS,131632.0,5208.414850,N,01138.732772,E,AA,12,0.9,59.8,45.0,,*5F

3:16:36:601 Nachm. 03/28/17 - $GPVTG,74.3,T,73.8,M,0.0,N,0.0,K,A*2F

3:16:36:602 Nachm. 03/28/17 - $GPRMC,131632.0,A,5208.414850,N,01138.732772,E,0.0,74.3,280317,0.4,E,A*36

3:16:36:602 Nachm. 03/28/17 - $GPGSA,A,2,10,12,15,17,18,19,24,,,,,,1.2,0.9,0.8*36

3:16:36:602 Nachm. 03/28/17 - $GNGSA,A,2,10,12,15,17,18,19,24,,,,,,1.2,0.9,0.8*28

3:16:36:602 Nachm. 03/28/17 - $GNGSA,A,2,65,71,72,73,74,,,,,,,,1.2,0.9,0.8*28

3:16:37:584 Nachm. 03/28/17 - $GPGSV,3,1,12,10,16,295,28,12,45,233,22,13,17,160,12,15,40,192,20*72

3:16:37:585 Nachm. 03/28/17 - $GPGSV,3,2,12,17,39,064,14,18,12,267,15,19,45,097,18,24,74,286,26*7E

3:16:37:586 Nachm. 03/28/17 - $GPGSV,3,3,12,25,04,239,18,32,09,320,15,01,05,016,,28,06,056,*79

3:16:37:590 Nachm. 03/28/17 - $GLGSV,3,1,10,74,38,285,27,82,34,046,14,73,66,043,22,65,18,336,23*60

3:16:37:590 Nachm. 03/28/17 - $GLGSV,3,2,10,71,24,223,27,72,40,284,27,80,21,080,,84,00,157,*65

3:16:37:591 Nachm. 03/28/17 - $GLGSV,3,3,10,83,33,113,,81,03,007,*61

3:16:37:592 Nachm. 03/28/17 - $GPGGA,131633.0,5208.414840,N,01138.732423,E,1,08,0.8,60.2,M,45.0,M,,*66

3:16:37:597 Nachm. 03/28/17 - $GNGNS,131633.0,5208.414840,N,01138.732423,E,AA,13,0.8,60.2,45.0,,*58

3:16:37:598 Nachm. 03/28/17 - $GPVTG,74.3,T,73.8,M,0.0,N,0.0,K,A*2F

3:16:37:598 Nachm. 03/28/17 - $GPRMC,131633.0,A,5208.414840,N,01138.732423,E,0.0,74.3,280317,0.4,E,A*31

3:16:37:599 Nachm. 03/28/17 - $GPGSA,A,2,10,12,13,15,17,18,19,24,,,,,1.1,0.8,0.8*36

3:16:37:599 Nachm. 03/28/17 - $GNGSA,A,2,10,12,13,15,17,18,19,24,,,,,1.1,0.8,0.8*28

3:16:37:601 Nachm. 03/28/17 - $GNGSA,A,2,65,71,72,73,74,,,,,,,,1.1,0.8,0.8*2A

3:16:38:583 Nachm. 03/28/17 - $GPGSV,3,1,12,10,16,295,28,12,45,233,23,13,17,160,12,15,40,192,21*72

3:16:38:584 Nachm. 03/28/17 - $GPGSV,3,2,12,17,39,064,14,18,12,267,15,19,45,097,18,24,74,286,27*7F

3:16:38:585 Nachm. 03/28/17 - $GPGSV,3,3,12,25,04,239,19,32,09,320,15,01,05,016,,28,06,056,*78

3:16:38:586 Nachm. 03/28/17 - $GLGSV,3,1,10,74,38,285,27,82,34,046,14,73,66,043,24,65,18,336,23*66

3:16:38:597 Nachm. 03/28/17 - $GLGSV,3,2,10,71,24,223,27,72,40,284,27,80,21,080,,84,00,157,*65

3:16:38:611 Nachm. 03/28/17 - $GLGSV,3,3,10,83,33,113,,81,03,007,*61

3:16:38:612 Nachm. 03/28/17 - $GPGGA,131634.0,5208.414827,N,01138.732110,E,1,08,0.8,60.7,M,45.0,M,,*60

3:16:38:613 Nachm. 03/28/17 - $GNGNS,131634.0,5208.414827,N,01138.732110,E,AA,13,0.8,60.7,45.0,,*5E

3:16:38:613 Nachm. 03/28/17 - $GPVTG,74.3,T,73.8,M,0.0,N,0.0,K,A*2F

3:16:38:614 Nachm. 03/28/17 - $GPRMC,131634.0,A,5208.414827,N,01138.732110,E,0.0,74.3,280317,0.4,E,A*32

3:16:38:614 Nachm. 03/28/17 - $GPGSA,A,2,10,12,13,15,17,18,19,24,,,,,1.1,0.8,0.8*36

3:16:38:615 Nachm. 03/28/17 - $GNGSA,A,2,10,12,13,15,17,18,19,24,,,,,1.1,0.8,0.8*28

3:16:38:616 Nachm. 03/28/17 - $GNGSA,A,2,65,71,72,73,74,,,,,,,,1.1,0.8,0.8*2A

3:16:39:583 Nachm. 03/28/17 - $GPGSV,3,1,12,10,16,295,29,12,45,233,25,13,17,160,12,15,40,192,20*74

3:16:39:584 Nachm. 03/28/17 - $GPGSV,3,2,12,17,39,064,14,18,12,267,21,19,45,097,18,24,74,286,26*79

3:16:39:589 Nachm. 03/28/17 - $GPGSV,3,3,12,25,04,239,17,32,09,320,15,01,05,016,,28,06,056,*76

3:16:39:591 Nachm. 03/28/17 - $GLGSV,3,1,10,74,38,285,26,82,34,046,14,73,66,043,24,65,18,336,21*65

3:16:39:593 Nachm. 03/28/17 - $GLGSV,3,2,10,71,24,223,25,72,40,284,18,80,21,080,,84,00,157,*6B

3:16:39:593 Nachm. 03/28/17 - $GLGSV,3,3,10,83,33,113,,81,03,007,*61

3:16:39:594 Nachm. 03/28/17 - $GPGGA,131635.0,5208.414822,N,01138.732019,E,1,08,0.8,60.8,M,45.0,M,,*63

3:16:39:598 Nachm. 03/28/17 - $GNGNS,131635.0,5208.414822,N,01138.732019,E,AA,13,0.8,60.8,45.0,,*5D

3:16:39:599 Nachm. 03/28/17 - $GPVTG,74.3,T,73.8,M,0.0,N,0.0,K,A*2F

3:16:39:600 Nachm. 03/28/17 - $GPRMC,131635.0,A,5208.414822,N,01138.732019,E,0.0,74.3,280317,0.4,E,A*3E

3:16:39:600 Nachm. 03/28/17 - $GPGSA,A,2,10,12,13,15,17,18,19,24,,,,,1.1,0.8,0.8*36

3:16:39:600 Nachm. 03/28/17 - $GNGSA,A,2,10,12,13,15,17,18,19,24,,,,,1.1,0.8,0.8*28

3:16:39:600 Nachm. 03/28/17 - $GNGSA,A,2,65,71,72,73,74,,,,,,,,1.1,0.8,0.8*2A

3:16:40:583 Nachm. 03/28/17 - $GPGSV,3,1,12,10,16,295,30,12,45,233,23,13,17,160,12,15,40,192,25*7F

3:16:40:584 Nachm. 03/28/17 - $GPGSV,3,2,12,17,39,064,14,18,12,267,21,19,45,097,18,24,74,286,25*7A

3:16:40:585 Nachm. 03/28/17 - $GPGSV,3,3,12,25,04,239,18,32,09,320,15,01,05,016,,28,06,056,*79

3:16:40:600 Nachm. 03/28/17 - $GLGSV,3,1,10,74,38,285,24,82,34,046,14,73,66,043,26,65,18,336,18*6F

3:16:40:600 Nachm. 03/28/17 - $GLGSV,3,2,10,71,24,223,25,72,40,284,17,80,21,080,,84,00,157,*64

3:16:40:600 Nachm. 03/28/17 - $GLGSV,3,3,10,83,33,113,,81,03,007,*61

3:16:40:601 Nachm. 03/28/17 - $GPGGA,131636.0,5208.414817,N,01138.731973,E,1,08,0.8,60.9,M,45.0,M,,*61

3:16:40:601 Nachm. 03/28/17 - $GNGNS,131636.0,5208.414817,N,01138.731973,E,AA,13,0.8,60.9,45.0,,*5F

3:16:40:601 Nachm. 03/28/17 - $GPVTG,74.3,T,73.8,M,0.0,N,0.0,K,A*2F

3:16:40:601 Nachm. 03/28/17 - $GPRMC,131636.0,A,5208.414817,N,01138.731973,E,0.0,74.3,280317,0.4,E,A*3D

3:16:40:601 Nachm. 03/28/17 - $GPGSA,A,2,10,12,13,15,17,18,19,24,,,,,1.1,0.8,0.8*36

3:16:40:602 Nachm. 03/28/17 - $GNGSA,A,2,10,12,13,15,17,18,19,24,,,,,1.1,0.8,0.8*28

3:16:40:602 Nachm. 03/28/17 - $GNGSA,A,2,65,71,72,73,74,,,,,,,,1.1,0.8,0.8*2A

3:16:41:583 Nachm. 03/28/17 - $GPGSV,3,1,12,10,16,295,29,12,45,233,27,13,17,160,12,15,40,192,18*7D

3:16:41:587 Nachm. 03/28/17 - $GPGSV,3,2,12,17,39,064,14,18,12,267,19,19,45,097,18,24,74,286,29*7D

3:16:41:597 Nachm. 03/28/17 - $GPGSV,3,3,12,25,04,239,19,32,09,320,15,01,05,016,,28,06,056,*78

3:16:41:598 Nachm. 03/28/17 - $GLGSV,3,1,10,74,38,285,23,82,34,046,14,73,66,043,26,65,18,336,18*68

3:16:41:598 Nachm. 03/28/17 - $GLGSV,3,2,10,71,24,223,24,72,40,284,19,80,21,080,,84,00,157,*6B

3:16:41:599 Nachm. 03/28/17 - $GLGSV,3,3,10,83,33,113,,81,03,007,*61

3:16:41:602 Nachm. 03/28/17 - $GPGGA,131637.0,5208.414812,N,01138.731895,E,1,08,0.8,61.0,M,45.0,M,,*64

3:16:41:603 Nachm. 03/28/17 - $GNGNS,131637.0,5208.414812,N,01138.731895,E,AA,13,0.8,61.0,45.0,,*5A

3:16:41:604 Nachm. 03/28/17 - $GPVTG,74.3,T,73.8,M,0.0,N,0.0,K,A*2F

3:16:41:604 Nachm. 03/28/17 - $GPRMC,131637.0,A,5208.414812,N,01138.731895,E,0.0,74.3,280317,0.4,E,A*30

3:16:41:605 Nachm. 03/28/17 - $GPGSA,A,2,10,12,13,15,17,18,19,24,,,,,1.1,0.8,0.8*36

3:16:41:606 Nachm. 03/28/17 - $GNGSA,A,2,10,12,13,15,17,18,19,24,,,,,1.1,0.8,0.8*28

3:16:41:607 Nachm. 03/28/17 - $GNGSA,A,2,65,71,72,73,74,,,,,,,,1.1,0.8,0.8*2A

3:16:42:583 Nachm. 03/28/17 - $GPGSV,3,1,12,10,16,295,29,12,45,233,24,13,17,160,12,15,40,192,21*74

3:16:42:585 Nachm. 03/28/17 - $GPGSV,3,2,12,17,39,064,14,18,12,267,19,19,45,097,18,24,74,286,26*72

3:16:42:585 Nachm. 03/28/17 - $GPGSV,3,3,12,25,04,239,20,01,05,016,,28,06,056,,32,09,320,*76

3:16:42:586 Nachm. 03/28/17 - $GLGSV,3,1,10,74,38,285,23,82,34,046,14,73,66,043,21,65,18,336,19*6E

3:16:42:587 Nachm. 03/28/17 - $GLGSV,3,2,10,71,24,223,26,72,40,284,22,80,21,080,,84,00,157,*61

3:16:42:590 Nachm. 03/28/17 - $GLGSV,3,3,10,83,33,113,,81,03,007,*61

3:16:42:596 Nachm. 03/28/17 - $GPGGA,131638.0,5208.414810,N,01138.731861,E,1,08,0.8,61.1,M,45.0,M,,*63

3:16:42:604 Nachm. 03/28/17 - $GNGNS,131638.0,5208.414810,N,01138.731861,E,AA,13,0.8,61.1,45.0,,*5D

3:16:42:605 Nachm. 03/28/17 - $GPVTG,74.3,T,73.8,M,0.0,N,0.0,K,A*2F

3:16:42:606 Nachm. 03/28/17 - $GPRMC,131638.0,A,5208.414810,N,01138.731861,E,0.0,74.3,280317,0.4,E,A*36

3:16:42:607 Nachm. 03/28/17 - $GPGSA,A,2,10,12,13,15,17,18,19,24,,,,,1.1,0.8,0.8*36

3:16:42:607 Nachm. 03/28/17 - $GNGSA,A,2,10,12,13,15,17,18,19,24,,,,,1.1,0.8,0.8*28

3:16:42:608 Nachm. 03/28/17 - $GNGSA,A,2,65,71,72,73,74,,,,,,,,1.1,0.8,0.8*2A

3:16:43:583 Nachm. 03/28/17 - $GPGSV,3,1,12,10,16,295,30,12,45,233,20,13,17,160,12,15,40,192,24*7D

3:16:43:585 Nachm. 03/28/17 - $GPGSV,3,2,12,17,39,064,14,18,12,267,19,19,45,097,18,24,74,286,25*71

3:16:43:588 Nachm. 03/28/17 - $GPGSV,3,3,12,25,04,239,19,01,05,016,,28,06,056,,32,09,320,*7C

3:16:43:589 Nachm. 03/28/17 - $GLGSV,3,1,10,74,38,285,22,82,34,046,14,73,66,043,27,65,18,336,21*62

3:16:43:590 Nachm. 03/28/17 - $GLGSV,3,2,10,71,24,223,28,72,40,284,21,80,21,080,,84,00,157,*6C

3:16:43:591 Nachm. 03/28/17 - $GLGSV,3,3,10,83,33,113,,81,03,007,*61

3:16:43:592 Nachm. 03/28/17 - $GPGGA,131639.0,5208.414812,N,01138.731865,E,1,08,0.8,61.1,M,45.0,M,,*64

3:16:43:602 Nachm. 03/28/17 - $GNGNS,131639.0,5208.414812,N,01138.731865,E,AA,13,0.8,61.1,45.0,,*5A

3:16:43:603 Nachm. 03/28/17 - $GPVTG,74.3,T,73.8,M,0.0,N,0.0,K,A*2F

3:16:43:603 Nachm. 03/28/17 - $GPRMC,131639.0,A,5208.414812,N,01138.731865,E,0.0,74.3,280317,0.4,E,A*31

3:16:43:604 Nachm. 03/28/17 - $GPGSA,A,2,10,12,13,15,17,18,19,24,,,,,1.1,0.8,0.8*36

3:16:43:604 Nachm. 03/28/17 - $GNGSA,A,2,10,12,13,15,17,18,19,24,,,,,1.1,0.8,0.8*28

3:16:43:604 Nachm. 03/28/17 - $GNGSA,A,2,65,71,72,73,74,,,,,,,,1.1,0.8,0.8*2A

3:16:44:581 Nachm. 03/28/17 - $GPGSV,3,1,12,10,16,295,29,12,45,233,21,13,17,160,12,15,40,192,23*73

3:16:44:581 Nachm. 03/28/17 - $GPGSV,3,2,12,17,39,064,16,18,12,267,14,19,45,097,18,24,74,286,26*7D

3:16:44:582 Nachm. 03/28/17 - $GPGSV,3,3,12,25,04,239,19,01,05,016,,28,06,056,,32,09,320,*7C

3:16:44:586 Nachm. 03/28/17 - $GLGSV,3,1,10,74,38,285,23,82,34,046,14,73,66,043,26,65,18,336,19*69

3:16:44:586 Nachm. 03/28/17 - $GLGSV,3,2,10,71,24,223,28,72,40,284,22,80,21,080,,84,00,157,*6F

3:16:44:587 Nachm. 03/28/17 - $GLGSV,3,3,10,83,33,113,,81,03,007,*61

3:16:44:587 Nachm. 03/28/17 - $GPGGA,131640.0,5208.414799,N,01138.731757,E,1,07,0.9,61.2,M,45.0,M,,*65

3:16:44:589 Nachm. 03/28/17 - $GNGNS,131640.0,5208.414799,N,01138.731757,E,AA,12,0.9,61.2,45.0,,*55

3:16:44:594 Nachm. 03/28/17 - $GPVTG,74.3,T,73.8,M,0.0,N,0.0,K,A*2F

3:16:44:595 Nachm. 03/28/17 - $GPRMC,131640.0,A,5208.414799,N,01138.731757,E,0.0,74.3,280317,0.4,E,A*3D

3:16:44:595 Nachm. 03/28/17 - $GPGSA,A,2,10,12,15,17,18,19,24,,,,,,1.2,0.9,0.8*36

3:16:44:595 Nachm. 03/28/17 - $GNGSA,A,2,10,12,15,17,18,19,24,,,,,,1.2,0.9,0.8*28

3:16:44:595 Nachm. 03/28/17 - $GNGSA,A,2,65,71,72,73,74,,,,,,,,1.2,0.9,0.8*28

3:16:45:584 Nachm. 03/28/17 - $GPGSV,3,1,12,10,16,295,27,12,45,233,25,13,17,160,12,15,40,192,20*7A

3:16:45:584 Nachm. 03/28/17 - $GPGSV,3,2,12,17,39,064,16,18,12,267,24,19,45,097,18,24,74,286,25*7D

3:16:45:585 Nachm. 03/28/17 - $GPGSV,3,3,12,25,04,239,19,01,05,016,,28,06,056,,32,09,320,*7C

3:16:45:589 Nachm. 03/28/17 - $GLGSV,3,1,10,74,38,285,25,82,34,046,13,73,66,043,26,65,18,336,19*68

3:16:45:600 Nachm. 03/28/17 - $GLGSV,3,2,10,71,24,223,26,72,40,284,22,80,21,080,,84,00,157,*61

3:16:45:602 Nachm. 03/28/17 - $GLGSV,3,3,10,83,33,113,,81,03,007,*61

3:16:45:603 Nachm. 03/28/17 - $GPGGA,131641.0,5208.414784,N,01138.731674,E,1,06,0.9,61.4,M,45.0,M,,*6F

3:16:45:605 Nachm. 03/28/17 - $GNGNS,131641.0,5208.414784,N,01138.731674,E,AA,12,0.9,61.4,45.0,,*5E

3:16:45:607 Nachm. 03/28/17 - $GPVTG,74.3,T,73.8,M,0.0,N,0.0,K,A*2F

3:16:45:608 Nachm. 03/28/17 - $GPRMC,131641.0,A,5208.414784,N,01138.731674,E,0.0,74.3,280317,0.4,E,A*30

3:16:45:609 Nachm. 03/28/17 - $GPGSA,A,2,10,12,15,17,18,24,,,,,,,1.2,0.9,0.8*3E

3:16:45:609 Nachm. 03/28/17 - $GNGSA,A,2,10,12,15,17,18,24,,,,,,,1.2,0.9,0.8*20

3:16:45:610 Nachm. 03/28/17 - $GNGSA,A,2,65,71,72,73,74,82,,,,,,,1.2,0.9,0.8*22


