3:02:34:584 Nachm. 03/28/17 - $GPGSV,3,1,12,10,17,300,23,12,38,229,25,13,23,158,13,15,46,195,24*7B

3:02:34:585 Nachm. 03/28/17 - $GPGSV,3,2,12,17,41,073,14,18,15,272,13,19,43,105,13,24,68,286,23*7D

3:02:34:586 Nachm. 03/28/17 - $GPGSV,3,3,12,28,11,054,14,32,04,322,19,01,05,021,,25,,,*4A

3:02:34:589 Nachm. 03/28/17 - $GLGSV,2,1,07,74,33,279,24,82,35,054,17,73,71,025,27,65,14,340,22*62

3:02:34:589 Nachm. 03/28/17 - $GLGSV,2,2,07,71,31,227,28,72,41,293,23,83,28,119,*5A

3:02:34:589 Nachm. 03/28/17 - $GPGGA,130230.0,5208.366579,N,01138.419391,E,1,09,0.8,59.2,M,45.0,M,,*6A

3:02:34:590 Nachm. 03/28/17 - $GNGNS,130230.0,5208.366579,N,01138.419391,E,AA,14,0.8,59.2,45.0,,*52

3:02:34:590 Nachm. 03/28/17 - $GPVTG,305.9,T,305.5,M,0.0,N,0.0,K,A*2F

3:02:34:590 Nachm. 03/28/17 - $GPRMC,130230.0,A,5208.366579,N,01138.419391,E,0.0,305.9,280317,0.4,E,A*09

3:02:34:590 Nachm. 03/28/17 - $GPGSA,A,2,10,12,13,15,17,18,19,24,28,,,,1.1,0.8,0.8*3C

3:02:34:590 Nachm. 03/28/17 - $GNGSA,A,2,10,12,13,15,17,18,19,24,28,,,,1.1,0.8,0.8*22

3:02:34:591 Nachm. 03/28/17 - $GNGSA,A,2,71,72,73,74,82,,,,,,,,1.1,0.8,0.8*23

3:02:35:585 Nachm. 03/28/17 - $GPGSV,3,1,12,10,17,300,27,12,38,229,19,13,23,158,13,15,46,195,19*7E

3:02:35:587 Nachm. 03/28/17 - $GPGSV,3,2,12,17,41,073,14,18,15,272,13,19,43,105,13,24,68,286,25*7B

3:02:35:590 Nachm. 03/28/17 - $GPGSV,3,3,12,28,11,054,14,32,04,322,19,01,05,021,,25,,,*4A

3:02:35:592 Nachm. 03/28/17 - $GLGSV,2,1,07,74,33,279,21,82,35,054,17,73,71,025,27,65,14,340,19*6F

3:02:35:607 Nachm. 03/28/17 - $GLGSV,2,2,07,71,31,227,25,72,41,293,17,83,28,119,*50

3:02:35:611 Nachm. 03/28/17 - $GPGGA,130231.0,5208.366482,N,01138.419759,E,1,09,0.8,58.8,M,45.0,M,,*65

3:02:35:611 Nachm. 03/28/17 - $GNGNS,130231.0,5208.366482,N,01138.419759,E,AA,14,0.8,58.8,45.0,,*5D

3:02:35:611 Nachm. 03/28/17 - $GPVTG,305.9,T,305.5,M,0.0,N,0.0,K,A*2F

3:02:35:612 Nachm. 03/28/17 - $GPRMC,130231.0,A,5208.366482,N,01138.419759,E,0.0,305.9,280317,0.4,E,A*0D

3:02:35:613 Nachm. 03/28/17 - $GPGSA,A,2,10,12,13,15,17,18,19,24,28,,,,1.1,0.8,0.8*3C

3:02:35:613 Nachm. 03/28/17 - $GNGSA,A,2,10,12,13,15,17,18,19,24,28,,,,1.1,0.8,0.8*22

3:02:35:614 Nachm. 03/28/17 - $GNGSA,A,2,71,72,73,74,82,,,,,,,,1.1,0.8,0.8*23

3:02:36:584 Nachm. 03/28/17 - $GPGSV,3,1,12,10,17,300,27,12,38,229,21,13,23,158,13,15,46,195,20*7F

3:02:36:585 Nachm. 03/28/17 - $GPGSV,3,2,12,17,41,073,14,18,15,272,13,19,43,105,13,24,68,286,27*79

3:02:36:586 Nachm. 03/28/17 - $GPGSV,3,3,12,28,11,054,14,32,04,322,19,01,05,021,,25,,,*4A

3:02:36:604 Nachm. 03/28/17 - $GLGSV,2,1,07,74,33,279,24,82,35,054,17,73,71,025,25,65,14,340,22*60

3:02:36:605 Nachm. 03/28/17 - $GLGSV,2,2,07,71,31,227,24,72,41,293,17,83,28,119,*51

3:02:36:609 Nachm. 03/28/17 - $GPGGA,130232.0,5208.366445,N,01138.419999,E,1,09,0.8,58.7,M,45.0,M,,*60

3:02:36:610 Nachm. 03/28/17 - $GNGNS,130232.0,5208.366445,N,01138.419999,E,AA,14,0.8,58.7,45.0,,*58

3:02:36:610 Nachm. 03/28/17 - $GPVTG,305.9,T,305.5,M,0.0,N,0.0,K,A*2F

3:02:36:610 Nachm. 03/28/17 - $GPRMC,130232.0,A,5208.366445,N,01138.419999,E,0.0,305.9,280317,0.4,E,A*07

3:02:36:611 Nachm. 03/28/17 - $GPGSA,A,2,10,12,13,15,17,18,19,24,28,,,,1.1,0.8,0.8*3C

3:02:36:611 Nachm. 03/28/17 - $GNGSA,A,2,10,12,13,15,17,18,19,24,28,,,,1.1,0.8,0.8*22

3:02:36:611 Nachm. 03/28/17 - $GNGSA,A,2,71,72,73,74,82,,,,,,,,1.1,0.8,0.8*23

3:02:37:588 Nachm. 03/28/17 - $GPGSV,3,1,12,10,17,300,26,12,38,229,24,13,23,158,15,15,46,195,21*7C

3:02:37:589 Nachm. 03/28/17 - $GPGSV,3,2,12,17,41,073,14,18,15,272,13,19,43,105,13,24,68,286,26*78

3:02:37:592 Nachm. 03/28/17 - $GPGSV,3,3,12,28,11,054,14,32,04,322,19,01,05,021,,25,,,*4A

3:02:37:609 Nachm. 03/28/17 - $GLGSV,2,1,07,74,33,279,24,82,35,054,17,73,71,025,25,65,14,340,23*61

3:02:37:611 Nachm. 03/28/17 - $GLGSV,2,2,07,71,31,227,24,72,41,293,15,83,28,119,*53

3:02:37:612 Nachm. 03/28/17 - $GPGGA,130233.0,5208.366463,N,01138.419186,E,1,09,0.8,59.7,M,45.0,M,,*62

3:02:37:614 Nachm. 03/28/17 - $GNGNS,130233.0,5208.366463,N,01138.419186,E,AA,14,0.8,59.7,45.0,,*5A

3:02:37:621 Nachm. 03/28/17 - $GPVTG,305.9,T,305.5,M,0.0,N,0.0,K,A*2F

3:02:37:623 Nachm. 03/28/17 - $GPRMC,130233.0,A,5208.366463,N,01138.419186,E,0.0,305.9,280317,0.4,E,A*04

3:02:37:623 Nachm. 03/28/17 - $GPGSA,A,2,10,12,13,15,17,18,19,24,28,,,,1.1,0.8,0.8*3C

3:02:37:623 Nachm. 03/28/17 - $GNGSA,A,2,10,12,13,15,17,18,19,24,28,,,,1.1,0.8,0.8*22

3:02:37:625 Nachm. 03/28/17 - $GNGSA,A,2,71,72,73,74,82,,,,,,,,1.1,0.8,0.8*23

3:02:38:585 Nachm. 03/28/17 - $GPGSV,3,1,12,10,17,300,24,12,38,229,28,13,23,158,15,15,46,195,18*78

3:02:38:586 Nachm. 03/28/17 - $GPGSV,3,2,12,17,41,073,14,18,15,272,17,19,43,105,13,24,68,286,30*7B

3:02:38:587 Nachm. 03/28/17 - $GPGSV,3,3,12,28,11,054,14,32,04,322,18,01,05,021,,25,,,*4B

3:02:38:595 Nachm. 03/28/17 - $GLGSV,2,1,07,74,33,279,17,82,35,054,17,73,71,025,28,65,14,340,19*65

3:02:38:597 Nachm. 03/28/17 - $GLGSV,2,2,07,71,31,227,24,72,41,293,24,83,28,119,*51

3:02:38:597 Nachm. 03/28/17 - $GPGGA,130234.0,5208.366460,N,01138.419203,E,1,09,0.8,59.8,M,45.0,M,,*67

3:02:38:601 Nachm. 03/28/17 - $GNGNS,130234.0,5208.366460,N,01138.419203,E,AA,14,0.8,59.8,45.0,,*5F

3:02:38:606 Nachm. 03/28/17 - $GPVTG,305.9,T,305.5,M,0.0,N,0.0,K,A*2F

3:02:38:608 Nachm. 03/28/17 - $GPRMC,130234.0,A,5208.366460,N,01138.419203,E,0.0,305.9,280317,0.4,E,A*0E

3:02:38:609 Nachm. 03/28/17 - $GPGSA,A,2,10,12,13,15,17,18,19,24,28,,,,1.1,0.8,0.8*3C

3:02:38:611 Nachm. 03/28/17 - $GNGSA,A,2,10,12,13,15,17,18,19,24,28,,,,1.1,0.8,0.8*22

3:02:38:612 Nachm. 03/28/17 - $GNGSA,A,2,71,72,73,74,82,,,,,,,,1.1,0.8,0.8*23

3:02:39:584 Nachm. 03/28/17 - $GPGSV,3,1,12,10,17,300,24,12,38,229,23,13,23,158,15,15,46,195,21*79

3:02:39:584 Nachm. 03/28/17 - $GPGSV,3,2,12,17,41,073,14,18,15,272,19,19,43,105,13,24,68,286,28*7C

3:02:39:585 Nachm. 03/28/17 - $GPGSV,3,3,12,28,11,054,14,32,04,322,19,01,05,021,,25,,,*4A

3:02:39:588 Nachm. 03/28/17 - $GLGSV,2,1,07,74,33,279,26,82,35,054,17,73,71,025,25,65,14,340,21*61

3:02:39:588 Nachm. 03/28/17 - $GLGSV,2,2,07,71,31,227,27,72,41,293,25,83,28,119,*53

3:02:39:589 Nachm. 03/28/17 - $GPGGA,130235.0,5208.366455,N,01138.419196,E,1,07,0.8,59.9,M,45.0,M,,*60

3:02:39:589 Nachm. 03/28/17 - $GNGNS,130235.0,5208.366455,N,01138.419196,E,AA,12,0.8,59.9,45.0,,*50

3:02:39:590 Nachm. 03/28/17 - $GPVTG,305.9,T,305.5,M,0.0,N,0.0,K,A*2F

3:02:39:590 Nachm. 03/28/17 - $GPRMC,130235.0,A,5208.366455,N,01138.419196,E,0.0,305.9,280317,0.4,E,A*06

3:02:39:591 Nachm. 03/28/17 - $GPGSA,A,2,10,12,13,15,18,24,28,,,,,,1.1,0.8,0.8*32

3:02:39:591 Nachm. 03/28/17 - $GNGSA,A,2,10,12,13,15,18,24,28,,,,,,1.1,0.8,0.8*2C

3:02:39:591 Nachm. 03/28/17 - $GNGSA,A,2,71,72,73,74,82,,,,,,,,1.1,0.8,0.8*23

3:02:40:582 Nachm. 03/28/17 - $GPGSV,3,1,12,10,17,300,23,12,38,229,28,13,23,158,15,15,46,195,18*7F

3:02:40:583 Nachm. 03/28/17 - $GPGSV,3,2,12,17,41,073,14,18,15,272,17,19,43,105,13,24,68,286,26*7C

3:02:40:584 Nachm. 03/28/17 - $GPGSV,3,3,12,28,11,054,14,32,04,322,19,01,05,021,,25,,,*4A

3:02:40:584 Nachm. 03/28/17 - $GLGSV,2,1,07,74,33,279,27,82,35,054,17,73,71,025,19,65,14,340,21*6F

3:02:40:588 Nachm. 03/28/17 - $GLGSV,2,2,07,71,31,227,27,72,41,293,27,83,28,119,*51

3:02:40:588 Nachm. 03/28/17 - $GPGGA,130236.0,5208.366448,N,01138.419238,E,1,07,0.9,60.0,M,45.0,M,,*6A

3:02:40:589 Nachm. 03/28/17 - $GNGNS,130236.0,5208.366448,N,01138.419238,E,AA,11,0.9,60.0,45.0,,*59

3:02:40:589 Nachm. 03/28/17 - $GPVTG,305.9,T,305.5,M,0.0,N,0.0,K,A*2F

3:02:40:589 Nachm. 03/28/17 - $GPRMC,130236.0,A,5208.366448,N,01138.419238,E,0.0,305.9,280317,0.4,E,A*0E

3:02:40:589 Nachm. 03/28/17 - $GPGSA,A,2,10,12,13,15,18,24,28,,,,,,1.2,0.9,0.8*30

3:02:40:589 Nachm. 03/28/17 - $GNGSA,A,2,10,12,13,15,18,24,28,,,,,,1.2,0.9,0.8*2E

3:02:40:590 Nachm. 03/28/17 - $GNGSA,A,2,71,72,73,74,,,,,,,,,1.2,0.9,0.8*2B

3:02:41:583 Nachm. 03/28/17 - $GPGSV,3,1,12,10,17,300,23,12,38,229,26,13,23,158,15,15,46,195,18*71

3:02:41:584 Nachm. 03/28/17 - $GPGSV,3,2,12,17,41,073,14,18,15,272,18,19,43,105,13,24,68,286,24*71

3:02:41:585 Nachm. 03/28/17 - $GPGSV,3,3,12,28,11,054,14,32,04,322,19,01,05,021,,25,,,*4A

3:02:41:585 Nachm. 03/28/17 - $GLGSV,2,1,07,74,33,279,28,82,35,054,17,73,71,025,23,65,14,340,20*68

3:02:41:585 Nachm. 03/28/17 - $GLGSV,2,2,07,71,31,227,25,72,41,293,26,83,28,119,*52

3:02:41:592 Nachm. 03/28/17 - $GPGGA,130237.0,5208.366386,N,01138.418807,E,1,07,0.9,60.7,M,45.0,M,,*6E

3:02:41:593 Nachm. 03/28/17 - $GNGNS,130237.0,5208.366386,N,01138.418807,E,AA,11,0.9,60.7,45.0,,*5D

3:02:41:594 Nachm. 03/28/17 - $GPVTG,305.9,T,305.5,M,0.0,N,0.0,K,A*2F

3:02:41:594 Nachm. 03/28/17 - $GPRMC,130237.0,A,5208.366386,N,01138.418807,E,0.0,305.9,280317,0.4,E,A*0D

3:02:41:594 Nachm. 03/28/17 - $GPGSA,A,2,10,12,13,15,18,24,28,,,,,,1.2,0.9,0.8*30

3:02:41:594 Nachm. 03/28/17 - $GNGSA,A,2,10,12,13,15,18,24,28,,,,,,1.2,0.9,0.8*2E

3:02:41:595 Nachm. 03/28/17 - $GNGSA,A,2,71,72,73,74,,,,,,,,,1.2,0.9,0.8*2B

3:02:42:583 Nachm. 03/28/17 - $GPGSV,3,1,12,10,17,300,15,12,38,229,28,13,23,158,15,15,46,195,18*7A

3:02:42:586 Nachm. 03/28/17 - $GPGSV,3,2,12,17,41,073,14,18,15,272,18,19,43,105,13,24,68,286,25*70

3:02:42:587 Nachm. 03/28/17 - $GPGSV,3,3,12,28,11,054,14,32,04,322,19,01,05,021,,25,,,*4A

3:02:42:587 Nachm. 03/28/17 - $GLGSV,2,1,07,74,33,279,28,82,35,054,17,73,71,025,27,65,14,340,20*6C

3:02:42:587 Nachm. 03/28/17 - $GLGSV,2,2,07,71,31,227,23,72,41,293,24,83,28,119,*56

3:02:42:587 Nachm. 03/28/17 - $GPGGA,130238.0,5208.366367,N,01138.418791,E,1,07,0.9,60.9,M,45.0,M,,*60

3:02:42:589 Nachm. 03/28/17 - $GNGNS,130238.0,5208.366367,N,01138.418791,E,AA,11,0.9,60.9,45.0,,*53

3:02:42:589 Nachm. 03/28/17 - $GPVTG,305.9,T,305.5,M,0.0,N,0.0,K,A*2F

3:02:42:589 Nachm. 03/28/17 - $GPRMC,130238.0,A,5208.366367,N,01138.418791,E,0.0,305.9,280317,0.4,E,A*0D

3:02:42:590 Nachm. 03/28/17 - $GPGSA,A,2,10,12,13,15,18,24,28,,,,,,1.2,0.9,0.8*30

3:02:42:590 Nachm. 03/28/17 - $GNGSA,A,2,10,12,13,15,18,24,28,,,,,,1.2,0.9,0.8*2E

3:02:42:590 Nachm. 03/28/17 - $GNGSA,A,2,71,72,73,74,,,,,,,,,1.2,0.9,0.8*2B

3:02:43:584 Nachm. 03/28/17 - $GPGSV,3,1,12,10,17,300,15,12,38,229,31,13,23,158,15,15,46,195,20*79

3:02:43:585 Nachm. 03/28/17 - $GPGSV,3,2,12,17,41,073,13,18,15,272,18,19,43,105,13,24,68,286,24*76

3:02:43:586 Nachm. 03/28/17 - $GPGSV,3,3,12,28,11,054,14,32,04,322,19,01,05,021,,25,,,*4A

3:02:43:589 Nachm. 03/28/17 - $GLGSV,2,1,07,74,33,279,28,82,35,054,17,73,71,025,26,65,14,340,20*6D

3:02:43:590 Nachm. 03/28/17 - $GLGSV,2,2,07,71,31,227,25,72,41,293,25,83,28,119,*51

3:02:43:590 Nachm. 03/28/17 - $GPGGA,130239.0,5208.366329,N,01138.418652,E,1,08,0.8,61.2,M,45.0,M,,*61

3:02:43:591 Nachm. 03/28/17 - $GNGNS,130239.0,5208.366329,N,01138.418652,E,AA,12,0.8,61.2,45.0,,*5E

3:02:43:594 Nachm. 03/28/17 - $GPVTG,305.9,T,305.5,M,0.0,N,0.0,K,A*2F

3:02:43:598 Nachm. 03/28/17 - $GPRMC,130239.0,A,5208.366329,N,01138.418652,E,0.0,305.9,280317,0.4,E,A*08

3:02:43:599 Nachm. 03/28/17 - $GPGSA,A,2,10,12,13,15,17,18,24,28,,,,,1.1,0.8,0.8*34

3:02:43:599 Nachm. 03/28/17 - $GNGSA,A,2,10,12,13,15,17,18,24,28,,,,,1.1,0.8,0.8*2A

3:02:43:599 Nachm. 03/28/17 - $GNGSA,A,2,71,72,73,74,,,,,,,,,1.1,0.8,0.8*29

3:02:44:586 Nachm. 03/28/17 - $GPGSV,3,1,12,10,17,300,15,12,38,229,31,13,23,158,15,15,46,195,22*7B

3:02:44:588 Nachm. 03/28/17 - $GPGSV,3,2,12,17,41,073,19,18,15,272,18,19,43,105,13,24,68,286,25*7D

3:02:44:590 Nachm. 03/28/17 - $GPGSV,3,3,12,28,11,054,14,32,04,322,14,01,05,021,,25,,,*47

3:02:44:596 Nachm. 03/28/17 - $GLGSV,2,1,07,74,33,279,29,82,35,054,17,73,71,025,27,65,14,340,21*6C

3:02:44:598 Nachm. 03/28/17 - $GLGSV,2,2,07,71,31,227,27,72,41,293,25,83,28,119,*53

3:02:44:598 Nachm. 03/28/17 - $GPGGA,130240.0,5208.366237,N,01138.417840,E,1,07,1.0,62.3,M,45.0,M,,*67

3:02:44:599 Nachm. 03/28/17 - $GNGNS,130240.0,5208.366237,N,01138.417840,E,AA,11,1.0,62.3,45.0,,*54

3:02:44:602 Nachm. 03/28/17 - $GPVTG,305.9,T,305.5,M,0.0,N,0.0,K,A*2F

3:02:44:602 Nachm. 03/28/17 - $GPRMC,130240.0,A,5208.366237,N,01138.417840,E,0.0,305.9,280317,0.4,E,A*0A

3:02:44:603 Nachm. 03/28/17 - $GPGSA,A,2,10,12,15,17,18,24,28,,,,,,1.3,1.0,0.8*3D

3:02:44:603 Nachm. 03/28/17 - $GNGSA,A,2,10,12,15,17,18,24,28,,,,,,1.3,1.0,0.8*23

3:02:44:604 Nachm. 03/28/17 - $GNGSA,A,2,71,72,73,74,,,,,,,,,1.3,1.0,0.8*22

3:02:45:584 Nachm. 03/28/17 - $GPGSV,3,1,12,10,17,300,15,12,38,229,30,13,23,158,15,15,46,195,22*7A

3:02:45:584 Nachm. 03/28/17 - $GPGSV,3,2,12,17,41,073,19,18,15,272,18,19,43,105,13,24,68,286,23*7B

3:02:45:585 Nachm. 03/28/17 - $GPGSV,3,3,12,28,11,054,14,32,04,322,14,01,05,021,,25,,,*47

3:02:45:587 Nachm. 03/28/17 - $GLGSV,2,1,07,74,33,279,29,82,35,054,10,73,71,025,27,65,14,340,20*6A

3:02:45:590 Nachm. 03/28/17 - $GLGSV,2,2,07,71,31,227,27,72,41,293,26,83,28,119,*50

3:02:45:590 Nachm. 03/28/17 - $GPGGA,130241.0,5208.366169,N,01138.417330,E,1,07,0.9,63.0,M,45.0,M,,*68

3:02:45:590 Nachm. 03/28/17 - $GNGNS,130241.0,5208.366169,N,01138.417330,E,AA,12,0.9,63.0,45.0,,*58

3:02:45:591 Nachm. 03/28/17 - $GPVTG,305.9,T,305.5,M,0.0,N,0.0,K,A*2F

3:02:45:591 Nachm. 03/28/17 - $GPRMC,130241.0,A,5208.366169,N,01138.417330,E,0.0,305.9,280317,0.4,E,A*0F

3:02:45:596 Nachm. 03/28/17 - $GPGSA,A,2,10,12,15,17,18,24,28,,,,,,1.2,0.9,0.8*34

3:02:45:596 Nachm. 03/28/17 - $GNGSA,A,2,10,12,15,17,18,24,28,,,,,,1.2,0.9,0.8*2A

3:02:45:597 Nachm. 03/28/17 - $GNGSA,A,2,71,72,73,74,82,,,,,,,,1.2,0.9,0.8*21

3:02:46:585 Nachm. 03/28/17 - $GPGSV,3,1,12,10,17,300,16,12,38,229,31,13,23,158,15,15,46,195,24*7E

3:02:46:586 Nachm. 03/28/17 - $GPGSV,3,2,12,17,41,073,18,18,15,272,18,19,43,105,13,24,68,286,20*79

3:02:46:592 Nachm. 03/28/17 - $GPGSV,3,3,12,28,11,054,14,32,04,322,14,01,05,021,,25,,,*47

3:02:46:593 Nachm. 03/28/17 - $GLGSV,2,1,07,74,33,279,29,82,35,054,10,73,71,025,26,65,14,340,19*61

3:02:46:600 Nachm. 03/28/17 - $GLGSV,2,2,07,71,31,227,26,72,41,293,26,83,28,119,*51

3:02:46:601 Nachm. 03/28/17 - $GPGGA,130242.0,5208.365996,N,01138.415979,E,1,07,0.9,65.0,M,45.0,M,,*63

3:02:46:602 Nachm. 03/28/17 - $GNGNS,130242.0,5208.365996,N,01138.415979,E,AA,12,0.9,65.0,45.0,,*53

3:02:46:603 Nachm. 03/28/17 - $GPVTG,305.9,T,305.5,M,0.0,N,0.0,K,A*2F

3:02:46:604 Nachm. 03/28/17 - $GPRMC,130242.0,A,5208.365996,N,01138.415979,E,0.0,305.9,280317,0.4,E,A*02

3:02:46:606 Nachm. 03/28/17 - $GPGSA,A,2,10,12,15,17,18,24,28,,,,,,1.2,0.9,0.8*34

3:02:46:609 Nachm. 03/28/17 - $GNGSA,A,2,10,12,15,17,18,24,28,,,,,,1.2,0.9,0.8*2A

3:02:46:609 Nachm. 03/28/17 - $GNGSA,A,2,71,72,73,74,82,,,,,,,,1.2,0.9,0.8*21

3:02:47:585 Nachm. 03/28/17 - $GPGSV,3,1,12,10,17,300,18,12,38,229,31,13,23,158,13,15,46,195,22*70

3:02:47:586 Nachm. 03/28/17 - $GPGSV,3,2,12,17,41,073,18,18,15,272,18,19,43,105,13,24,68,286,17*7D

3:02:47:586 Nachm. 03/28/17 - $GPGSV,3,3,12,28,11,054,14,32,04,322,14,01,05,021,,25,,,*47

3:02:47:588 Nachm. 03/28/17 - $GLGSV,2,1,07,74,33,279,28,82,35,054,10,73,71,025,26,65,14,340,20*6A

3:02:47:588 Nachm. 03/28/17 - $GLGSV,2,2,07,71,31,227,26,72,41,293,25,83,28,119,*52

3:02:47:588 Nachm. 03/28/17 - $GPGGA,130243.0,5208.365958,N,01138.415805,E,1,08,0.8,65.3,M,45.0,M,,*67

3:02:47:593 Nachm. 03/28/17 - $GNGNS,130243.0,5208.365958,N,01138.415805,E,AA,13,0.8,65.3,45.0,,*59

3:02:47:593 Nachm. 03/28/17 - $GPVTG,305.9,T,305.5,M,0.0,N,0.0,K,A*2F

3:02:47:593 Nachm. 03/28/17 - $GPRMC,130243.0,A,5208.365958,N,01138.415805,E,0.0,305.9,280317,0.4,E,A*0B

3:02:47:594 Nachm. 03/28/17 - $GPGSA,A,2,10,12,13,15,17,18,24,28,,,,,1.1,0.8,0.8*34

3:02:47:595 Nachm. 03/28/17 - $GNGSA,A,2,10,12,13,15,17,18,24,28,,,,,1.1,0.8,0.8*2A

3:02:47:596 Nachm. 03/28/17 - $GNGSA,A,2,71,72,73,74,82,,,,,,,,1.1,0.8,0.8*23

3:02:48:585 Nachm. 03/28/17 - $GPGSV,3,1,12,10,17,300,18,12,38,229,31,13,23,158,13,15,46,195,22*70

3:02:48:594 Nachm. 03/28/17 - $GPGSV,3,2,12,17,41,073,18,18,15,272,12,19,43,105,13,24,68,286,18*78

3:02:48:596 Nachm. 03/28/17 - $GPGSV,3,3,12,28,11,054,14,32,04,322,15,01,05,021,,25,,,*46

3:02:48:599 Nachm. 03/28/17 - $GLGSV,2,1,07,74,33,279,29,82,35,054,16,73,71,025,26,65,14,340,18*66

3:02:48:603 Nachm. 03/28/17 - $GLGSV,2,2,07,71,31,227,25,72,41,293,25,83,28,119,*51

3:02:48:604 Nachm. 03/28/17 - $GPGGA,130244.0,5208.365884,N,01138.415322,E,1,08,0.8,65.9,M,45.0,M,,*64

3:02:48:615 Nachm. 03/28/17 - $GNGNS,130244.0,5208.365884,N,01138.415322,E,AA,13,0.8,65.9,45.0,,*5A

3:02:48:622 Nachm. 03/28/17 - $GPVTG,305.9,T,305.5,M,0.0,N,0.0,K,A*2F

3:02:48:627 Nachm. 03/28/17 - $GPRMC,130244.0,A,5208.365884,N,01138.415322,E,0.0,305.9,280317,0.4,E,A*02

3:02:48:628 Nachm. 03/28/17 - $GPGSA,A,2,10,12,13,15,17,18,24,28,,,,,1.1,0.8,0.8*34

3:02:48:629 Nachm. 03/28/17 - $GNGSA,A,2,10,12,13,15,17,18,24,28,,,,,1.1,0.8,0.8*2A

3:02:48:629 Nachm. 03/28/17 - $GNGSA,A,2,71,72,73,74,82,,,,,,,,1.1,0.8,0.8*23

3:02:49:585 Nachm. 03/28/17 - $GPGSV,3,1,12,10,17,300,18,12,38,229,31,13,23,158,13,15,46,195,22*70

3:02:49:588 Nachm. 03/28/17 - $GPGSV,3,2,12,17,41,073,18,18,15,272,12,19,43,105,13,24,68,286,18*78

3:02:49:589 Nachm. 03/28/17 - $GPGSV,3,3,12,28,11,054,16,32,04,322,15,01,05,021,,25,,,*44

3:02:49:599 Nachm. 03/28/17 - $GLGSV,2,1,07,74,33,279,28,82,35,054,16,73,71,025,26,65,14,340,17*68

3:02:49:600 Nachm. 03/28/17 - $GLGSV,2,2,07,71,31,227,26,72,41,293,26,83,28,119,*51

3:02:49:600 Nachm. 03/28/17 - $GPGGA,130245.0,5208.365719,N,01138.414029,E,1,08,0.8,67.8,M,45.0,M,,*64

3:02:49:604 Nachm. 03/28/17 - $GNGNS,130245.0,5208.365719,N,01138.414029,E,AA,13,0.8,67.8,45.0,,*5A

3:02:49:604 Nachm. 03/28/17 - $GPVTG,305.9,T,305.5,M,0.0,N,0.0,K,A*2F

3:02:49:605 Nachm. 03/28/17 - $GPRMC,130245.0,A,5208.365719,N,01138.414029,E,0.0,305.9,280317,0.4,E,A*01

3:02:49:605 Nachm. 03/28/17 - $GPGSA,A,2,10,12,13,15,17,18,24,28,,,,,1.1,0.8,0.8*34

3:02:49:606 Nachm. 03/28/17 - $GNGSA,A,2,10,12,13,15,17,18,24,28,,,,,1.1,0.8,0.8*2A

3:02:49:607 Nachm. 03/28/17 - $GNGSA,A,2,71,72,73,74,82,,,,,,,,1.1,0.8,0.8*23

3:02:50:584 Nachm. 03/28/17 - $GPGSV,3,1,12,10,17,300,17,12,38,229,30,13,23,158,13,15,46,195,21*7D

3:02:50:594 Nachm. 03/28/17 - $GPGSV,3,2,12,17,41,073,15,18,15,272,12,19,43,105,13,24,68,286,18*75

3:02:50:596 Nachm. 03/28/17 - $GPGSV,3,3,12,28,11,054,16,32,04,322,15,01,05,021,,25,,,*44

3:02:50:600 Nachm. 03/28/17 - $GLGSV,2,1,07,74,33,279,28,82,35,054,18,73,71,025,27,65,14,340,17*67

3:02:50:611 Nachm. 03/28/17 - $GLGSV,2,2,07,71,31,227,24,72,41,293,27,83,28,119,*52

3:02:50:618 Nachm. 03/28/17 - $GPGGA,130246.0,5208.365642,N,01138.413452,E,1,08,0.8,68.6,M,45.0,M,,*66

3:02:50:618 Nachm. 03/28/17 - $GNGNS,130246.0,5208.365642,N,01138.413452,E,AA,13,0.8,68.6,45.0,,*58

3:02:50:619 Nachm. 03/28/17 - $GPVTG,305.9,T,305.5,M,0.0,N,0.0,K,A*2F

3:02:50:620 Nachm. 03/28/17 - $GPRMC,130246.0,A,5208.365642,N,01138.413452,E,0.0,305.9,280317,0.4,E,A*02

3:02:50:620 Nachm. 03/28/17 - $GPGSA,A,2,10,12,13,15,17,18,24,28,,,,,1.1,0.8,0.8*34

3:02:50:621 Nachm. 03/28/17 - $GNGSA,A,2,10,12,13,15,17,18,24,28,,,,,1.1,0.8,0.8*2A

3:02:50:621 Nachm. 03/28/17 - $GNGSA,A,2,71,72,73,74,82,,,,,,,,1.1,0.8,0.8*23

3:02:51:584 Nachm. 03/28/17 - $GPGSV,3,1,12,10,17,300,19,12,38,229,25,13,23,158,13,15,46,195,21*77

3:02:51:586 Nachm. 03/28/17 - $GPGSV,3,2,12,17,41,073,15,18,15,272,12,24,68,286,21,28,11,054,16*7A

3:02:51:586 Nachm. 03/28/17 - $GPGSV,3,3,12,32,04,322,17,01,05,021,,19,43,105,,25,,,*41

3:02:51:589 Nachm. 03/28/17 - $GLGSV,2,1,07,74,33,279,25,82,35,054,18,73,71,025,28,65,14,340,17*65

3:02:51:590 Nachm. 03/28/17 - $GLGSV,2,2,07,71,31,227,22,72,41,293,25,83,28,119,*56

3:02:51:598 Nachm. 03/28/17 - $GPGGA,130247.0,5208.365632,N,01138.413381,E,1,08,0.8,68.7,M,45.0,M,,*68

3:02:51:600 Nachm. 03/28/17 - $GNGNS,130247.0,5208.365632,N,01138.413381,E,AA,13,0.8,68.7,45.0,,*56

3:02:51:604 Nachm. 03/28/17 - $GPVTG,305.9,T,305.5,M,0.0,N,0.0,K,A*2F

3:02:51:611 Nachm. 03/28/17 - $GPRMC,130247.0,A,5208.365632,N,01138.413381,E,0.0,305.9,280317,0.4,E,A*0D

3:02:51:613 Nachm. 03/28/17 - $GPGSA,A,2,10,12,13,15,17,18,24,28,,,,,1.1,0.8,0.8*34

3:02:51:614 Nachm. 03/28/17 - $GNGSA,A,2,10,12,13,15,17,18,24,28,,,,,1.1,0.8,0.8*2A

3:02:51:615 Nachm. 03/28/17 - $GNGSA,A,2,71,72,73,74,82,,,,,,,,1.1,0.8,0.8*23

3:02:52:584 Nachm. 03/28/17 - $GPGSV,3,1,12,10,17,300,26,12,38,229,24,13,23,158,13,15,46,195,21*7A

3:02:52:584 Nachm. 03/28/17 - $GPGSV,3,2,12,17,41,073,18,18,15,272,14,24,68,286,29,28,11,054,16*79

3:02:52:588 Nachm. 03/28/17 - $GPGSV,3,3,12,32,04,322,22,01,05,021,,19,43,105,,25,,,*47

3:02:52:590 Nachm. 03/28/17 - $GLGSV,2,1,07,74,33,279,24,82,35,054,17,73,71,025,31,65,14,340,20*67

3:02:52:590 Nachm. 03/28/17 - $GLGSV,2,2,07,71,31,227,17,72,41,293,20,83,28,119,*55

3:02:52:593 Nachm. 03/28/17 - $GPGGA,130248.0,5208.365630,N,01138.413406,E,1,08,0.8,68.8,M,45.0,M,,*62

3:02:52:601 Nachm. 03/28/17 - $GNGNS,130248.0,5208.365630,N,01138.413406,E,AA,13,0.8,68.8,45.0,,*5C

3:02:52:609 Nachm. 03/28/17 - $GPVTG,305.9,T,305.5,M,0.0,N,0.0,K,A*2F

3:02:52:611 Nachm. 03/28/17 - $GPRMC,130248.0,A,5208.365630,N,01138.413406,E,0.0,305.9,280317,0.4,E,A*08

3:02:52:618 Nachm. 03/28/17 - $GPGSA,A,2,10,12,13,15,17,18,24,28,,,,,1.1,0.8,0.8*34

3:02:52:619 Nachm. 03/28/17 - $GNGSA,A,2,10,12,13,15,17,18,24,28,,,,,1.1,0.8,0.8*2A

3:02:52:619 Nachm. 03/28/17 - $GNGSA,A,2,71,72,73,74,82,,,,,,,,1.1,0.8,0.8*23

3:02:53:584 Nachm. 03/28/17 - $GPGSV,3,1,12,10,17,300,20,12,38,229,24,13,23,158,13,15,46,195,18*76

3:02:53:585 Nachm. 03/28/17 - $GPGSV,3,2,12,17,41,073,19,18,15,272,24,24,68,286,26,28,11,054,16*74

3:02:53:585 Nachm. 03/28/17 - $GPGSV,3,3,12,32,04,322,22,01,05,021,,19,43,105,,25,,,*47

3:02:53:589 Nachm. 03/28/17 - $GLGSV,2,1,07,74,33,279,24,82,35,054,17,73,71,025,31,65,14,340,24*63

3:02:53:598 Nachm. 03/28/17 - $GLGSV,2,2,07,71,31,227,20,72,41,293,20,83,28,119,*51

3:02:53:598 Nachm. 03/28/17 - $GPGGA,130249.0,5208.365553,N,01138.412683,E,1,08,0.8,69.8,M,45.0,M,,*6A

3:02:53:599 Nachm. 03/28/17 - $GNGNS,130249.0,5208.365553,N,01138.412683,E,AA,13,0.8,69.8,45.0,,*54

3:02:53:599 Nachm. 03/28/17 - $GPVTG,305.9,T,305.5,M,0.0,N,0.0,K,A*2F

3:02:53:599 Nachm. 03/28/17 - $GPRMC,130249.0,A,5208.365553,N,01138.412683,E,0.0,305.9,280317,0.4,E,A*01

3:02:53:599 Nachm. 03/28/17 - $GPGSA,A,2,10,12,13,15,17,18,24,28,,,,,1.1,0.8,0.8*34

3:02:53:600 Nachm. 03/28/17 - $GNGSA,A,2,10,12,13,15,17,18,24,28,,,,,1.1,0.8,0.8*2A

3:02:53:600 Nachm. 03/28/17 - $GNGSA,A,2,71,72,73,74,82,,,,,,,,1.1,0.8,0.8*23

3:02:54:584 Nachm. 03/28/17 - $GPGSV,3,1,12,10,17,300,23,12,38,229,24,13,23,158,13,15,46,195,21*7F

3:02:54:586 Nachm. 03/28/17 - $GPGSV,3,2,12,17,41,073,19,18,15,272,23,24,68,286,26,28,11,054,16*73

3:02:54:597 Nachm. 03/28/17 - $GPGSV,3,3,12,32,04,322,21,01,05,021,,19,43,105,,25,,,*44

3:02:54:598 Nachm. 03/28/17 - $GLGSV,2,1,07,74,33,279,26,82,35,054,17,73,71,025,31,65,14,340,23*66

3:02:54:602 Nachm. 03/28/17 - $GLGSV,2,2,07,71,31,227,18,72,41,293,17,83,28,119,*5E

3:02:54:604 Nachm. 03/28/17 - $GPGGA,130250.0,5208.365550,N,01138.412790,E,1,07,0.9,69.8,M,45.0,M,,*6C

3:02:54:605 Nachm. 03/28/17 - $GNGNS,130250.0,5208.365550,N,01138.412790,E,AA,12,0.9,69.8,45.0,,*5C

3:02:54:606 Nachm. 03/28/17 - $GPVTG,305.9,T,305.5,M,0.0,N,0.0,K,A*2F

3:02:54:610 Nachm. 03/28/17 - $GPRMC,130250.0,A,5208.365550,N,01138.412790,E,0.0,305.9,280317,0.4,E,A*09

3:02:54:611 Nachm. 03/28/17 - $GPGSA,A,2,10,12,15,17,18,24,28,,,,,,1.2,0.9,0.8*34

3:02:54:611 Nachm. 03/28/17 - $GNGSA,A,2,10,12,15,17,18,24,28,,,,,,1.2,0.9,0.8*2A

3:02:54:612 Nachm. 03/28/17 - $GNGSA,A,2,71,72,73,74,82,,,,,,,,1.2,0.9,0.8*21

3:02:55:586 Nachm. 03/28/17 - $GPGSV,3,1,12,10,17,300,23,12,38,229,23,13,23,158,13,15,46,195,21*78

3:02:55:587 Nachm. 03/28/17 - $GPGSV,3,2,12,17,41,073,19,18,15,272,23,24,68,286,24,28,11,054,16*71

3:02:55:587 Nachm. 03/28/17 - $GPGSV,3,3,12,32,04,322,22,01,05,021,,19,43,105,,25,,,*47

3:02:55:606 Nachm. 03/28/17 - $GLGSV,2,1,07,74,33,279,26,82,35,054,17,73,71,025,30,65,14,340,24*60

3:02:55:610 Nachm. 03/28/17 - $GLGSV,2,2,07,71,31,227,21,72,41,293,19,83,28,119,*5A

3:02:55:611 Nachm. 03/28/17 - $GPGGA,130251.0,5208.365482,N,01138.412283,E,1,07,0.9,70.7,M,45.0,M,,*63

3:02:55:613 Nachm. 03/28/17 - $GNGNS,130251.0,5208.365482,N,01138.412283,E,AA,12,0.9,70.7,45.0,,*53

3:02:55:614 Nachm. 03/28/17 - $GPVTG,305.9,T,305.5,M,0.0,N,0.0,K,A*2F

3:02:55:615 Nachm. 03/28/17 - $GPRMC,130251.0,A,5208.365482,N,01138.412283,E,0.0,305.9,280317,0.4,E,A*01

3:02:55:617 Nachm. 03/28/17 - $GPGSA,A,2,10,12,15,17,18,24,28,,,,,,1.2,0.9,0.8*34

3:02:55:618 Nachm. 03/28/17 - $GNGSA,A,2,10,12,15,17,18,24,28,,,,,,1.2,0.9,0.8*2A

3:02:55:618 Nachm. 03/28/17 - $GNGSA,A,2,71,72,73,74,82,,,,,,,,1.2,0.9,0.8*21

3:02:56:584 Nachm. 03/28/17 - $GPGSV,3,1,12,10,17,300,22,12,38,229,21,13,23,158,13,15,46,195,20*7A

3:02:56:586 Nachm. 03/28/17 - $GPGSV,3,2,12,17,41,073,19,18,15,272,22,24,68,286,22,28,11,054,16*76

3:02:56:587 Nachm. 03/28/17 - $GPGSV,3,3,12,32,04,322,21,01,05,021,,19,43,105,,25,,,*44

3:02:56:590 Nachm. 03/28/17 - $GLGSV,2,1,07,74,33,279,27,82,35,054,13,73,71,025,30,65,14,340,25*64

3:02:56:591 Nachm. 03/28/17 - $GLGSV,2,2,07,71,31,227,18,72,41,293,19,83,28,119,*50

3:02:56:591 Nachm. 03/28/17 - $GPGGA,130252.0,5208.365469,N,01138.412252,E,1,07,0.9,70.8,M,45.0,M,,*66

3:02:56:591 Nachm. 03/28/17 - $GNGNS,130252.0,5208.365469,N,01138.412252,E,AA,12,0.9,70.8,45.0,,*56

3:02:56:592 Nachm. 03/28/17 - $GPVTG,305.9,T,305.5,M,0.0,N,0.0,K,A*2F

3:02:56:592 Nachm. 03/28/17 - $GPRMC,130252.0,A,5208.365469,N,01138.412252,E,0.0,305.9,280317,0.4,E,A*0B

3:02:56:592 Nachm. 03/28/17 - $GPGSA,A,2,10,12,15,17,18,24,28,,,,,,1.2,0.9,0.8*34

3:02:56:593 Nachm. 03/28/17 - $GNGSA,A,2,10,12,15,17,18,24,28,,,,,,1.2,0.9,0.8*2A

3:02:56:593 Nachm. 03/28/17 - $GNGSA,A,2,71,72,73,74,82,,,,,,,,1.2,0.9,0.8*21

3:02:57:584 Nachm. 03/28/17 - $GPGSV,3,1,12,10,17,300,21,12,38,229,23,13,23,158,13,15,46,195,19*71

3:02:57:592 Nachm. 03/28/17 - $GPGSV,3,2,12,17,41,073,14,18,15,272,23,24,68,286,23,28,11,054,16*7B

3:02:57:594 Nachm. 03/28/17 - $GPGSV,3,3,12,32,04,322,20,01,05,021,,19,43,105,,25,,,*45

3:02:57:598 Nachm. 03/28/17 - $GLGSV,2,1,07,74,33,279,26,82,35,054,13,73,71,025,31,65,14,340,24*65

3:02:57:599 Nachm. 03/28/17 - $GLGSV,2,2,07,71,31,227,20,72,41,293,20,83,28,119,*51

3:02:57:599 Nachm. 03/28/17 - $GPGGA,130253.0,5208.365463,N,01138.412304,E,1,07,0.9,70.9,M,45.0,M,,*6E

3:02:57:604 Nachm. 03/28/17 - $GNGNS,130253.0,5208.365463,N,01138.412304,E,AA,12,0.9,70.9,45.0,,*5E

3:02:57:604 Nachm. 03/28/17 - $GPVTG,305.9,T,305.5,M,0.0,N,0.0,K,A*2F

3:02:57:607 Nachm. 03/28/17 - $GPRMC,130253.0,A,5208.365463,N,01138.412304,E,0.0,305.9,280317,0.4,E,A*02

3:02:57:608 Nachm. 03/28/17 - $GPGSA,A,2,10,12,15,17,18,24,28,,,,,,1.2,0.9,0.8*34

3:02:57:608 Nachm. 03/28/17 - $GNGSA,A,2,10,12,15,17,18,24,28,,,,,,1.2,0.9,0.8*2A

3:02:57:609 Nachm. 03/28/17 - $GNGSA,A,2,71,72,73,74,82,,,,,,,,1.2,0.9,0.8*21

3:02:58:583 Nachm. 03/28/17 - $GPGSV,3,1,12,10,17,300,19,12,38,229,24,13,23,158,13,15,46,195,20*77

3:02:58:584 Nachm. 03/28/17 - $GPGSV,3,2,12,17,41,073,14,18,15,272,23,24,68,286,24,28,11,054,16*7C

3:02:58:584 Nachm. 03/28/17 - $GPGSV,3,3,12,32,04,322,21,01,05,021,,19,43,105,,25,,,*44

3:02:58:586 Nachm. 03/28/17 - $GLGSV,2,1,07,74,33,279,27,82,35,054,13,73,71,025,30,65,14,340,25*64

3:02:58:586 Nachm. 03/28/17 - $GLGSV,2,2,07,71,31,227,19,72,41,293,20,83,28,119,*5B

3:02:58:587 Nachm. 03/28/17 - $GPGGA,130254.0,5208.365464,N,01138.412343,E,1,08,0.8,70.9,M,45.0,M,,*63

3:02:58:587 Nachm. 03/28/17 - $GNGNS,130254.0,5208.365464,N,01138.412343,E,AA,13,0.8,70.9,45.0,,*5D

3:02:58:589 Nachm. 03/28/17 - $GPVTG,305.9,T,305.5,M,0.0,N,0.0,K,A*2F

3:02:58:589 Nachm. 03/28/17 - $GPRMC,130254.0,A,5208.365464,N,01138.412343,E,0.0,305.9,280317,0.4,E,A*01

3:02:58:589 Nachm. 03/28/17 - $GPGSA,A,2,10,12,13,15,17,18,24,28,,,,,1.1,0.8,0.8*34

3:02:58:589 Nachm. 03/28/17 - $GNGSA,A,2,10,12,13,15,17,18,24,28,,,,,1.1,0.8,0.8*2A

3:02:58:589 Nachm. 03/28/17 - $GNGSA,A,2,71,72,73,74,82,,,,,,,,1.1,0.8,0.8*23

3:02:59:584 Nachm. 03/28/17 - $GPGSV,3,1,12,10,17,300,20,12,38,229,24,13,23,158,13,15,46,195,20*7D

3:02:59:585 Nachm. 03/28/17 - $GPGSV,3,2,12,17,41,073,17,18,15,272,25,24,68,286,26,28,11,054,16*7B

3:02:59:586 Nachm. 03/28/17 - $GPGSV,3,3,12,32,04,322,22,01,05,021,,19,43,105,,25,,,*47

3:02:59:601 Nachm. 03/28/17 - $GLGSV,2,1,07,74,33,279,26,82,35,054,13,73,71,025,30,65,14,340,25*65

3:02:59:603 Nachm. 03/28/17 - $GLGSV,2,2,07,71,31,227,19,72,41,293,20,83,28,119,*5B

3:02:59:605 Nachm. 03/28/17 - $GPGGA,130255.0,5208.365457,N,01138.412245,E,1,08,0.8,71.1,M,45.0,M,,*6C

3:02:59:605 Nachm. 03/28/17 - $GNGNS,130255.0,5208.365457,N,01138.412245,E,AA,13,0.8,71.1,45.0,,*52

3:02:59:606 Nachm. 03/28/17 - $GPVTG,305.9,T,305.5,M,0.0,N,0.0,K,A*2F

3:02:59:609 Nachm. 03/28/17 - $GPRMC,130255.0,A,5208.365457,N,01138.412245,E,0.0,305.9,280317,0.4,E,A*07

3:02:59:610 Nachm. 03/28/17 - $GPGSA,A,2,10,12,13,15,17,18,24,28,,,,,1.1,0.8,0.8*34

3:02:59:611 Nachm. 03/28/17 - $GNGSA,A,2,10,12,13,15,17,18,24,28,,,,,1.1,0.8,0.8*2A

3:02:59:611 Nachm. 03/28/17 - $GNGSA,A,2,71,72,73,74,82,,,,,,,,1.1,0.8,0.8*23

3:03:00:584 Nachm. 03/28/17 - $GPGSV,3,1,12,10,17,300,20,12,38,229,24,13,23,158,13,15,46,195,19*77

3:03:00:584 Nachm. 03/28/17 - $GPGSV,3,2,12,17,41,073,17,18,15,272,25,24,68,286,27,28,11,054,16*7A

3:03:00:584 Nachm. 03/28/17 - $GPGSV,3,3,12,32,04,322,22,01,05,021,,19,43,105,,25,,,*47

3:03:00:585 Nachm. 03/28/17 - $GLGSV,2,1,07,74,33,279,25,82,35,054,13,73,71,025,30,65,14,340,24*67

3:03:00:588 Nachm. 03/28/17 - $GLGSV,2,2,07,71,31,227,18,72,41,293,19,83,28,119,*50

3:03:00:589 Nachm. 03/28/17 - $GPGGA,130256.0,5208.365467,N,01138.412284,E,1,08,0.8,71.1,M,45.0,M,,*61

3:03:00:589 Nachm. 03/28/17 - $GNGNS,130256.0,5208.365467,N,01138.412284,E,AA,13,0.8,71.1,45.0,,*5F

3:03:00:590 Nachm. 03/28/17 - $GPVTG,305.9,T,305.5,M,0.0,N,0.0,K,A*2F

3:03:00:590 Nachm. 03/28/17 - $GPRMC,130256.0,A,5208.365467,N,01138.412284,E,0.0,305.9,280317,0.4,E,A*0A

3:03:00:590 Nachm. 03/28/17 - $GPGSA,A,2,10,12,13,15,17,18,24,28,,,,,1.1,0.8,0.8*34

3:03:00:591 Nachm. 03/28/17 - $GNGSA,A,2,10,12,13,15,17,18,24,28,,,,,1.1,0.8,0.8*2A

3:03:00:591 Nachm. 03/28/17 - $GNGSA,A,2,71,72,73,74,82,,,,,,,,1.1,0.8,0.8*23

3:03:01:585 Nachm. 03/28/17 - $GPGSV,3,1,12,10,17,300,20,12,38,229,23,13,23,158,16,15,46,195,20*7F

3:03:01:586 Nachm. 03/28/17 - $GPGSV,3,2,12,17,41,073,19,18,15,272,24,24,68,286,26,28,11,054,17*75

3:03:01:588 Nachm. 03/28/17 - $GPGSV,3,3,12,32,04,322,23,01,05,021,,19,43,105,,25,,,*46

3:03:01:589 Nachm. 03/28/17 - $GLGSV,2,1,07,74,33,279,25,82,35,054,14,73,71,025,30,65,14,340,24*60

3:03:01:589 Nachm. 03/28/17 - $GLGSV,2,2,07,71,31,227,16,72,41,293,21,83,28,119,*55

3:03:01:598 Nachm. 03/28/17 - $GPGGA,130257.0,5208.365463,N,01138.412112,E,1,08,0.8,71.4,M,45.0,M,,*6D

3:03:01:599 Nachm. 03/28/17 - $GNGNS,130257.0,5208.365463,N,01138.412112,E,AA,13,0.8,71.4,45.0,,*53

3:03:01:600 Nachm. 03/28/17 - $GPVTG,305.9,T,305.5,M,0.0,N,0.0,K,A*2F

3:03:01:601 Nachm. 03/28/17 - $GPRMC,130257.0,A,5208.365463,N,01138.412112,E,0.0,305.9,280317,0.4,E,A*03

3:03:01:602 Nachm. 03/28/17 - $GPGSA,A,2,10,12,13,15,17,18,24,28,,,,,1.1,0.8,0.8*34

3:03:01:603 Nachm. 03/28/17 - $GNGSA,A,2,10,12,13,15,17,18,24,28,,,,,1.1,0.8,0.8*2A

3:03:01:605 Nachm. 03/28/17 - $GNGSA,A,2,71,72,73,74,82,,,,,,,,1.1,0.8,0.8*23

3:03:02:585 Nachm. 03/28/17 - $GPGSV,3,1,12,10,17,300,21,12,38,229,23,13,23,158,16,15,46,195,22*7C

3:03:02:588 Nachm. 03/28/17 - $GPGSV,3,2,12,17,41,073,20,18,15,272,23,24,68,286,27,28,11,054,20*7D

3:03:02:593 Nachm. 03/28/17 - $GPGSV,3,3,12,32,04,322,23,01,05,021,,19,43,105,,25,,,*46

3:03:02:594 Nachm. 03/28/17 - $GLGSV,2,1,07,74,33,279,25,82,35,054,21,73,71,025,30,65,14,340,24*66

3:03:02:596 Nachm. 03/28/17 - $GLGSV,2,2,07,71,31,227,16,72,41,293,22,83,28,119,*56

3:03:02:605 Nachm. 03/28/17 - $GPGGA,130258.0,5208.365467,N,01138.412049,E,1,08,0.8,71.5,M,45.0,M,,*68

3:03:02:606 Nachm. 03/28/17 - $GNGNS,130258.0,5208.365467,N,01138.412049,E,AA,13,0.8,71.5,45.0,,*56

3:03:02:615 Nachm. 03/28/17 - $GPVTG,305.9,T,305.5,M,0.0,N,0.0,K,A*2F

3:03:02:617 Nachm. 03/28/17 - $GPRMC,130258.0,A,5208.365467,N,01138.412049,E,0.0,305.9,280317,0.4,E,A*07

3:03:02:618 Nachm. 03/28/17 - $GPGSA,A,2,10,12,13,15,17,18,24,28,,,,,1.1,0.8,0.8*34

3:03:02:618 Nachm. 03/28/17 - $GNGSA,A,2,10,12,13,15,17,18,24,28,,,,,1.1,0.8,0.8*2A

3:03:02:619 Nachm. 03/28/17 - $GNGSA,A,2,71,72,73,74,82,,,,,,,,1.1,0.8,0.8*23

3:03:03:585 Nachm. 03/28/17 - $GPGSV,3,1,12,10,17,300,21,12,38,229,24,13,23,158,16,15,46,195,21*78

3:03:03:586 Nachm. 03/28/17 - $GPGSV,3,2,12,17,41,073,21,18,15,272,22,24,68,286,27,28,11,054,20*7D

3:03:03:586 Nachm. 03/28/17 - $GPGSV,3,3,12,32,04,322,23,01,05,021,,19,43,105,,25,,,*46

3:03:03:589 Nachm. 03/28/17 - $GLGSV,2,1,07,74,33,279,23,82,35,054,22,73,71,025,29,65,14,340,23*6C

3:03:03:590 Nachm. 03/28/17 - $GLGSV,2,2,07,71,31,227,16,72,41,293,21,83,28,119,*55

3:03:03:590 Nachm. 03/28/17 - $GPGGA,130259.0,5208.365472,N,01138.412019,E,1,08,0.8,71.6,M,45.0,M,,*6B

3:03:03:604 Nachm. 03/28/17 - $GNGNS,130259.0,5208.365472,N,01138.412019,E,AA,13,0.8,71.6,45.0,,*55

3:03:03:604 Nachm. 03/28/17 - $GPVTG,305.9,T,305.5,M,0.0,N,0.0,K,A*2F

3:03:03:605 Nachm. 03/28/17 - $GPRMC,130259.0,A,5208.365472,N,01138.412019,E,0.0,305.9,280317,0.4,E,A*07

3:03:03:605 Nachm. 03/28/17 - $GPGSA,A,2,10,12,13,15,17,18,24,28,,,,,1.1,0.8,0.8*34

3:03:03:606 Nachm. 03/28/17 - $GNGSA,A,2,10,12,13,15,17,18,24,28,,,,,1.1,0.8,0.8*2A

3:03:03:606 Nachm. 03/28/17 - $GNGSA,A,2,71,72,73,74,82,,,,,,,,1.1,0.8,0.8*23

3:03:04:584 Nachm. 03/28/17 - $GPGSV,3,1,12,10,17,300,21,12,38,229,22,13,23,158,16,15,46,195,19*75

3:03:04:587 Nachm. 03/28/17 - $GPGSV,3,2,12,17,41,073,22,18,15,272,23,24,68,286,27,28,11,054,19*75

3:03:04:591 Nachm. 03/28/17 - $GPGSV,3,3,12,32,04,322,21,01,05,021,,19,43,105,,25,,,*44

3:03:04:592 Nachm. 03/28/17 - $GLGSV,2,1,07,74,33,279,24,82,35,054,20,73,71,025,30,65,14,340,24*66

3:03:04:595 Nachm. 03/28/17 - $GLGSV,2,2,07,71,31,227,16,72,41,293,19,83,28,119,*5E

3:03:04:597 Nachm. 03/28/17 - $GPGGA,130300.0,5208.365472,N,01138.412000,E,1,08,0.8,71.6,M,45.0,M,,*6E

3:03:04:599 Nachm. 03/28/17 - $GNGNS,130300.0,5208.365472,N,01138.412000,E,AA,13,0.8,71.6,45.0,,*50

3:03:04:599 Nachm. 03/28/17 - $GPVTG,305.9,T,305.5,M,0.0,N,0.0,K,A*2F

3:03:04:603 Nachm. 03/28/17 - $GPRMC,130300.0,A,5208.365472,N,01138.412000,E,0.0,305.9,280317,0.4,E,A*02

3:03:04:607 Nachm. 03/28/17 - $GPGSA,A,2,10,12,13,15,17,18,24,28,,,,,1.1,0.8,0.8*34

3:03:04:607 Nachm. 03/28/17 - $GNGSA,A,2,10,12,13,15,17,18,24,28,,,,,1.1,0.8,0.8*2A

3:03:04:608 Nachm. 03/28/17 - $GNGSA,A,2,71,72,73,74,82,,,,,,,,1.1,0.8,0.8*23

3:03:05:585 Nachm. 03/28/17 - $GPGSV,3,1,12,10,17,300,21,12,38,229,24,13,23,158,16,15,46,195,19*73

3:03:05:586 Nachm. 03/28/17 - $GPGSV,3,2,12,17,41,073,19,18,15,272,23,24,68,286,25,28,11,054,19*7F

3:03:05:586 Nachm. 03/28/17 - $GPGSV,3,3,12,32,04,322,22,01,05,021,,19,43,105,,25,,,*47

3:03:05:589 Nachm. 03/28/17 - $GLGSV,2,1,07,74,33,279,23,82,35,054,21,73,71,025,29,65,14,340,23*6F

3:03:05:602 Nachm. 03/28/17 - $GLGSV,2,2,07,71,31,227,13,72,41,293,20,83,28,119,*51

3:03:05:603 Nachm. 03/28/17 - $GPGGA,130301.0,5208.365475,N,01138.412022,E,1,08,0.8,71.6,M,45.0,M,,*68

3:03:05:606 Nachm. 03/28/17 - $GNGNS,130301.0,5208.365475,N,01138.412022,E,AA,13,0.8,71.6,45.0,,*56

3:03:05:607 Nachm. 03/28/17 - $GPVTG,305.9,T,305.5,M,0.0,N,0.0,K,A*2F

3:03:05:608 Nachm. 03/28/17 - $GPRMC,130301.0,A,5208.365475,N,01138.412022,E,0.0,305.9,280317,0.4,E,A*04

3:03:05:609 Nachm. 03/28/17 - $GPGSA,A,2,10,12,13,15,17,18,24,28,,,,,1.1,0.8,0.8*34

3:03:05:610 Nachm. 03/28/17 - $GNGSA,A,2,10,12,13,15,17,18,24,28,,,,,1.1,0.8,0.8*2A

3:03:05:612 Nachm. 03/28/17 - $GNGSA,A,2,71,72,73,74,82,,,,,,,,1.1,0.8,0.8*23

3:03:06:586 Nachm. 03/28/17 - $GPGSV,3,1,12,10,17,300,21,12,38,229,23,13,23,158,16,15,46,195,19*74

3:03:06:587 Nachm. 03/28/17 - $GPGSV,3,2,12,17,41,073,19,18,15,272,24,24,68,286,25,28,11,054,19*78

3:03:06:588 Nachm. 03/28/17 - $GPGSV,3,3,12,32,04,322,21,01,05,021,,19,43,105,,25,,,*44

3:03:06:590 Nachm. 03/28/17 - $GLGSV,2,1,07,74,33,279,23,82,35,054,22,73,71,025,28,65,14,340,20*6E

3:03:06:591 Nachm. 03/28/17 - $GLGSV,2,2,07,71,31,227,16,72,41,293,19,83,28,119,*5E

3:03:06:597 Nachm. 03/28/17 - $GPGGA,130302.0,5208.365475,N,01138.412032,E,1,08,0.8,71.6,M,45.0,M,,*6A

3:03:06:598 Nachm. 03/28/17 - $GNGNS,130302.0,5208.365475,N,01138.412032,E,AA,13,0.8,71.6,45.0,,*54

3:03:06:599 Nachm. 03/28/17 - $GPVTG,305.9,T,305.5,M,0.0,N,0.0,K,A*2F

3:03:06:602 Nachm. 03/28/17 - $GPRMC,130302.0,A,5208.365475,N,01138.412032,E,0.0,305.9,280317,0.4,E,A*06

3:03:06:602 Nachm. 03/28/17 - $GPGSA,A,2,10,12,13,15,17,18,24,28,,,,,1.1,0.8,0.8*34

3:03:06:602 Nachm. 03/28/17 - $GNGSA,A,2,10,12,13,15,17,18,24,28,,,,,1.1,0.8,0.8*2A

3:03:06:603 Nachm. 03/28/17 - $GNGSA,A,2,71,72,73,74,82,,,,,,,,1.1,0.8,0.8*23

3:03:07:583 Nachm. 03/28/17 - $GPGSV,3,1,12,10,17,300,14,12,38,229,23,13,23,158,15,15,46,195,19*71

3:03:07:585 Nachm. 03/28/17 - $GPGSV,3,2,12,17,41,073,18,18,15,272,24,24,68,286,26,28,11,054,19*7A

3:03:07:591 Nachm. 03/28/17 - $GPGSV,3,3,12,32,04,322,21,01,05,021,,19,43,105,,25,,,*44

3:03:07:593 Nachm. 03/28/17 - $GLGSV,2,1,07,74,33,279,23,82,35,054,23,73,71,025,27,65,14,340,19*6A

3:03:07:595 Nachm. 03/28/17 - $GLGSV,2,2,07,71,31,227,18,72,41,293,22,83,28,119,*58

3:03:07:596 Nachm. 03/28/17 - $GPGGA,130303.0,5208.365464,N,01138.411960,E,1,08,0.8,71.7,M,45.0,M,,*67

3:03:07:604 Nachm. 03/28/17 - $GNGNS,130303.0,5208.365464,N,01138.411960,E,AA,13,0.8,71.7,45.0,,*59

3:03:07:605 Nachm. 03/28/17 - $GPVTG,305.9,T,305.5,M,0.0,N,0.0,K,A*2F

3:03:07:606 Nachm. 03/28/17 - $GPRMC,130303.0,A,5208.365464,N,01138.411960,E,0.0,305.9,280317,0.4,E,A*0A

3:03:07:606 Nachm. 03/28/17 - $GPGSA,A,2,10,12,13,15,17,18,24,28,,,,,1.1,0.8,0.8*34

3:03:07:607 Nachm. 03/28/17 - $GNGSA,A,2,10,12,13,15,17,18,24,28,,,,,1.1,0.8,0.8*2A

3:03:07:607 Nachm. 03/28/17 - $GNGSA,A,2,71,72,73,74,82,,,,,,,,1.1,0.8,0.8*23

3:03:08:583 Nachm. 03/28/17 - $GPGSV,3,1,12,10,17,300,20,12,38,229,25,13,23,158,15,15,46,195,16*7F

3:03:08:584 Nachm. 03/28/17 - $GPGSV,3,2,12,17,41,073,19,18,15,272,24,24,68,286,27,28,11,054,16*75

3:03:08:585 Nachm. 03/28/17 - $GPGSV,3,3,12,32,04,322,21,01,05,021,,19,43,105,,25,,,*44

3:03:08:596 Nachm. 03/28/17 - $GLGSV,2,1,07,74,33,279,22,82,35,054,23,73,71,025,26,65,14,340,17*64

3:03:08:609 Nachm. 03/28/17 - $GLGSV,2,2,07,71,31,227,21,72,41,293,22,83,28,119,*52

3:03:08:611 Nachm. 03/28/17 - $GPGGA,130304.0,5208.365448,N,01138.411851,E,1,08,0.8,71.9,M,45.0,M,,*63

3:03:08:614 Nachm. 03/28/17 - $GNGNS,130304.0,5208.365448,N,01138.411851,E,AA,13,0.8,71.9,45.0,,*5D

3:03:08:616 Nachm. 03/28/17 - $GPVTG,305.9,T,305.5,M,0.0,N,0.0,K,A*2F

3:03:08:619 Nachm. 03/28/17 - $GPRMC,130304.0,A,5208.365448,N,01138.411851,E,0.0,305.9,280317,0.4,E,A*00

3:03:08:620 Nachm. 03/28/17 - $GPGSA,A,2,10,12,13,15,17,18,24,28,,,,,1.1,0.8,0.8*34

3:03:08:620 Nachm. 03/28/17 - $GNGSA,A,2,10,12,13,15,17,18,24,28,,,,,1.1,0.8,0.8*2A

3:03:08:621 Nachm. 03/28/17 - $GNGSA,A,2,71,72,73,74,82,,,,,,,,1.1,0.8,0.8*23

3:03:09:585 Nachm. 03/28/17 - $GPGSV,3,1,12,10,17,300,20,12,38,229,27,13,23,158,15,15,46,195,20*78

3:03:09:586 Nachm. 03/28/17 - $GPGSV,3,2,12,17,41,073,21,18,15,272,24,24,68,286,28,28,11,054,16*71

3:03:09:596 Nachm. 03/28/17 - $GPGSV,3,3,12,32,04,322,18,01,05,021,,19,43,105,,25,,,*4E

3:03:09:610 Nachm. 03/28/17 - $GLGSV,2,1,07,74,33,279,19,82,35,054,22,73,71,025,26,65,14,340,18*62

3:03:09:610 Nachm. 03/28/17 - $GLGSV,2,2,07,71,31,227,17,72,41,293,22,83,28,119,*57

3:03:09:611 Nachm. 03/28/17 - $GPGGA,130305.0,5208.365428,N,01138.411711,E,1,08,0.8,72.1,M,45.0,M,,*64

3:03:09:611 Nachm. 03/28/17 - $GNGNS,130305.0,5208.365428,N,01138.411711,E,AA,13,0.8,72.1,45.0,,*5A

3:03:09:612 Nachm. 03/28/17 - $GPVTG,305.9,T,305.5,M,0.0,N,0.0,K,A*2F

3:03:09:612 Nachm. 03/28/17 - $GPRMC,130305.0,A,5208.365428,N,01138.411711,E,0.0,305.9,280317,0.4,E,A*0C

3:03:09:613 Nachm. 03/28/17 - $GPGSA,A,2,10,12,13,15,17,18,24,28,,,,,1.1,0.8,0.8*34

3:03:09:613 Nachm. 03/28/17 - $GNGSA,A,2,10,12,13,15,17,18,24,28,,,,,1.1,0.8,0.8*2A

3:03:09:614 Nachm. 03/28/17 - $GNGSA,A,2,71,72,73,74,82,,,,,,,,1.1,0.8,0.8*23

3:03:10:583 Nachm. 03/28/17 - $GPGSV,3,1,12,10,17,300,22,12,38,229,27,13,23,158,15,15,46,195,21*7B

3:03:10:584 Nachm. 03/28/17 - $GPGSV,3,2,12,17,41,073,22,18,15,272,24,24,68,286,28,28,11,054,16*72

3:03:10:585 Nachm. 03/28/17 - $GPGSV,3,3,12,32,04,322,19,01,05,021,,19,43,105,,25,,,*4F

3:03:10:591 Nachm. 03/28/17 - $GLGSV,2,1,07,74,33,279,19,82,35,054,22,73,71,025,27,65,14,340,20*68

3:03:10:592 Nachm. 03/28/17 - $GLGSV,2,2,07,71,31,227,18,72,41,293,24,83,28,119,*5E

3:03:10:592 Nachm. 03/28/17 - $GPGGA,130306.0,5208.365412,N,01138.411611,E,1,08,0.8,72.2,M,45.0,M,,*6C

3:03:10:593 Nachm. 03/28/17 - $GNGNS,130306.0,5208.365412,N,01138.411611,E,AA,13,0.8,72.2,45.0,,*52

3:03:10:593 Nachm. 03/28/17 - $GPVTG,305.9,T,305.5,M,0.0,N,0.0,K,A*2F

3:03:10:593 Nachm. 03/28/17 - $GPRMC,130306.0,A,5208.365412,N,01138.411611,E,0.0,305.9,280317,0.4,E,A*07

3:03:10:594 Nachm. 03/28/17 - $GPGSA,A,2,10,12,13,15,17,18,24,28,,,,,1.1,0.8,0.8*34

3:03:10:594 Nachm. 03/28/17 - $GNGSA,A,2,10,12,13,15,17,18,24,28,,,,,1.1,0.8,0.8*2A

3:03:10:594 Nachm. 03/28/17 - $GNGSA,A,2,71,72,73,74,82,,,,,,,,1.1,0.8,0.8*23

3:03:11:584 Nachm. 03/28/17 - $GPGSV,3,1,12,10,17,300,17,12,38,229,29,13,23,158,15,15,46,195,23*71

3:03:11:584 Nachm. 03/28/17 - $GPGSV,3,2,12,17,41,073,23,18,15,272,19,24,68,286,28,28,11,054,16*7D

3:03:11:585 Nachm. 03/28/17 - $GPGSV,3,3,12,32,04,322,21,01,05,021,,19,43,105,,25,,,*44

3:03:11:586 Nachm. 03/28/17 - $GLGSV,2,1,07,74,33,279,24,82,35,054,22,73,71,026,28,65,14,340,21*6B

3:03:11:586 Nachm. 03/28/17 - $GLGSV,2,2,07,71,31,227,22,72,41,293,24,83,28,119,*57

3:03:11:590 Nachm. 03/28/17 - $GPGGA,130307.0,5208.365398,N,01138.411545,E,1,08,0.8,72.3,M,45.0,M,,*6B

3:03:11:592 Nachm. 03/28/17 - $GNGNS,130307.0,5208.365398,N,01138.411545,E,AA,13,0.8,72.3,45.0,,*55

3:03:11:592 Nachm. 03/28/17 - $GPVTG,305.9,T,305.5,M,0.0,N,0.0,K,A*2F

3:03:11:592 Nachm. 03/28/17 - $GPRMC,130307.0,A,5208.365398,N,01138.411545,E,0.0,305.9,280317,0.4,E,A*01

3:03:11:592 Nachm. 03/28/17 - $GPGSA,A,2,10,12,13,15,17,18,24,28,,,,,1.1,0.8,0.8*34

3:03:11:592 Nachm. 03/28/17 - $GNGSA,A,2,10,12,13,15,17,18,24,28,,,,,1.1,0.8,0.8*2A

3:03:11:592 Nachm. 03/28/17 - $GNGSA,A,2,71,72,73,74,82,,,,,,,,1.1,0.8,0.8*23


