3:00:52:585 Nachm. 03/28/17 - $GPGSV,3,1,11,01,05,022,15,10,18,300,21,12,38,229,34,13,24,158,22*7D

3:00:52:590 Nachm. 03/28/17 - $GPGSV,3,2,11,15,47,195,32,17,41,074,23,18,16,272,19,19,43,106,24*7D

3:00:52:590 Nachm. 03/28/17 - $GPGSV,3,3,11,24,67,286,30,28,12,054,21,32,03,322,*4B

3:00:52:591 Nachm. 03/28/17 - $GLGSV,2,1,07,,,,27,82,35,056,20,73,71,022,22,83,27,120,21*55

3:00:52:591 Nachm. 03/28/17 - $GLGSV,2,2,07,71,32,227,30,72,41,295,21,65,13,340,*5A

3:00:52:592 Nachm. 03/28/17 - $GPGGA,130048.0,5208.349163,N,01138.430863,E,1,09,0.7,46.2,M,45.0,M,,*69

3:00:52:592 Nachm. 03/28/17 - $GNGNS,130048.0,5208.349163,N,01138.430863,E,AA,14,0.7,46.2,45.0,,*51

3:00:52:592 Nachm. 03/28/17 - $GPVTG,249.0,T,248.6,M,0.0,N,0.0,K,A*24

3:00:52:599 Nachm. 03/28/17 - $GPRMC,130048.0,A,5208.349163,N,01138.430863,E,0.0,249.0,280317,0.4,E,A*0B

3:00:52:599 Nachm. 03/28/17 - $GPGSA,A,2,10,12,13,15,17,18,19,24,28,,,,1.1,0.7,0.8*33

3:00:52:600 Nachm. 03/28/17 - $GNGSA,A,2,10,12,13,15,17,18,19,24,28,,,,1.1,0.7,0.8*2D

3:00:52:605 Nachm. 03/28/17 - $GNGSA,A,2,71,72,73,82,83,,,,,,,,1.1,0.7,0.8*24

3:00:53:587 Nachm. 03/28/17 - $GPGSV,3,1,11,01,05,022,14,10,18,300,21,12,38,229,32,13,24,158,19*72

3:00:53:587 Nachm. 03/28/17 - $GPGSV,3,2,11,15,47,195,29,17,41,074,26,18,16,272,23,19,43,106,27*78

3:00:53:588 Nachm. 03/28/17 - $GPGSV,3,3,11,24,67,286,25,28,12,054,21,32,03,322,*4F

3:00:53:589 Nachm. 03/28/17 - $GLGSV,2,1,07,,,,23,82,35,056,22,73,71,022,19,65,13,340,15*57

3:00:53:590 Nachm. 03/28/17 - $GLGSV,2,2,07,83,27,120,21,71,32,227,30,72,41,295,23*50

3:00:53:591 Nachm. 03/28/17 - $GPGGA,130049.0,5208.348934,N,01138.430426,E,1,09,0.7,46.7,M,45.0,M,,*6B

3:00:53:591 Nachm. 03/28/17 - $GNGNS,130049.0,5208.348934,N,01138.430426,E,AA,14,0.7,46.7,45.0,,*53

3:00:53:591 Nachm. 03/28/17 - $GPVTG,249.0,T,248.6,M,0.0,N,0.0,K,A*24

3:00:53:613 Nachm. 03/28/17 - $GPRMC,130049.0,A,5208.348934,N,01138.430426,E,0.0,249.0,280317,0.4,E,A*0C

3:00:53:632 Nachm. 03/28/17 - $GPGSA,A,2,10,12,13,15,17,18,19,24,28,,,,1.1,0.7,0.8*33

3:00:53:638 Nachm. 03/28/17 - $GNGSA,A,2,10,12,13,15,17,18,19,24,28,,,,1.1,0.7,0.8*2D

3:00:53:639 Nachm. 03/28/17 - $GNGSA,A,2,71,72,73,82,83,,,,,,,,1.1,0.7,0.8*24

3:00:54:587 Nachm. 03/28/17 - $GPGSV,3,1,11,01,05,022,14,10,18,300,21,12,38,229,32,13,24,158,19*72

3:00:54:588 Nachm. 03/28/17 - $GPGSV,3,2,11,15,47,195,28,17,41,074,25,18,16,272,22,19,43,106,26*7A

3:00:54:591 Nachm. 03/28/17 - $GPGSV,3,3,11,24,67,286,26,28,12,054,21,32,03,322,*4C

3:00:54:592 Nachm. 03/28/17 - $GLGSV,2,1,07,,,,23,82,35,056,21,73,71,022,19,65,13,340,15*54

3:00:54:593 Nachm. 03/28/17 - $GLGSV,2,2,07,83,27,120,20,71,32,227,30,72,41,295,23*51

3:00:54:607 Nachm. 03/28/17 - $GPGGA,130050.0,5208.349201,N,01138.430657,E,1,09,0.7,46.4,M,45.0,M,,*68

3:00:54:611 Nachm. 03/28/17 - $GNGNS,130050.0,5208.349201,N,01138.430657,E,AA,14,0.7,46.4,45.0,,*50

3:00:54:611 Nachm. 03/28/17 - $GPVTG,249.0,T,248.6,M,0.0,N,0.0,K,A*24

3:00:54:611 Nachm. 03/28/17 - $GPRMC,130050.0,A,5208.349201,N,01138.430657,E,0.0,249.0,280317,0.4,E,A*0C

3:00:54:612 Nachm. 03/28/17 - $GPGSA,A,2,10,12,13,15,17,18,19,24,28,,,,1.1,0.7,0.8*33

3:00:54:612 Nachm. 03/28/17 - $GNGSA,A,2,10,12,13,15,17,18,19,24,28,,,,1.1,0.7,0.8*2D

3:00:54:613 Nachm. 03/28/17 - $GNGSA,A,2,71,72,73,82,83,,,,,,,,1.1,0.7,0.8*24

3:00:55:585 Nachm. 03/28/17 - $GPGSV,3,1,11,01,05,022,18,10,18,300,21,12,38,229,32,13,24,158,18*7F

3:00:55:598 Nachm. 03/28/17 - $GPGSV,3,2,11,15,47,195,27,17,41,074,26,18,16,272,21,19,43,106,26*75

3:00:55:601 Nachm. 03/28/17 - $GPGSV,3,3,11,24,67,286,28,28,12,054,21,32,03,322,*42

3:00:55:604 Nachm. 03/28/17 - $GLGSV,2,1,07,,,,25,82,35,056,19,73,71,022,15,65,13,340,15*55

3:00:55:627 Nachm. 03/28/17 - $GLGSV,2,2,07,83,27,120,17,71,32,227,30,72,41,295,25*53

3:00:55:629 Nachm. 03/28/17 - $GPGGA,130051.0,5208.349298,N,01138.430888,E,1,09,0.7,46.0,M,45.0,M,,*61

3:00:55:629 Nachm. 03/28/17 - $GNGNS,130051.0,5208.349298,N,01138.430888,E,AA,14,0.7,46.0,45.0,,*59

3:00:55:629 Nachm. 03/28/17 - $GPVTG,249.0,T,248.6,M,0.0,N,0.0,K,A*24

3:00:55:629 Nachm. 03/28/17 - $GPRMC,130051.0,A,5208.349298,N,01138.430888,E,0.0,249.0,280317,0.4,E,A*01

3:00:55:630 Nachm. 03/28/17 - $GPGSA,A,2,10,12,13,15,17,18,19,24,28,,,,1.1,0.7,0.8*33

3:00:55:630 Nachm. 03/28/17 - $GNGSA,A,2,10,12,13,15,17,18,19,24,28,,,,1.1,0.7,0.8*2D

3:00:55:630 Nachm. 03/28/17 - $GNGSA,A,2,71,72,73,82,83,,,,,,,,1.1,0.7,0.8*24

3:00:56:584 Nachm. 03/28/17 - $GPGSV,3,1,11,01,05,022,18,10,18,300,21,12,38,229,29,13,24,158,21*7F

3:00:56:590 Nachm. 03/28/17 - $GPGSV,3,2,11,15,47,195,23,17,41,074,22,18,16,272,23,19,43,106,25*74

3:00:56:590 Nachm. 03/28/17 - $GPGSV,3,3,11,24,67,286,31,28,12,054,15,32,03,322,*4D

3:00:56:590 Nachm. 03/28/17 - $GLGSV,2,1,07,,,,26,82,35,056,19,73,71,022,18,65,13,340,15*5B

3:00:56:590 Nachm. 03/28/17 - $GLGSV,2,2,07,83,27,120,17,71,32,227,27,72,41,295,27*57

3:00:56:590 Nachm. 03/28/17 - $GPGGA,130052.0,5208.349187,N,01138.430743,E,1,09,0.7,46.5,M,45.0,M,,*62

3:00:56:600 Nachm. 03/28/17 - $GNGNS,130052.0,5208.349187,N,01138.430743,E,AA,14,0.7,46.5,45.0,,*5A

3:00:56:604 Nachm. 03/28/17 - $GPVTG,249.0,T,248.6,M,0.0,N,0.0,K,A*24

3:00:56:605 Nachm. 03/28/17 - $GPRMC,130052.0,A,5208.349187,N,01138.430743,E,0.0,249.0,280317,0.4,E,A*07

3:00:56:606 Nachm. 03/28/17 - $GPGSA,A,2,10,12,13,15,17,18,19,24,28,,,,1.1,0.7,0.8*33

3:00:56:607 Nachm. 03/28/17 - $GNGSA,A,2,10,12,13,15,17,18,19,24,28,,,,1.1,0.7,0.8*2D

3:00:56:607 Nachm. 03/28/17 - $GNGSA,A,2,71,72,73,82,83,,,,,,,,1.1,0.7,0.8*24

3:00:57:585 Nachm. 03/28/17 - $GPGSV,3,1,11,01,05,022,18,10,18,300,21,12,38,229,26,13,24,158,17*75

3:00:57:587 Nachm. 03/28/17 - $GPGSV,3,2,11,15,47,195,31,17,41,074,24,18,16,272,22,19,43,106,20*75

3:00:57:589 Nachm. 03/28/17 - $GPGSV,3,3,11,24,67,286,31,28,12,054,25,32,03,322,*4E

3:00:57:604 Nachm. 03/28/17 - $GLGSV,2,1,07,,,,22,82,35,056,20,73,71,022,24,65,13,340,14*5B

3:00:57:608 Nachm. 03/28/17 - $GLGSV,2,2,07,83,27,120,17,71,32,227,26,72,41,295,29*58

3:00:57:609 Nachm. 03/28/17 - $GPGGA,130053.0,5208.349108,N,01138.430399,E,1,09,0.7,46.4,M,45.0,M,,*66

3:00:57:609 Nachm. 03/28/17 - $GNGNS,130053.0,5208.349108,N,01138.430399,E,AA,14,0.7,46.4,45.0,,*5E

3:00:57:610 Nachm. 03/28/17 - $GPVTG,249.0,T,248.6,M,0.0,N,0.0,K,A*24

3:00:57:610 Nachm. 03/28/17 - $GPRMC,130053.0,A,5208.349108,N,01138.430399,E,0.0,249.0,280317,0.4,E,A*02

3:00:57:610 Nachm. 03/28/17 - $GPGSA,A,2,10,12,13,15,17,18,19,24,28,,,,1.1,0.7,0.8*33

3:00:57:611 Nachm. 03/28/17 - $GNGSA,A,2,10,12,13,15,17,18,19,24,28,,,,1.1,0.7,0.8*2D

3:00:57:612 Nachm. 03/28/17 - $GNGSA,A,2,71,72,73,82,83,,,,,,,,1.1,0.7,0.8*24

3:00:58:586 Nachm. 03/28/17 - $GPGSV,3,1,11,01,05,022,19,10,18,300,21,12,38,229,31,13,24,158,22*74

3:00:58:589 Nachm. 03/28/17 - $GPGSV,3,2,11,15,47,195,25,17,41,074,25,18,16,272,26,19,43,106,21*74

3:00:58:591 Nachm. 03/28/17 - $GPGSV,3,3,11,24,67,286,31,28,12,054,21,32,03,322,*4A

3:00:58:591 Nachm. 03/28/17 - $GLGSV,2,1,07,,,,25,82,35,056,21,73,71,022,24,65,13,340,14*5D

3:00:58:607 Nachm. 03/28/17 - $GLGSV,2,2,07,83,27,120,14,71,32,227,31,72,41,295,30*55

3:00:58:608 Nachm. 03/28/17 - $GPGGA,130054.0,5208.349129,N,01138.430037,E,1,09,0.7,46.9,M,45.0,M,,*68

3:00:58:610 Nachm. 03/28/17 - $GNGNS,130054.0,5208.349129,N,01138.430037,E,AA,14,0.7,46.9,45.0,,*50

3:00:58:611 Nachm. 03/28/17 - $GPVTG,249.0,T,248.6,M,0.0,N,0.0,K,A*24

3:00:58:613 Nachm. 03/28/17 - $GPRMC,130054.0,A,5208.349129,N,01138.430037,E,0.0,249.0,280317,0.4,E,A*01

3:00:58:613 Nachm. 03/28/17 - $GPGSA,A,2,10,12,13,15,17,18,19,24,28,,,,1.1,0.7,0.8*33

3:00:58:614 Nachm. 03/28/17 - $GNGSA,A,2,10,12,13,15,17,18,19,24,28,,,,1.1,0.7,0.8*2D

3:00:58:617 Nachm. 03/28/17 - $GNGSA,A,2,71,72,73,82,83,,,,,,,,1.1,0.7,0.8*24

3:00:59:585 Nachm. 03/28/17 - $GPGSV,3,1,11,01,05,022,19,10,18,300,14,12,38,229,25,13,24,158,23*76

3:00:59:586 Nachm. 03/28/17 - $GPGSV,3,2,11,15,47,195,17,17,41,074,20,18,16,272,28,19,43,106,22*7D

3:00:59:588 Nachm. 03/28/17 - $GPGSV,3,3,11,24,67,286,34,28,12,054,21,32,03,322,*4F

3:00:59:588 Nachm. 03/28/17 - $GLGSV,2,1,07,,,,29,82,35,056,19,73,71,022,17,65,13,340,14*5A

3:00:59:590 Nachm. 03/28/17 - $GLGSV,2,2,07,83,27,120,17,71,32,227,27,72,41,295,29*59

3:00:59:597 Nachm. 03/28/17 - $GPGGA,130055.0,5208.348994,N,01138.429910,E,1,09,0.7,46.8,M,45.0,M,,*63

3:00:59:598 Nachm. 03/28/17 - $GNGNS,130055.0,5208.348994,N,01138.429910,E,AA,14,0.7,46.8,45.0,,*5B

3:00:59:598 Nachm. 03/28/17 - $GPVTG,249.0,T,248.6,M,0.0,N,0.0,K,A*24

3:00:59:599 Nachm. 03/28/17 - $GPRMC,130055.0,A,5208.348994,N,01138.429910,E,0.0,249.0,280317,0.4,E,A*0B

3:00:59:599 Nachm. 03/28/17 - $GPGSA,A,2,10,12,13,15,17,18,19,24,28,,,,1.1,0.7,0.8*33

3:00:59:599 Nachm. 03/28/17 - $GNGSA,A,2,10,12,13,15,17,18,19,24,28,,,,1.1,0.7,0.8*2D

3:00:59:599 Nachm. 03/28/17 - $GNGSA,A,2,71,72,73,82,83,,,,,,,,1.1,0.7,0.8*24

3:01:00:585 Nachm. 03/28/17 - $GPGSV,3,1,11,01,05,022,19,10,18,300,18,12,38,229,28,13,24,158,18*7F

3:01:00:586 Nachm. 03/28/17 - $GPGSV,3,2,11,15,47,195,19,17,41,074,19,18,16,272,28,19,43,106,22*79

3:01:00:591 Nachm. 03/28/17 - $GPGSV,3,3,11,24,67,286,33,28,12,054,21,32,03,322,*48

3:01:00:591 Nachm. 03/28/17 - $GLGSV,2,1,07,,,,30,82,35,056,19,73,71,022,19,65,13,340,13*5B

3:01:00:591 Nachm. 03/28/17 - $GLGSV,2,2,07,83,27,120,18,71,32,227,28,72,41,295,28*58

3:01:00:593 Nachm. 03/28/17 - $GPGGA,130056.0,5208.349009,N,01138.429805,E,1,09,0.7,46.7,M,45.0,M,,*66

3:01:00:595 Nachm. 03/28/17 - $GNGNS,130056.0,5208.349009,N,01138.429805,E,AA,14,0.7,46.7,45.0,,*5E

3:01:00:596 Nachm. 03/28/17 - $GPVTG,249.0,T,248.6,M,0.0,N,0.0,K,A*24

3:01:00:604 Nachm. 03/28/17 - $GPRMC,130056.0,A,5208.349009,N,01138.429805,E,0.0,249.0,280317,0.4,E,A*01

3:01:00:604 Nachm. 03/28/17 - $GPGSA,A,2,10,12,13,15,17,18,19,24,28,,,,1.1,0.7,0.8*33

3:01:00:605 Nachm. 03/28/17 - $GNGSA,A,2,10,12,13,15,17,18,19,24,28,,,,1.1,0.7,0.8*2D

3:01:00:606 Nachm. 03/28/17 - $GNGSA,A,2,71,72,73,82,83,,,,,,,,1.1,0.7,0.8*24

3:01:01:588 Nachm. 03/28/17 - $GPGSV,3,1,11,01,05,022,16,10,18,300,20,12,38,229,30,13,24,158,21*78

3:01:01:588 Nachm. 03/28/17 - $GPGSV,3,2,11,15,47,195,19,17,41,074,19,18,16,272,28,19,43,106,22*79

3:01:01:589 Nachm. 03/28/17 - $GPGSV,3,3,11,24,67,286,34,28,12,054,16,32,03,322,*4B

3:01:01:589 Nachm. 03/28/17 - $GLGSV,2,1,07,,,,29,82,35,056,16,73,71,022,20,65,13,340,13*56

3:01:01:590 Nachm. 03/28/17 - $GLGSV,2,2,07,83,27,120,16,71,32,227,29,72,41,295,27*58

3:01:01:590 Nachm. 03/28/17 - $GPGGA,130057.0,5208.348998,N,01138.429746,E,1,09,0.7,46.7,M,45.0,M,,*6F

3:01:01:590 Nachm. 03/28/17 - $GNGNS,130057.0,5208.348998,N,01138.429746,E,AA,14,0.7,46.7,45.0,,*57

3:01:01:598 Nachm. 03/28/17 - $GPVTG,249.0,T,248.6,M,0.0,N,0.0,K,A*24

3:01:01:598 Nachm. 03/28/17 - $GPRMC,130057.0,A,5208.348998,N,01138.429746,E,0.0,249.0,280317,0.4,E,A*08

3:01:01:599 Nachm. 03/28/17 - $GPGSA,A,2,10,12,13,15,17,18,19,24,28,,,,1.1,0.7,0.8*33

3:01:01:599 Nachm. 03/28/17 - $GNGSA,A,2,10,12,13,15,17,18,19,24,28,,,,1.1,0.7,0.8*2D

3:01:01:599 Nachm. 03/28/17 - $GNGSA,A,2,71,72,73,82,83,,,,,,,,1.1,0.7,0.8*24

3:01:02:586 Nachm. 03/28/17 - $GPGSV,3,1,11,01,05,022,16,10,18,300,20,12,38,229,27,13,24,158,25*7A

3:01:02:587 Nachm. 03/28/17 - $GPGSV,3,2,11,15,47,195,22,17,41,074,20,18,16,272,30,19,43,106,23*73

3:01:02:587 Nachm. 03/28/17 - $GPGSV,3,3,11,24,67,286,34,28,12,054,19,32,03,322,*44

3:01:02:590 Nachm. 03/28/17 - $GLGSV,2,1,07,,,,28,82,35,056,16,73,71,022,19,65,13,340,13*5D

3:01:02:596 Nachm. 03/28/17 - $GLGSV,2,2,07,83,27,120,17,71,32,227,28,72,41,295,31*5F

3:01:02:596 Nachm. 03/28/17 - $GPGGA,130058.0,5208.349012,N,01138.429662,E,1,09,0.7,46.6,M,45.0,M,,*6C

3:01:02:596 Nachm. 03/28/17 - $GNGNS,130058.0,5208.349012,N,01138.429662,E,AA,14,0.7,46.6,45.0,,*54

3:01:02:596 Nachm. 03/28/17 - $GPVTG,249.0,T,248.6,M,0.0,N,0.0,K,A*24

3:01:02:597 Nachm. 03/28/17 - $GPRMC,130058.0,A,5208.349012,N,01138.429662,E,0.0,249.0,280317,0.4,E,A*0A

3:01:02:597 Nachm. 03/28/17 - $GPGSA,A,2,10,12,13,15,17,18,19,24,28,,,,1.1,0.7,0.8*33

3:01:02:597 Nachm. 03/28/17 - $GNGSA,A,2,10,12,13,15,17,18,19,24,28,,,,1.1,0.7,0.8*2D

3:01:02:597 Nachm. 03/28/17 - $GNGSA,A,2,71,72,73,82,83,,,,,,,,1.1,0.7,0.8*24

3:01:03:586 Nachm. 03/28/17 - $GPGSV,3,1,11,01,05,022,16,10,18,300,17,12,38,229,27,13,24,158,27*7C

3:01:03:587 Nachm. 03/28/17 - $GPGSV,3,2,11,15,47,195,29,17,41,074,20,18,16,272,26,19,43,106,22*7E

3:01:03:589 Nachm. 03/28/17 - $GPGSV,3,3,11,24,67,286,32,28,12,054,22,32,03,322,*4A

3:01:03:592 Nachm. 03/28/17 - $GLGSV,2,1,07,,,,26,82,35,056,22,73,71,022,25,65,13,340,13*5B

3:01:03:600 Nachm. 03/28/17 - $GLGSV,2,2,07,83,27,120,18,71,32,227,26,72,41,295,27*59

3:01:03:601 Nachm. 03/28/17 - $GPGGA,130059.0,5208.348997,N,01138.429619,E,1,09,0.7,46.7,M,45.0,M,,*65

3:01:03:602 Nachm. 03/28/17 - $GNGNS,130059.0,5208.348997,N,01138.429619,E,AA,14,0.7,46.7,45.0,,*5D

3:01:03:603 Nachm. 03/28/17 - $GPVTG,249.0,T,248.6,M,0.0,N,0.0,K,A*24

3:01:03:604 Nachm. 03/28/17 - $GPRMC,130059.0,A,5208.348997,N,01138.429619,E,0.0,249.0,280317,0.4,E,A*02

3:01:03:606 Nachm. 03/28/17 - $GPGSA,A,2,10,12,13,15,17,18,19,24,28,,,,1.1,0.7,0.8*33

3:01:03:609 Nachm. 03/28/17 - $GNGSA,A,2,10,12,13,15,17,18,19,24,28,,,,1.1,0.7,0.8*2D

3:01:03:610 Nachm. 03/28/17 - $GNGSA,A,2,71,72,73,82,83,,,,,,,,1.1,0.7,0.8*24

3:01:04:587 Nachm. 03/28/17 - $GPGSV,3,1,11,01,05,022,16,10,18,300,21,12,38,229,33,13,24,158,21*7A

3:01:04:588 Nachm. 03/28/17 - $GPGSV,3,2,11,15,47,195,28,17,41,074,17,18,16,272,25,19,43,106,26*7C

3:01:04:588 Nachm. 03/28/17 - $GPGSV,3,3,11,24,67,286,33,28,12,054,19,32,03,322,*43

3:01:04:588 Nachm. 03/28/17 - $GLGSV,2,1,07,,,,25,82,35,056,18,73,71,022,17,65,13,340,16*55

3:01:04:590 Nachm. 03/28/17 - $GLGSV,2,2,07,83,27,120,18,71,32,227,30,72,41,295,30*58

3:01:04:593 Nachm. 03/28/17 - $GPGGA,130100.0,5208.349073,N,01138.429752,E,1,09,0.7,46.4,M,45.0,M,,*67

3:01:04:594 Nachm. 03/28/17 - $GNGNS,130100.0,5208.349073,N,01138.429752,E,AA,14,0.7,46.4,45.0,,*5F

3:01:04:594 Nachm. 03/28/17 - $GPVTG,249.0,T,248.6,M,0.0,N,0.0,K,A*24

3:01:04:597 Nachm. 03/28/17 - $GPRMC,130100.0,A,5208.349073,N,01138.429752,E,0.0,249.0,280317,0.4,E,A*03

3:01:04:597 Nachm. 03/28/17 - $GPGSA,A,2,10,12,13,15,17,18,19,24,28,,,,1.1,0.7,0.8*33

3:01:04:598 Nachm. 03/28/17 - $GNGSA,A,2,10,12,13,15,17,18,19,24,28,,,,1.1,0.7,0.8*2D

3:01:04:598 Nachm. 03/28/17 - $GNGSA,A,2,71,72,73,82,83,,,,,,,,1.1,0.7,0.8*24

3:01:05:586 Nachm. 03/28/17 - $GPGSV,3,1,11,01,05,022,16,10,18,300,17,12,38,229,35,13,24,158,19*72

3:01:05:586 Nachm. 03/28/17 - $GPGSV,3,2,11,15,47,195,17,17,41,074,17,18,16,272,28,19,43,106,23*78

3:01:05:586 Nachm. 03/28/17 - $GPGSV,3,3,11,24,67,286,32,28,12,054,21,32,03,322,*49

3:01:05:587 Nachm. 03/28/17 - $GLGSV,2,1,07,74,33,278,28,82,35,056,19,73,71,022,17,65,13,340,21*63

3:01:05:587 Nachm. 03/28/17 - $GLGSV,2,2,07,83,27,120,18,71,32,227,28,72,41,295,28*58

3:01:05:587 Nachm. 03/28/17 - $GPGGA,130101.0,5208.349075,N,01138.429755,E,1,09,0.7,46.4,M,45.0,M,,*67

3:01:05:590 Nachm. 03/28/17 - $GNGNS,130101.0,5208.349075,N,01138.429755,E,AA,14,0.7,46.4,45.0,,*5F

3:01:05:595 Nachm. 03/28/17 - $GPVTG,249.0,T,248.6,M,0.0,N,0.0,K,A*24

3:01:05:596 Nachm. 03/28/17 - $GPRMC,130101.0,A,5208.349075,N,01138.429755,E,0.0,249.0,280317,0.4,E,A*03

3:01:05:597 Nachm. 03/28/17 - $GPGSA,A,2,10,12,13,15,17,18,19,24,28,,,,1.1,0.7,0.8*33

3:01:05:598 Nachm. 03/28/17 - $GNGSA,A,2,10,12,13,15,17,18,19,24,28,,,,1.1,0.7,0.8*2D

3:01:05:599 Nachm. 03/28/17 - $GNGSA,A,2,71,72,73,82,83,,,,,,,,1.1,0.7,0.8*24

3:01:06:586 Nachm. 03/28/17 - $GPGSV,3,1,11,01,05,022,21,10,18,300,20,12,38,229,34,13,24,158,20*79

3:01:06:587 Nachm. 03/28/17 - $GPGSV,3,2,11,15,47,195,29,17,41,074,17,18,16,272,27,19,43,106,21*78

3:01:06:590 Nachm. 03/28/17 - $GPGSV,3,3,11,24,67,286,33,28,12,054,21,32,03,322,*48

3:01:06:599 Nachm. 03/28/17 - $GLGSV,2,1,07,74,33,278,28,82,35,056,17,73,71,022,15,65,13,340,23*6D

3:01:06:600 Nachm. 03/28/17 - $GLGSV,2,2,07,83,27,120,17,71,32,227,29,72,41,295,30*5F

3:01:06:601 Nachm. 03/28/17 - $GPGGA,130102.0,5208.349063,N,01138.429736,E,1,09,0.7,46.4,M,45.0,M,,*66

3:01:06:611 Nachm. 03/28/17 - $GNGNS,130102.0,5208.349063,N,01138.429736,E,AA,14,0.7,46.4,45.0,,*5E

3:01:06:614 Nachm. 03/28/17 - $GPVTG,249.0,T,248.6,M,0.0,N,0.0,K,A*24

3:01:06:614 Nachm. 03/28/17 - $GPRMC,130102.0,A,5208.349063,N,01138.429736,E,0.0,249.0,280317,0.4,E,A*02

3:01:06:615 Nachm. 03/28/17 - $GPGSA,A,2,10,12,13,15,17,18,19,24,28,,,,1.1,0.7,0.8*33

3:01:06:616 Nachm. 03/28/17 - $GNGSA,A,2,10,12,13,15,17,18,19,24,28,,,,1.1,0.7,0.8*2D

3:01:06:616 Nachm. 03/28/17 - $GNGSA,A,2,71,72,73,82,83,,,,,,,,1.1,0.7,0.8*24

3:01:07:586 Nachm. 03/28/17 - $GPGSV,3,1,11,01,05,022,20,10,18,300,22,12,38,229,33,13,24,158,18*76

3:01:07:588 Nachm. 03/28/17 - $GPGSV,3,2,11,15,47,195,31,17,41,074,17,18,16,272,26,19,43,106,22*73

3:01:07:592 Nachm. 03/28/17 - $GPGSV,3,3,11,24,67,286,33,28,12,054,21,32,03,322,*48

3:01:07:605 Nachm. 03/28/17 - $GLGSV,2,1,07,74,33,278,28,82,35,056,16,73,71,022,15,65,13,340,22*6D

3:01:07:609 Nachm. 03/28/17 - $GLGSV,2,2,07,83,27,120,21,71,32,227,27,72,41,295,29*5C

3:01:07:609 Nachm. 03/28/17 - $GPGGA,130103.0,5208.349060,N,01138.429701,E,1,09,0.7,46.4,M,45.0,M,,*60

3:01:07:610 Nachm. 03/28/17 - $GNGNS,130103.0,5208.349060,N,01138.429701,E,AA,14,0.7,46.4,45.0,,*58

3:01:07:612 Nachm. 03/28/17 - $GPVTG,249.0,T,248.6,M,0.0,N,0.0,K,A*24

3:01:07:613 Nachm. 03/28/17 - $GPRMC,130103.0,A,5208.349060,N,01138.429701,E,0.0,249.0,280317,0.4,E,A*04

3:01:07:613 Nachm. 03/28/17 - $GPGSA,A,2,10,12,13,15,17,18,19,24,28,,,,1.1,0.7,0.8*33

3:01:07:614 Nachm. 03/28/17 - $GNGSA,A,2,10,12,13,15,17,18,19,24,28,,,,1.1,0.7,0.8*2D

3:01:07:615 Nachm. 03/28/17 - $GNGSA,A,2,71,72,73,82,83,,,,,,,,1.1,0.7,0.8*24

3:01:08:587 Nachm. 03/28/17 - $GPGSV,3,1,11,01,05,022,20,10,18,300,23,12,38,229,35,13,24,158,21*7B

3:01:08:590 Nachm. 03/28/17 - $GPGSV,3,2,11,15,47,195,28,17,41,074,18,18,16,272,28,19,43,106,20*78

3:01:08:596 Nachm. 03/28/17 - $GPGSV,3,3,11,24,67,286,31,28,12,054,20,32,03,322,*4B

3:01:08:598 Nachm. 03/28/17 - $GLGSV,2,1,07,74,33,278,28,82,35,056,18,73,71,022,15,65,13,340,21*60

3:01:08:605 Nachm. 03/28/17 - $GLGSV,2,2,07,83,27,120,21,71,32,227,29,72,41,295,28*53

3:01:08:608 Nachm. 03/28/17 - $GPGGA,130104.0,5208.349060,N,01138.429700,E,1,09,0.7,46.4,M,45.0,M,,*66

3:01:08:609 Nachm. 03/28/17 - $GNGNS,130104.0,5208.349060,N,01138.429700,E,AA,14,0.7,46.4,45.0,,*5E

3:01:08:609 Nachm. 03/28/17 - $GPVTG,249.0,T,248.6,M,0.0,N,0.0,K,A*24

3:01:08:609 Nachm. 03/28/17 - $GPRMC,130104.0,A,5208.349060,N,01138.429700,E,0.0,249.0,280317,0.4,E,A*02

3:01:08:609 Nachm. 03/28/17 - $GPGSA,A,2,10,12,13,15,17,18,19,24,28,,,,1.1,0.7,0.8*33

3:01:08:609 Nachm. 03/28/17 - $GNGSA,A,2,10,12,13,15,17,18,19,24,28,,,,1.1,0.7,0.8*2D

3:01:08:610 Nachm. 03/28/17 - $GNGSA,A,2,71,72,73,82,83,,,,,,,,1.1,0.7,0.8*24

3:01:09:588 Nachm. 03/28/17 - $GPGSV,3,1,11,01,05,022,17,10,18,300,23,12,38,229,35,13,24,158,22*7C

3:01:09:589 Nachm. 03/28/17 - $GPGSV,3,2,11,15,47,195,29,17,41,074,17,18,16,272,28,19,43,106,18*7D

3:01:09:590 Nachm. 03/28/17 - $GPGSV,3,3,11,24,67,286,32,28,12,054,19,32,03,322,*42

3:01:09:590 Nachm. 03/28/17 - $GLGSV,2,1,07,74,33,278,28,82,35,056,16,73,71,022,15,65,13,340,21*6E

3:01:09:594 Nachm. 03/28/17 - $GLGSV,2,2,07,83,27,120,22,71,32,227,29,72,41,295,29*51

3:01:09:599 Nachm. 03/28/17 - $GPGGA,130105.0,5208.349060,N,01138.429697,E,1,09,0.7,46.4,M,45.0,M,,*68

3:01:09:602 Nachm. 03/28/17 - $GNGNS,130105.0,5208.349060,N,01138.429697,E,AA,14,0.7,46.4,45.0,,*50

3:01:09:602 Nachm. 03/28/17 - $GPVTG,249.0,T,248.6,M,0.0,N,0.0,K,A*24

3:01:09:603 Nachm. 03/28/17 - $GPRMC,130105.0,A,5208.349060,N,01138.429697,E,0.0,249.0,280317,0.4,E,A*0C

3:01:09:603 Nachm. 03/28/17 - $GPGSA,A,2,10,12,13,15,17,18,19,24,28,,,,1.1,0.7,0.8*33

3:01:09:604 Nachm. 03/28/17 - $GNGSA,A,2,10,12,13,15,17,18,19,24,28,,,,1.1,0.7,0.8*2D

3:01:09:604 Nachm. 03/28/17 - $GNGSA,A,2,71,72,73,82,83,,,,,,,,1.1,0.7,0.8*24

3:01:10:587 Nachm. 03/28/17 - $GPGSV,3,1,11,01,05,022,17,10,18,300,25,12,38,229,35,13,24,158,21*79

3:01:10:588 Nachm. 03/28/17 - $GPGSV,3,2,11,15,47,195,30,17,41,074,17,18,16,272,25,19,43,106,20*73

3:01:10:589 Nachm. 03/28/17 - $GPGSV,3,3,11,24,67,286,34,28,12,054,19,32,03,322,*44

3:01:10:595 Nachm. 03/28/17 - $GLGSV,2,1,07,74,33,278,28,82,35,056,17,73,71,022,13,65,13,340,20*68

3:01:10:597 Nachm. 03/28/17 - $GLGSV,2,2,07,83,27,120,23,71,32,227,26,72,41,295,29*5F

3:01:10:607 Nachm. 03/28/17 - $GPGGA,130106.0,5208.349059,N,01138.429697,E,1,09,0.7,46.4,M,45.0,M,,*61

3:01:10:608 Nachm. 03/28/17 - $GNGNS,130106.0,5208.349059,N,01138.429697,E,AA,14,0.7,46.4,45.0,,*59

3:01:10:608 Nachm. 03/28/17 - $GPVTG,249.0,T,248.6,M,0.0,N,0.0,K,A*24

3:01:10:609 Nachm. 03/28/17 - $GPRMC,130106.0,A,5208.349059,N,01138.429697,E,0.0,249.0,280317,0.4,E,A*05

3:01:10:609 Nachm. 03/28/17 - $GPGSA,A,2,10,12,13,15,17,18,19,24,28,,,,1.1,0.7,0.8*33

3:01:10:610 Nachm. 03/28/17 - $GNGSA,A,2,10,12,13,15,17,18,19,24,28,,,,1.1,0.7,0.8*2D

3:01:10:610 Nachm. 03/28/17 - $GNGSA,A,2,71,72,73,82,83,,,,,,,,1.1,0.7,0.8*24

3:01:11:587 Nachm. 03/28/17 - $GPGSV,3,1,11,01,05,022,18,10,18,300,23,12,38,229,33,13,24,158,21*76

3:01:11:588 Nachm. 03/28/17 - $GPGSV,3,2,11,15,47,195,30,17,41,074,17,18,16,272,23,19,43,106,21*74

3:01:11:597 Nachm. 03/28/17 - $GPGSV,3,3,11,24,67,286,33,28,12,054,17,32,03,322,*4D

3:01:11:602 Nachm. 03/28/17 - $GLGSV,2,1,07,74,33,278,28,82,35,056,18,73,71,022,17,65,13,340,20*63

3:01:11:603 Nachm. 03/28/17 - $GLGSV,2,2,07,83,27,120,22,71,32,227,23,72,41,295,30*53

3:01:11:604 Nachm. 03/28/17 - $GPGGA,130107.0,5208.349054,N,01138.429695,E,1,09,0.7,46.4,M,45.0,M,,*6F

3:01:11:610 Nachm. 03/28/17 - $GNGNS,130107.0,5208.349054,N,01138.429695,E,AA,14,0.7,46.4,45.0,,*57

3:01:11:610 Nachm. 03/28/17 - $GPVTG,249.0,T,248.6,M,0.0,N,0.0,K,A*24

3:01:11:610 Nachm. 03/28/17 - $GPRMC,130107.0,A,5208.349054,N,01138.429695,E,0.0,249.0,280317,0.4,E,A*0B

3:01:11:610 Nachm. 03/28/17 - $GPGSA,A,2,10,12,13,15,17,18,19,24,28,,,,1.1,0.7,0.8*33

3:01:11:611 Nachm. 03/28/17 - $GNGSA,A,2,10,12,13,15,17,18,19,24,28,,,,1.1,0.7,0.8*2D

3:01:11:611 Nachm. 03/28/17 - $GNGSA,A,2,71,72,73,82,83,,,,,,,,1.1,0.7,0.8*24

3:01:12:588 Nachm. 03/28/17 - $GPGSV,3,1,11,01,05,022,20,10,18,300,22,12,38,229,32,13,24,158,20*7C

3:01:12:590 Nachm. 03/28/17 - $GPGSV,3,2,11,15,47,195,31,17,41,074,17,18,16,272,24,19,43,106,19*79

3:01:12:597 Nachm. 03/28/17 - $GPGSV,3,3,11,24,67,286,34,28,12,054,17,32,03,322,*4A

3:01:12:603 Nachm. 03/28/17 - $GLGSV,2,1,07,74,33,278,28,82,35,056,18,73,71,022,19,65,13,340,17*69

3:01:12:604 Nachm. 03/28/17 - $GLGSV,2,2,07,83,27,120,22,71,32,227,25,72,41,295,30*55

3:01:12:604 Nachm. 03/28/17 - $GPGGA,130108.0,5208.349036,N,01138.429720,E,1,09,0.7,46.5,M,45.0,M,,*6A

3:01:12:615 Nachm. 03/28/17 - $GNGNS,130108.0,5208.349036,N,01138.429720,E,AA,15,0.7,46.5,45.0,,*53

3:01:12:616 Nachm. 03/28/17 - $GPVTG,249.0,T,248.6,M,0.0,N,0.0,K,A*24

3:01:12:617 Nachm. 03/28/17 - $GPRMC,130108.0,A,5208.349036,N,01138.429720,E,0.0,249.0,280317,0.4,E,A*0F

3:01:12:617 Nachm. 03/28/17 - $GPGSA,A,2,10,12,13,15,17,18,19,24,28,,,,1.1,0.7,0.8*33

3:01:12:618 Nachm. 03/28/17 - $GNGSA,A,2,10,12,13,15,17,18,19,24,28,,,,1.1,0.7,0.8*2D

3:01:12:618 Nachm. 03/28/17 - $GNGSA,A,2,71,72,73,74,82,83,,,,,,,1.1,0.7,0.8*27

3:01:13:583 Nachm. 03/28/17 - $GPGSV,3,1,11,01,05,022,20,10,18,300,21,12,38,229,34,13,24,158,21*78

3:01:13:584 Nachm. 03/28/17 - $GPGSV,3,2,11,15,47,195,31,17,41,074,14,18,16,272,25,19,43,106,18*7A

3:01:13:586 Nachm. 03/28/17 - $GPGSV,3,3,11,24,67,286,34,28,12,054,18,32,03,322,*45

3:01:13:586 Nachm. 03/28/17 - $GLGSV,2,1,07,74,33,278,27,82,35,056,15,73,71,022,18,65,13,340,17*6A

3:01:13:588 Nachm. 03/28/17 - $GLGSV,2,2,07,83,27,120,21,71,32,227,27,72,41,293,30*52

3:01:13:588 Nachm. 03/28/17 - $GPGGA,130109.0,5208.349035,N,01138.429725,E,1,09,0.7,46.5,M,45.0,M,,*6D

3:01:13:588 Nachm. 03/28/17 - $GNGNS,130109.0,5208.349035,N,01138.429725,E,AA,15,0.7,46.5,45.0,,*54

3:01:13:588 Nachm. 03/28/17 - $GPVTG,249.0,T,248.6,M,0.0,N,0.0,K,A*24

3:01:13:589 Nachm. 03/28/17 - $GPRMC,130109.0,A,5208.349035,N,01138.429725,E,0.0,249.0,280317,0.4,E,A*08

3:01:13:597 Nachm. 03/28/17 - $GPGSA,A,2,10,12,13,15,17,18,19,24,28,,,,1.1,0.7,0.8*33

3:01:13:599 Nachm. 03/28/17 - $GNGSA,A,2,10,12,13,15,17,18,19,24,28,,,,1.1,0.7,0.8*2D

3:01:13:599 Nachm. 03/28/17 - $GNGSA,A,2,71,72,73,74,82,83,,,,,,,1.1,0.7,0.8*27

3:01:14:583 Nachm. 03/28/17 - $GPGSV,3,1,11,01,05,022,23,10,18,300,23,12,38,229,33,13,24,158,19*75

3:01:14:583 Nachm. 03/28/17 - $GPGSV,3,2,11,15,47,195,30,17,41,074,14,18,16,272,23,19,43,106,17*72

3:01:14:584 Nachm. 03/28/17 - $GPGSV,3,3,11,24,67,286,33,28,12,054,18,32,03,322,*42

3:01:14:584 Nachm. 03/28/17 - $GLGSV,2,1,07,74,33,278,26,82,35,056,15,73,71,022,18,65,13,340,17*6B

3:01:14:585 Nachm. 03/28/17 - $GLGSV,2,2,07,83,27,120,21,71,32,227,24,72,41,293,30*51

3:01:14:589 Nachm. 03/28/17 - $GPGGA,130110.0,5208.349038,N,01138.429730,E,1,09,0.7,46.5,M,45.0,M,,*6C

3:01:14:591 Nachm. 03/28/17 - $GNGNS,130110.0,5208.349038,N,01138.429730,E,AA,15,0.7,46.5,45.0,,*55

3:01:14:592 Nachm. 03/28/17 - $GPVTG,249.0,T,248.6,M,0.0,N,0.0,K,A*24

3:01:14:592 Nachm. 03/28/17 - $GPRMC,130110.0,A,5208.349038,N,01138.429730,E,0.0,249.0,280317,0.4,E,A*09

3:01:14:592 Nachm. 03/28/17 - $GPGSA,A,2,10,12,13,15,17,18,19,24,28,,,,1.1,0.7,0.8*33

3:01:14:592 Nachm. 03/28/17 - $GNGSA,A,2,10,12,13,15,17,18,19,24,28,,,,1.1,0.7,0.8*2D

3:01:14:593 Nachm. 03/28/17 - $GNGSA,A,2,71,72,73,74,82,83,,,,,,,1.1,0.7,0.8*27

3:01:15:584 Nachm. 03/28/17 - $GPGSV,3,1,11,01,05,022,24,10,18,300,22,12,38,229,32,13,24,158,22*7A

3:01:15:586 Nachm. 03/28/17 - $GPGSV,3,2,11,15,47,195,32,17,41,074,14,18,16,272,25,19,43,106,17*76

3:01:15:586 Nachm. 03/28/17 - $GPGSV,3,3,11,24,67,286,33,28,12,054,18,32,03,322,*42

3:01:15:591 Nachm. 03/28/17 - $GLGSV,2,1,07,74,33,278,28,82,35,056,14,73,71,022,18,65,13,340,16*65

3:01:15:592 Nachm. 03/28/17 - $GLGSV,2,2,07,83,27,120,20,71,32,227,25,72,41,293,30*51

3:01:15:593 Nachm. 03/28/17 - $GPGGA,130111.0,5208.349028,N,01138.429728,E,1,09,0.7,46.5,M,45.0,M,,*65

3:01:15:604 Nachm. 03/28/17 - $GNGNS,130111.0,5208.349028,N,01138.429728,E,AA,15,0.7,46.5,45.0,,*5C

3:01:15:605 Nachm. 03/28/17 - $GPVTG,249.0,T,248.6,M,0.0,N,0.0,K,A*24

3:01:15:606 Nachm. 03/28/17 - $GPRMC,130111.0,A,5208.349028,N,01138.429728,E,0.0,249.0,280317,0.4,E,A*00

3:01:15:608 Nachm. 03/28/17 - $GPGSA,A,2,10,12,13,15,17,18,19,24,28,,,,1.1,0.7,0.8*33

3:01:15:608 Nachm. 03/28/17 - $GNGSA,A,2,10,12,13,15,17,18,19,24,28,,,,1.1,0.7,0.8*2D

3:01:15:609 Nachm. 03/28/17 - $GNGSA,A,2,71,72,73,74,82,83,,,,,,,1.1,0.7,0.8*27

3:01:16:583 Nachm. 03/28/17 - $GPGSV,3,1,11,01,05,022,24,10,18,300,20,12,38,229,32,13,24,158,23*79

3:01:16:584 Nachm. 03/28/17 - $GPGSV,3,2,11,15,47,195,31,17,41,074,14,18,16,272,25,19,43,106,15*77

3:01:16:584 Nachm. 03/28/17 - $GPGSV,3,3,11,24,67,286,30,28,12,054,15,32,03,322,*4C

3:01:16:586 Nachm. 03/28/17 - $GLGSV,2,1,07,74,33,278,29,82,35,056,19,73,71,022,18,65,13,340,16*69

3:01:16:587 Nachm. 03/28/17 - $GLGSV,2,2,07,83,27,120,19,71,32,227,23,72,41,293,30*5D

3:01:16:587 Nachm. 03/28/17 - $GPGGA,130112.0,5208.349026,N,01138.429735,E,1,09,0.7,46.5,M,45.0,M,,*64

3:01:16:589 Nachm. 03/28/17 - $GNGNS,130112.0,5208.349026,N,01138.429735,E,AA,15,0.7,46.5,45.0,,*5D

3:01:16:589 Nachm. 03/28/17 - $GPVTG,249.0,T,248.6,M,0.0,N,0.0,K,A*24

3:01:16:591 Nachm. 03/28/17 - $GPRMC,130112.0,A,5208.349026,N,01138.429735,E,0.0,249.0,280317,0.4,E,A*01

3:01:16:591 Nachm. 03/28/17 - $GPGSA,A,2,10,12,13,15,17,18,19,24,28,,,,1.1,0.7,0.8*33

3:01:16:594 Nachm. 03/28/17 - $GNGSA,A,2,10,12,13,15,17,18,19,24,28,,,,1.1,0.7,0.8*2D

3:01:16:594 Nachm. 03/28/17 - $GNGSA,A,2,71,72,73,74,82,83,,,,,,,1.1,0.7,0.8*27

3:01:17:584 Nachm. 03/28/17 - $GPGSV,3,1,11,01,05,022,22,10,18,300,21,12,38,229,33,13,24,158,24*78

3:01:17:585 Nachm. 03/28/17 - $GPGSV,3,2,11,15,47,195,31,17,41,074,14,18,16,272,24,19,43,106,18*7B

3:01:17:586 Nachm. 03/28/17 - $GPGSV,3,3,11,24,67,286,29,28,12,054,15,32,03,322,*44

3:01:17:586 Nachm. 03/28/17 - $GLGSV,2,1,07,74,33,278,29,82,35,056,17,73,71,022,18,65,13,340,17*66

3:01:17:586 Nachm. 03/28/17 - $GLGSV,2,2,07,83,27,120,18,71,32,227,25,72,41,293,31*5B

3:01:17:587 Nachm. 03/28/17 - $GPGGA,130113.0,5208.349026,N,01138.429734,E,1,09,0.7,46.5,M,45.0,M,,*64

3:01:17:587 Nachm. 03/28/17 - $GNGNS,130113.0,5208.349026,N,01138.429734,E,AA,15,0.7,46.5,45.0,,*5D

3:01:17:587 Nachm. 03/28/17 - $GPVTG,249.0,T,248.6,M,0.0,N,0.0,K,A*24

3:01:17:590 Nachm. 03/28/17 - $GPRMC,130113.0,A,5208.349026,N,01138.429734,E,0.0,249.0,280317,0.4,E,A*01

3:01:17:590 Nachm. 03/28/17 - $GPGSA,A,2,10,12,13,15,17,18,19,24,28,,,,1.1,0.7,0.8*33

3:01:17:590 Nachm. 03/28/17 - $GNGSA,A,2,10,12,13,15,17,18,19,24,28,,,,1.1,0.7,0.8*2D

3:01:17:597 Nachm. 03/28/17 - $GNGSA,A,2,71,72,73,74,82,83,,,,,,,1.1,0.7,0.8*27

3:01:18:585 Nachm. 03/28/17 - $GPGSV,3,1,11,01,05,022,22,10,18,300,21,12,38,229,32,13,24,158,24*79

3:01:18:589 Nachm. 03/28/17 - $GPGSV,3,2,11,15,47,195,32,17,41,074,14,18,16,272,17,19,43,106,17*77

3:01:18:589 Nachm. 03/28/17 - $GPGSV,3,3,11,24,67,286,33,28,12,054,15,32,03,322,*4F

3:01:18:590 Nachm. 03/28/17 - $GLGSV,2,1,07,74,33,278,28,82,35,056,17,73,71,022,17,65,13,340,17*68

3:01:18:592 Nachm. 03/28/17 - $GLGSV,2,2,07,83,27,120,22,71,32,227,17,72,41,293,32*50

3:01:18:595 Nachm. 03/28/17 - $GPGGA,130114.0,5208.349027,N,01138.429732,E,1,09,0.7,46.5,M,45.0,M,,*64

3:01:18:596 Nachm. 03/28/17 - $GNGNS,130114.0,5208.349027,N,01138.429732,E,AA,15,0.7,46.5,45.0,,*5D

3:01:18:597 Nachm. 03/28/17 - $GPVTG,249.0,T,248.6,M,0.0,N,0.0,K,A*24

3:01:18:597 Nachm. 03/28/17 - $GPRMC,130114.0,A,5208.349027,N,01138.429732,E,0.0,249.0,280317,0.4,E,A*01

3:01:18:600 Nachm. 03/28/17 - $GPGSA,A,2,10,12,13,15,17,18,19,24,28,,,,1.1,0.7,0.8*33

3:01:18:601 Nachm. 03/28/17 - $GNGSA,A,2,10,12,13,15,17,18,19,24,28,,,,1.1,0.7,0.8*2D

3:01:18:602 Nachm. 03/28/17 - $GNGSA,A,2,71,72,73,74,82,83,,,,,,,1.1,0.7,0.8*27

3:01:19:586 Nachm. 03/28/17 - $GPGSV,3,1,11,01,05,022,22,10,18,300,22,12,38,229,32,13,24,158,25*7B

3:01:19:587 Nachm. 03/28/17 - $GPGSV,3,2,11,15,47,195,32,17,41,074,15,18,16,272,17,19,43,106,17*76

3:01:19:588 Nachm. 03/28/17 - $GPGSV,3,3,11,24,67,286,34,28,12,054,17,32,03,322,*4A

3:01:19:590 Nachm. 03/28/17 - $GLGSV,2,1,07,74,33,278,28,82,35,056,15,73,71,022,21,65,13,340,17*6F

3:01:19:613 Nachm. 03/28/17 - $GLGSV,2,2,07,83,27,120,24,71,32,227,21,72,41,293,31*50

3:01:19:614 Nachm. 03/28/17 - $GPGGA,130115.0,5208.349039,N,01138.429721,E,1,09,0.7,46.5,M,45.0,M,,*68

3:01:19:617 Nachm. 03/28/17 - $GNGNS,130115.0,5208.349039,N,01138.429721,E,AA,15,0.7,46.5,45.0,,*51

3:01:19:618 Nachm. 03/28/17 - $GPVTG,249.0,T,248.6,M,0.0,N,0.0,K,A*24

3:01:19:618 Nachm. 03/28/17 - $GPRMC,130115.0,A,5208.349039,N,01138.429721,E,0.0,249.0,280317,0.4,E,A*0D

3:01:19:618 Nachm. 03/28/17 - $GPGSA,A,2,10,12,13,15,17,18,19,24,28,,,,1.1,0.7,0.8*33

3:01:19:618 Nachm. 03/28/17 - $GNGSA,A,2,10,12,13,15,17,18,19,24,28,,,,1.1,0.7,0.8*2D

3:01:19:619 Nachm. 03/28/17 - $GNGSA,A,2,71,72,73,74,82,83,,,,,,,1.1,0.7,0.8*27

3:01:20:585 Nachm. 03/28/17 - $GPGSV,3,1,11,01,05,022,17,10,18,300,22,12,38,229,31,13,24,158,24*7F

3:01:20:595 Nachm. 03/28/17 - $GPGSV,3,2,11,15,47,195,33,17,41,074,18,18,16,272,18,19,43,106,17*75

3:01:20:597 Nachm. 03/28/17 - $GPGSV,3,3,11,24,67,286,34,28,12,054,17,32,03,322,13*48

3:01:20:606 Nachm. 03/28/17 - $GLGSV,2,1,07,74,33,278,28,82,35,056,18,73,71,022,20,65,13,340,17*63

3:01:20:607 Nachm. 03/28/17 - $GLGSV,2,2,07,83,27,120,24,71,32,227,22,72,41,293,31*53

3:01:20:611 Nachm. 03/28/17 - $GPGGA,130116.0,5208.349043,N,01138.429706,E,1,09,0.7,46.4,M,45.0,M,,*62

3:01:20:612 Nachm. 03/28/17 - $GNGNS,130116.0,5208.349043,N,01138.429706,E,AA,15,0.7,46.4,45.0,,*5B

3:01:20:612 Nachm. 03/28/17 - $GPVTG,249.0,T,248.6,M,0.0,N,0.0,K,A*24

3:01:20:612 Nachm. 03/28/17 - $GPRMC,130116.0,A,5208.349043,N,01138.429706,E,0.0,249.0,280317,0.4,E,A*06

3:01:20:612 Nachm. 03/28/17 - $GPGSA,A,2,10,12,13,15,17,18,19,24,28,,,,1.1,0.7,0.8*33

3:01:20:612 Nachm. 03/28/17 - $GNGSA,A,2,10,12,13,15,17,18,19,24,28,,,,1.1,0.7,0.8*2D

3:01:20:612 Nachm. 03/28/17 - $GNGSA,A,2,71,72,73,74,82,83,,,,,,,1.1,0.7,0.8*27

3:01:21:585 Nachm. 03/28/17 - $GPGSV,3,1,11,01,05,022,20,10,18,300,23,12,38,229,31,13,24,158,24*7A

3:01:21:586 Nachm. 03/28/17 - $GPGSV,3,2,11,15,47,195,32,17,41,074,22,18,16,272,26,19,43,106,15*72

3:01:21:590 Nachm. 03/28/17 - $GPGSV,3,3,11,24,67,286,35,28,12,054,18,32,03,322,13*46

3:01:21:593 Nachm. 03/28/17 - $GLGSV,2,1,07,74,33,278,27,82,35,056,17,73,71,022,21,65,13,340,17*62

3:01:21:603 Nachm. 03/28/17 - $GLGSV,2,2,07,83,27,120,24,71,32,227,22,72,41,293,30*52

3:01:21:605 Nachm. 03/28/17 - $GPGGA,130117.0,5208.349043,N,01138.429693,E,1,09,0.7,46.4,M,45.0,M,,*6E

3:01:21:614 Nachm. 03/28/17 - $GNGNS,130117.0,5208.349043,N,01138.429693,E,AA,15,0.7,46.4,45.0,,*57

3:01:21:615 Nachm. 03/28/17 - $GPVTG,249.0,T,248.6,M,0.0,N,0.0,K,A*24

3:01:21:615 Nachm. 03/28/17 - $GPRMC,130117.0,A,5208.349043,N,01138.429693,E,0.0,249.0,280317,0.4,E,A*0A

3:01:21:616 Nachm. 03/28/17 - $GPGSA,A,2,10,12,13,15,17,18,19,24,28,,,,1.1,0.7,0.8*33

3:01:21:616 Nachm. 03/28/17 - $GNGSA,A,2,10,12,13,15,17,18,19,24,28,,,,1.1,0.7,0.8*2D

3:01:21:617 Nachm. 03/28/17 - $GNGSA,A,2,71,72,73,74,82,83,,,,,,,1.1,0.7,0.8*27

3:01:22:584 Nachm. 03/28/17 - $GPGSV,3,1,11,01,05,022,22,10,18,300,24,12,38,229,31,13,24,158,25*7E

3:01:22:586 Nachm. 03/28/17 - $GPGSV,3,2,11,15,47,195,32,17,41,074,18,18,16,272,20,19,43,106,15*7D

3:01:22:589 Nachm. 03/28/17 - $GPGSV,3,3,11,24,67,286,34,28,12,054,18,32,03,322,14*40

3:01:22:592 Nachm. 03/28/17 - $GLGSV,2,1,07,74,33,278,27,82,35,056,17,73,71,022,21,65,13,340,17*62

3:01:22:592 Nachm. 03/28/17 - $GLGSV,2,2,07,83,27,120,26,71,32,227,21,72,41,293,30*53

3:01:22:593 Nachm. 03/28/17 - $GPGGA,130118.0,5208.349047,N,01138.429682,E,1,09,0.7,46.4,M,45.0,M,,*65

3:01:22:593 Nachm. 03/28/17 - $GNGNS,130118.0,5208.349047,N,01138.429682,E,AA,15,0.7,46.4,45.0,,*5C

3:01:22:613 Nachm. 03/28/17 - $GPVTG,249.0,T,248.6,M,0.0,N,0.0,K,A*24

3:01:22:614 Nachm. 03/28/17 - $GPRMC,130118.0,A,5208.349047,N,01138.429682,E,0.0,249.0,280317,0.4,E,A*01

3:01:22:614 Nachm. 03/28/17 - $GPGSA,A,2,10,12,13,15,17,18,19,24,28,,,,1.1,0.7,0.8*33

3:01:22:614 Nachm. 03/28/17 - $GNGSA,A,2,10,12,13,15,17,18,19,24,28,,,,1.1,0.7,0.8*2D

3:01:22:614 Nachm. 03/28/17 - $GNGSA,A,2,71,72,73,74,82,83,,,,,,,1.1,0.7,0.8*27

3:01:23:585 Nachm. 03/28/17 - $GPGSV,3,1,11,01,05,022,19,10,18,300,23,12,38,229,30,13,24,158,24*71

3:01:23:585 Nachm. 03/28/17 - $GPGSV,3,2,11,15,47,195,30,17,41,074,18,18,16,272,20,19,43,106,16*7C

3:01:23:585 Nachm. 03/28/17 - $GPGSV,3,3,11,24,67,286,33,28,12,054,18,32,03,322,14*47

3:01:23:587 Nachm. 03/28/17 - $GLGSV,2,1,07,74,33,278,26,82,35,056,15,73,71,022,18,65,13,340,15*69

3:01:23:589 Nachm. 03/28/17 - $GLGSV,2,2,07,83,27,120,24,71,32,227,17,72,41,293,29*5C

3:01:23:589 Nachm. 03/28/17 - $GPGGA,130119.0,5208.349051,N,01138.429677,E,1,09,0.7,46.4,M,45.0,M,,*69

3:01:23:589 Nachm. 03/28/17 - $GNGNS,130119.0,5208.349051,N,01138.429677,E,AA,15,0.7,46.4,45.0,,*50

3:01:23:590 Nachm. 03/28/17 - $GPVTG,249.0,T,248.6,M,0.0,N,0.0,K,A*24

3:01:23:590 Nachm. 03/28/17 - $GPRMC,130119.0,A,5208.349051,N,01138.429677,E,0.0,249.0,280317,0.4,E,A*0D

3:01:23:594 Nachm. 03/28/17 - $GPGSA,A,2,10,12,13,15,17,18,19,24,28,,,,1.1,0.7,0.8*33

3:01:23:596 Nachm. 03/28/17 - $GNGSA,A,2,10,12,13,15,17,18,19,24,28,,,,1.1,0.7,0.8*2D

3:01:23:597 Nachm. 03/28/17 - $GNGSA,A,2,71,72,73,74,82,83,,,,,,,1.1,0.7,0.8*27

3:01:24:584 Nachm. 03/28/17 - $GPGSV,3,1,11,01,05,022,21,10,18,300,24,12,38,229,32,13,24,158,25*7E

3:01:24:585 Nachm. 03/28/17 - $GPGSV,3,2,11,15,47,195,31,17,41,074,18,19,43,106,16,24,67,286,33*7D

3:01:24:586 Nachm. 03/28/17 - $GPGSV,3,3,11,28,12,054,18,32,03,322,14,18,16,272,*45

3:01:24:588 Nachm. 03/28/17 - $GLGSV,2,1,07,74,33,278,26,82,35,056,15,73,71,022,17,65,13,340,15*66

3:01:24:594 Nachm. 03/28/17 - $GLGSV,2,2,07,83,27,120,25,71,32,227,21,72,41,293,31*51

3:01:24:595 Nachm. 03/28/17 - $GPGGA,130120.0,5208.349054,N,01138.429673,E,1,09,0.7,46.4,M,45.0,M,,*62

3:01:24:595 Nachm. 03/28/17 - $GNGNS,130120.0,5208.349054,N,01138.429673,E,AA,15,0.7,46.4,45.0,,*5B

3:01:24:596 Nachm. 03/28/17 - $GPVTG,249.0,T,248.6,M,0.0,N,0.0,K,A*24

3:01:24:598 Nachm. 03/28/17 - $GPRMC,130120.0,A,5208.349054,N,01138.429673,E,0.0,249.0,280317,0.4,E,A*06

3:01:24:599 Nachm. 03/28/17 - $GPGSA,A,2,10,12,13,15,17,18,19,24,28,,,,1.1,0.7,0.8*33

3:01:24:600 Nachm. 03/28/17 - $GNGSA,A,2,10,12,13,15,17,18,19,24,28,,,,1.1,0.7,0.8*2D

3:01:24:600 Nachm. 03/28/17 - $GNGSA,A,2,71,72,73,74,82,83,,,,,,,1.1,0.7,0.8*27

3:01:25:586 Nachm. 03/28/17 - $GPGSV,3,1,11,01,05,022,21,10,18,300,23,12,38,229,32,13,24,158,26*7A

3:01:25:588 Nachm. 03/28/17 - $GPGSV,3,2,11,15,47,195,31,17,41,074,15,19,43,106,17,24,67,286,33*71

3:01:25:595 Nachm. 03/28/17 - $GPGSV,3,3,11,28,12,054,18,32,03,322,14,18,16,272,*45

3:01:25:596 Nachm. 03/28/17 - $GLGSV,2,1,07,74,33,278,26,82,35,056,15,73,71,022,17,65,13,340,17*64

3:01:25:596 Nachm. 03/28/17 - $GLGSV,2,2,07,83,27,120,24,71,32,227,21,72,41,293,31*50

3:01:25:598 Nachm. 03/28/17 - $GPGGA,130121.0,5208.349058,N,01138.429667,E,1,09,0.7,46.4,M,45.0,M,,*6A

3:01:25:604 Nachm. 03/28/17 - $GNGNS,130121.0,5208.349058,N,01138.429667,E,AA,15,0.7,46.4,45.0,,*53

3:01:25:605 Nachm. 03/28/17 - $GPVTG,249.0,T,248.6,M,0.0,N,0.0,K,A*24

3:01:25:605 Nachm. 03/28/17 - $GPRMC,130121.0,A,5208.349058,N,01138.429667,E,0.0,249.0,280317,0.4,E,A*0E

3:01:25:606 Nachm. 03/28/17 - $GPGSA,A,2,10,12,13,15,17,18,19,24,28,,,,1.1,0.7,0.8*33

3:01:25:607 Nachm. 03/28/17 - $GNGSA,A,2,10,12,13,15,17,18,19,24,28,,,,1.1,0.7,0.8*2D

3:01:25:608 Nachm. 03/28/17 - $GNGSA,A,2,71,72,73,74,82,83,,,,,,,1.1,0.7,0.8*27

3:01:26:586 Nachm. 03/28/17 - $GPGSV,3,1,11,01,05,022,20,10,18,300,23,12,38,229,31,13,24,158,26*78

3:01:26:587 Nachm. 03/28/17 - $GPGSV,3,2,11,15,47,195,32,17,41,074,15,19,43,106,17,24,67,286,33*72

3:01:26:587 Nachm. 03/28/17 - $GPGSV,3,3,11,28,12,054,16,32,03,322,14,18,16,272,*4B

3:01:26:590 Nachm. 03/28/17 - $GLGSV,2,1,07,74,33,278,27,82,35,056,15,73,71,022,17,65,13,340,19*6B

3:01:26:591 Nachm. 03/28/17 - $GLGSV,2,2,07,83,27,120,26,71,32,227,24,72,41,293,30*56

3:01:26:591 Nachm. 03/28/17 - $GPGGA,130122.0,5208.349062,N,01138.429656,E,1,09,0.7,46.4,M,45.0,M,,*62

3:01:26:592 Nachm. 03/28/17 - $GNGNS,130122.0,5208.349062,N,01138.429656,E,AA,15,0.7,46.4,45.0,,*5B

3:01:26:594 Nachm. 03/28/17 - $GPVTG,249.0,T,248.6,M,0.0,N,0.0,K,A*24

3:01:26:595 Nachm. 03/28/17 - $GPRMC,130122.0,A,5208.349062,N,01138.429656,E,0.0,249.0,280317,0.4,E,A*06

3:01:26:595 Nachm. 03/28/17 - $GPGSA,A,2,10,12,13,15,17,18,19,24,28,,,,1.1,0.7,0.8*33

3:01:26:596 Nachm. 03/28/17 - $GNGSA,A,2,10,12,13,15,17,18,19,24,28,,,,1.1,0.7,0.8*2D

3:01:26:597 Nachm. 03/28/17 - $GNGSA,A,2,71,72,73,74,82,83,,,,,,,1.1,0.7,0.8*27

3:01:27:585 Nachm. 03/28/17 - $GPGSV,3,1,11,01,05,022,20,10,18,300,23,12,38,229,32,13,24,158,27*7A

3:01:27:595 Nachm. 03/28/17 - $GPGSV,3,2,11,15,47,195,33,17,41,074,15,19,43,106,17,24,67,286,33*73

3:01:27:597 Nachm. 03/28/17 - $GPGSV,3,3,11,28,12,054,18,32,03,322,14,18,16,272,*45

3:01:27:598 Nachm. 03/28/17 - $GLGSV,2,1,07,74,33,278,26,82,35,056,15,73,71,022,13,65,13,340,19*6E

3:01:27:599 Nachm. 03/28/17 - $GLGSV,2,2,07,83,27,120,24,71,32,227,22,72,41,293,29*5A

3:01:27:601 Nachm. 03/28/17 - $GPGGA,130123.0,5208.349070,N,01138.429649,E,1,09,0.7,46.4,M,45.0,M,,*6E

3:01:27:602 Nachm. 03/28/17 - $GNGNS,130123.0,5208.349070,N,01138.429649,E,AA,15,0.7,46.4,45.0,,*57

3:01:27:608 Nachm. 03/28/17 - $GPVTG,249.0,T,248.6,M,0.0,N,0.0,K,A*24

3:01:27:612 Nachm. 03/28/17 - $GPRMC,130123.0,A,5208.349070,N,01138.429649,E,0.0,249.0,280317,0.4,E,A*0A

3:01:27:613 Nachm. 03/28/17 - $GPGSA,A,2,10,12,13,15,17,18,19,24,28,,,,1.1,0.7,0.8*33

3:01:27:613 Nachm. 03/28/17 - $GNGSA,A,2,10,12,13,15,17,18,19,24,28,,,,1.1,0.7,0.8*2D

3:01:27:614 Nachm. 03/28/17 - $GNGSA,A,2,71,72,73,74,82,83,,,,,,,1.1,0.7,0.8*27

3:01:28:584 Nachm. 03/28/17 - $GPGSV,3,1,11,01,05,022,20,10,18,300,24,12,38,229,32,13,24,158,26*7C

3:01:28:585 Nachm. 03/28/17 - $GPGSV,3,2,11,15,47,195,32,17,41,074,15,19,43,106,17,24,67,286,33*72

3:01:28:585 Nachm. 03/28/17 - $GPGSV,3,3,11,28,12,054,20,32,03,322,14,18,16,272,*4E

3:01:28:586 Nachm. 03/28/17 - $GLGSV,2,1,07,74,33,278,27,82,35,056,15,73,71,022,19,65,13,340,19*65

3:01:28:594 Nachm. 03/28/17 - $GLGSV,2,2,07,83,27,120,24,71,32,227,23,72,41,293,31*52

3:01:28:596 Nachm. 03/28/17 - $GPGGA,130124.0,5208.349076,N,01138.429640,E,1,09,0.7,46.4,M,45.0,M,,*66

3:01:28:597 Nachm. 03/28/17 - $GNGNS,130124.0,5208.349076,N,01138.429640,E,AA,15,0.7,46.4,45.0,,*5F

3:01:28:598 Nachm. 03/28/17 - $GPVTG,249.0,T,248.6,M,0.0,N,0.0,K,A*24

3:01:28:600 Nachm. 03/28/17 - $GPRMC,130124.0,A,5208.349076,N,01138.429640,E,0.0,249.0,280317,0.4,E,A*02

3:01:28:600 Nachm. 03/28/17 - $GPGSA,A,2,10,12,13,15,17,18,19,24,28,,,,1.1,0.7,0.8*33

3:01:28:600 Nachm. 03/28/17 - $GNGSA,A,2,10,12,13,15,17,18,19,24,28,,,,1.1,0.7,0.8*2D

3:01:28:605 Nachm. 03/28/17 - $GNGSA,A,2,71,72,73,74,82,83,,,,,,,1.1,0.7,0.8*27

3:01:29:586 Nachm. 03/28/17 - $GPGSV,3,1,11,01,05,022,17,10,18,300,23,12,38,229,31,13,24,158,27*7D

3:01:29:587 Nachm. 03/28/17 - $GPGSV,3,2,11,15,47,195,31,17,41,074,15,19,43,106,21,24,67,286,33*74

3:01:29:589 Nachm. 03/28/17 - $GPGSV,3,3,11,28,12,054,21,32,03,322,14,18,16,272,*4F

3:01:29:591 Nachm. 03/28/17 - $GLGSV,2,1,07,74,33,278,24,82,35,056,15,73,71,022,19,65,13,340,16*69

3:01:29:592 Nachm. 03/28/17 - $GLGSV,2,2,07,83,27,120,18,71,32,227,27,72,41,293,31*59

3:01:29:599 Nachm. 03/28/17 - $GPGGA,130125.0,5208.349080,N,01138.429635,E,1,08,0.7,46.4,M,45.0,M,,*6D

3:01:29:600 Nachm. 03/28/17 - $GNGNS,130125.0,5208.349080,N,01138.429635,E,AA,14,0.7,46.4,45.0,,*54

3:01:29:603 Nachm. 03/28/17 - $GPVTG,249.0,T,248.6,M,0.0,N,0.0,K,A*24

3:01:29:604 Nachm. 03/28/17 - $GPRMC,130125.0,A,5208.349080,N,01138.429635,E,0.0,249.0,280317,0.4,E,A*08

3:01:29:605 Nachm. 03/28/17 - $GPGSA,A,2,10,12,13,15,17,19,24,28,,,,,1.1,0.7,0.8*3A

3:01:29:609 Nachm. 03/28/17 - $GNGSA,A,2,10,12,13,15,17,19,24,28,,,,,1.1,0.7,0.8*24

3:01:29:609 Nachm. 03/28/17 - $GNGSA,A,2,71,72,73,74,82,83,,,,,,,1.1,0.7,0.8*27

3:01:30:587 Nachm. 03/28/17 - $GPGSV,3,1,11,01,05,022,23,10,18,300,24,12,38,229,30,13,24,158,28*73

3:01:30:588 Nachm. 03/28/17 - $GPGSV,3,2,11,15,47,195,34,17,41,074,15,19,43,106,20,24,67,286,33*70

3:01:30:592 Nachm. 03/28/17 - $GPGSV,3,3,11,28,12,054,21,32,03,322,14,18,16,272,*4F

3:01:30:593 Nachm. 03/28/17 - $GLGSV,2,1,07,74,33,278,26,82,35,056,13,73,71,022,18,65,13,340,16*6C

3:01:30:593 Nachm. 03/28/17 - $GLGSV,2,2,07,83,27,120,22,71,32,227,29,72,41,293,20*5E

3:01:30:594 Nachm. 03/28/17 - $GPGGA,130126.0,5208.349080,N,01138.429632,E,1,08,0.7,46.4,M,45.0,M,,*69

3:01:30:598 Nachm. 03/28/17 - $GNGNS,130126.0,5208.349080,N,01138.429632,E,AA,14,0.7,46.4,45.0,,*50

3:01:30:598 Nachm. 03/28/17 - $GPVTG,249.0,T,248.6,M,0.0,N,0.0,K,A*24

3:01:30:598 Nachm. 03/28/17 - $GPRMC,130126.0,A,5208.349080,N,01138.429632,E,0.0,249.0,280317,0.4,E,A*0C

3:01:30:600 Nachm. 03/28/17 - $GPGSA,A,2,10,12,13,15,17,19,24,28,,,,,1.1,0.7,0.8*3A

3:01:30:600 Nachm. 03/28/17 - $GNGSA,A,2,10,12,13,15,17,19,24,28,,,,,1.1,0.7,0.8*24

3:01:30:600 Nachm. 03/28/17 - $GNGSA,A,2,71,72,73,74,82,83,,,,,,,1.1,0.7,0.8*27

3:01:31:585 Nachm. 03/28/17 - $GPGSV,3,1,11,01,05,022,19,10,18,300,23,12,38,229,30,13,24,158,26*73

3:01:31:588 Nachm. 03/28/17 - $GPGSV,3,2,11,15,47,195,33,17,41,074,13,18,16,272,20,19,43,106,18*7A

3:01:31:588 Nachm. 03/28/17 - $GPGSV,3,3,11,24,67,286,33,28,12,054,21,32,03,322,14*4D

3:01:31:588 Nachm. 03/28/17 - $GLGSV,2,1,07,74,33,278,25,82,35,056,18,73,71,022,16,65,13,340,17*6B

3:01:31:591 Nachm. 03/28/17 - $GLGSV,2,2,07,83,27,120,21,71,32,227,28,72,41,293,23*5F

3:01:31:591 Nachm. 03/28/17 - $GPGGA,130127.0,5208.349081,N,01138.429628,E,1,09,0.7,46.4,M,45.0,M,,*63

3:01:31:592 Nachm. 03/28/17 - $GNGNS,130127.0,5208.349081,N,01138.429628,E,AA,15,0.7,46.4,45.0,,*5A

3:01:31:592 Nachm. 03/28/17 - $GPVTG,249.0,T,248.6,M,0.0,N,0.0,K,A*24

3:01:31:592 Nachm. 03/28/17 - $GPRMC,130127.0,A,5208.349081,N,01138.429628,E,0.0,249.0,280317,0.4,E,A*07

3:01:31:593 Nachm. 03/28/17 - $GPGSA,A,2,10,12,13,15,17,18,19,24,28,,,,1.1,0.7,0.8*33

3:01:31:594 Nachm. 03/28/17 - $GNGSA,A,2,10,12,13,15,17,18,19,24,28,,,,1.1,0.7,0.8*2D

3:01:31:594 Nachm. 03/28/17 - $GNGSA,A,2,71,72,73,74,82,83,,,,,,,1.1,0.7,0.8*27

3:01:32:584 Nachm. 03/28/17 - $GPGSV,3,1,11,01,05,022,20,10,18,300,23,12,38,229,30,13,24,158,27*78

3:01:32:584 Nachm. 03/28/17 - $GPGSV,3,2,11,15,47,195,31,17,41,074,13,18,16,272,19,19,43,106,22*7B

3:01:32:585 Nachm. 03/28/17 - $GPGSV,3,3,11,24,67,286,32,28,12,054,21,32,03,322,14*4C

3:01:32:586 Nachm. 03/28/17 - $GLGSV,2,1,07,74,33,278,26,82,35,056,22,73,71,022,17,65,13,340,17*60

3:01:32:587 Nachm. 03/28/17 - $GLGSV,2,2,07,83,27,120,20,71,32,227,26,72,41,293,25*56

3:01:32:588 Nachm. 03/28/17 - $GPGGA,130128.0,5208.349078,N,01138.429620,E,1,09,0.7,46.5,M,45.0,M,,*63

3:01:32:589 Nachm. 03/28/17 - $GNGNS,130128.0,5208.349078,N,01138.429620,E,AA,15,0.7,46.5,45.0,,*5A

3:01:32:589 Nachm. 03/28/17 - $GPVTG,249.0,T,248.6,M,0.0,N,0.0,K,A*24

3:01:32:598 Nachm. 03/28/17 - $GPRMC,130128.0,A,5208.349078,N,01138.429620,E,0.0,249.0,280317,0.4,E,A*06

3:01:32:599 Nachm. 03/28/17 - $GPGSA,A,2,10,12,13,15,17,18,19,24,28,,,,1.1,0.7,0.8*33

3:01:32:600 Nachm. 03/28/17 - $GNGSA,A,2,10,12,13,15,17,18,19,24,28,,,,1.1,0.7,0.8*2D

3:01:32:601 Nachm. 03/28/17 - $GNGSA,A,2,71,72,73,74,82,83,,,,,,,1.1,0.7,0.8*27


