3:08:59:582 Nachm. 03/28/17 - $GPGSV,3,1,12,01,05,019,19,17,40,068,23,19,45,101,25,24,71,286,17*75

3:08:59:583 Nachm. 03/28/17 - $GPGSV,3,2,12,28,08,056,30,10,17,298,,12,41,232,,13,20,158,*74

3:08:59:583 Nachm. 03/28/17 - $GPGSV,3,3,12,15,43,194,,18,14,270,,25,01,237,,32,06,320,*7A

3:08:59:586 Nachm. 03/28/17 - $GLGSV,3,1,09,74,35,282,16,82,35,050,27,73,68,035,19,80,24,077,21*61

3:08:59:588 Nachm. 03/28/17 - $GLGSV,3,2,09,65,16,337,18,81,06,008,15,72,40,289,19,83,30,118,*6E

3:08:59:588 Nachm. 03/28/17 - $GLGSV,3,3,09,71,28,224,*54

3:08:59:588 Nachm. 03/28/17 - $GPGGA,130855.0,5208.353943,N,01138.613473,E,1,05,1.9,62.2,M,45.0,M,,*67

3:08:59:589 Nachm. 03/28/17 - $GNGNS,130855.0,5208.353943,N,01138.613473,E,AA,09,1.9,62.2,45.0,,*5F

3:08:59:595 Nachm. 03/28/17 - $GPVTG,121.5,T,121.1,M,1.5,N,2.8,K,A*29

3:08:59:595 Nachm. 03/28/17 - $GPRMC,130855.0,A,5208.353943,N,01138.613473,E,1.5,121.5,280317,0.4,E,A*0C

3:08:59:595 Nachm. 03/28/17 - $GPGSA,A,2,10,17,19,24,28,,,,,,,,2.1,1.9,0.9*32

3:08:59:596 Nachm. 03/28/17 - $GNGSA,A,2,10,17,19,24,28,,,,,,,,2.1,1.9,0.9*2C

3:08:59:596 Nachm. 03/28/17 - $GNGSA,A,2,72,73,74,82,,,,,,,,,2.1,1.9,0.9*27

3:09:00:582 Nachm. 03/28/17 - $GPGSV,3,1,12,01,05,019,18,17,40,068,29,19,45,101,25,24,71,286,22*78

3:09:00:582 Nachm. 03/28/17 - $GPGSV,3,2,12,28,08,056,26,10,17,298,,12,41,232,,13,20,158,*73

3:09:00:583 Nachm. 03/28/17 - $GPGSV,3,3,12,15,43,194,,18,14,270,,25,01,237,,32,06,320,*7A

3:09:00:585 Nachm. 03/28/17 - $GLGSV,3,1,09,74,35,282,21,82,35,050,31,73,68,035,18,80,24,077,24*66

3:09:00:588 Nachm. 03/28/17 - $GLGSV,3,2,09,65,16,337,17,81,06,008,14,72,40,289,19,83,30,118,*60

3:09:00:589 Nachm. 03/28/17 - $GLGSV,3,3,09,71,28,224,*54

3:09:00:592 Nachm. 03/28/17 - $GPGGA,130856.0,5208.353101,N,01138.607212,E,1,05,1.9,56.6,M,45.0,M,,*6D

3:09:00:593 Nachm. 03/28/17 - $GNGNS,130856.0,5208.353101,N,01138.607212,E,AA,09,1.9,56.6,45.0,,*55

3:09:00:593 Nachm. 03/28/17 - $GPVTG,121.5,T,121.1,M,0.0,N,0.0,K,A*27

3:09:00:593 Nachm. 03/28/17 - $GPRMC,130856.0,A,5208.353101,N,01138.607212,E,0.0,121.5,280317,0.4,E,A*01

3:09:00:593 Nachm. 03/28/17 - $GPGSA,A,2,10,17,19,24,28,,,,,,,,2.1,1.9,0.9*32

3:09:00:593 Nachm. 03/28/17 - $GNGSA,A,2,10,17,19,24,28,,,,,,,,2.1,1.9,0.9*2C

3:09:00:594 Nachm. 03/28/17 - $GNGSA,A,2,72,73,74,82,,,,,,,,,2.1,1.9,0.9*27

3:09:01:584 Nachm. 03/28/17 - $GPGSV,3,1,12,01,05,019,18,17,40,068,34,19,45,101,27,24,71,286,24*70

3:09:01:584 Nachm. 03/28/17 - $GPGSV,3,2,12,28,08,056,23,10,17,298,,12,41,232,,13,20,158,*76

3:09:01:585 Nachm. 03/28/17 - $GPGSV,3,3,12,15,43,194,,18,14,270,,25,01,237,,32,06,320,*7A

3:09:01:585 Nachm. 03/28/17 - $GLGSV,3,1,09,74,35,282,20,82,35,050,28,73,68,035,21,80,24,077,20*61

3:09:01:587 Nachm. 03/28/17 - $GLGSV,3,2,09,65,16,337,22,81,06,008,15,72,40,289,20,83,30,118,*6D

3:09:01:588 Nachm. 03/28/17 - $GLGSV,3,3,09,71,28,224,*54

3:09:01:588 Nachm. 03/28/17 - $GPGGA,130857.0,5208.352603,N,01138.608667,E,1,05,1.9,57.3,M,45.0,M,,*65

3:09:01:589 Nachm. 03/28/17 - $GNGNS,130857.0,5208.352603,N,01138.608667,E,AA,09,1.9,57.3,45.0,,*5D

3:09:01:590 Nachm. 03/28/17 - $GPVTG,121.5,T,121.1,M,0.0,N,0.0,K,A*27

3:09:01:594 Nachm. 03/28/17 - $GPRMC,130857.0,A,5208.352603,N,01138.608667,E,0.0,121.5,280317,0.4,E,A*0D

3:09:01:594 Nachm. 03/28/17 - $GPGSA,A,2,10,17,19,24,28,,,,,,,,2.1,1.9,0.9*32

3:09:01:594 Nachm. 03/28/17 - $GNGSA,A,2,10,17,19,24,28,,,,,,,,2.1,1.9,0.9*2C

3:09:01:594 Nachm. 03/28/17 - $GNGSA,A,2,72,73,74,82,,,,,,,,,2.1,1.9,0.9*27

3:09:02:585 Nachm. 03/28/17 - $GPGSV,3,1,12,01,05,019,18,17,40,068,33,19,45,101,28,24,71,286,30*7D

3:09:02:586 Nachm. 03/28/17 - $GPGSV,3,2,12,28,08,056,19,10,17,298,,12,41,232,,13,20,158,*7F

3:09:02:586 Nachm. 03/28/17 - $GPGSV,3,3,12,15,43,194,,18,14,270,,25,01,237,,32,06,320,*7A

3:09:02:587 Nachm. 03/28/17 - $GLGSV,3,1,09,74,35,282,18,82,35,050,27,73,68,035,22,80,24,077,21*67

3:09:02:602 Nachm. 03/28/17 - $GLGSV,3,2,09,65,16,337,24,81,06,008,14,72,40,289,16,83,30,118,*6F

3:09:02:603 Nachm. 03/28/17 - $GLGSV,3,3,09,71,28,224,*54

3:09:02:603 Nachm. 03/28/17 - $GPGGA,130858.0,5208.351910,N,01138.608275,E,1,05,1.9,53.3,M,45.0,M,,*67

3:09:02:603 Nachm. 03/28/17 - $GNGNS,130858.0,5208.351910,N,01138.608275,E,AA,09,1.9,53.3,45.0,,*5F

3:09:02:603 Nachm. 03/28/17 - $GPVTG,121.5,T,121.1,M,0.0,N,0.0,K,A*27

3:09:02:607 Nachm. 03/28/17 - $GPRMC,130858.0,A,5208.351910,N,01138.608275,E,0.0,121.5,280317,0.4,E,A*0B

3:09:02:607 Nachm. 03/28/17 - $GPGSA,A,2,10,17,19,24,28,,,,,,,,2.1,1.9,0.9*32

3:09:02:607 Nachm. 03/28/17 - $GNGSA,A,2,10,17,19,24,28,,,,,,,,2.1,1.9,0.9*2C

3:09:02:608 Nachm. 03/28/17 - $GNGSA,A,2,72,73,74,82,,,,,,,,,2.1,1.9,0.9*27

3:09:03:584 Nachm. 03/28/17 - $GPGSV,3,1,12,01,05,019,18,17,40,068,29,19,45,101,17,24,71,286,28*73

3:09:03:585 Nachm. 03/28/17 - $GPGSV,3,2,12,28,08,056,22,10,17,298,,12,41,232,,13,20,158,*77

3:09:03:587 Nachm. 03/28/17 - $GPGSV,3,3,12,15,43,194,,18,14,270,,25,01,237,,32,06,320,*7A

3:09:03:591 Nachm. 03/28/17 - $GLGSV,3,1,09,74,35,282,20,82,35,050,30,73,68,035,23,80,24,077,26*6C

3:09:03:599 Nachm. 03/28/17 - $GLGSV,3,2,09,65,16,337,24,81,06,008,14,72,40,289,24,83,30,118,*6E

3:09:03:604 Nachm. 03/28/17 - $GLGSV,3,3,09,71,28,224,*54

3:09:03:604 Nachm. 03/28/17 - $GPGGA,130859.0,5208.353320,N,01138.607096,E,1,04,2.1,54.0,M,45.0,M,,*63

3:09:03:605 Nachm. 03/28/17 - $GNGNS,130859.0,5208.353320,N,01138.607096,E,AA,08,2.1,54.0,45.0,,*5B

3:09:03:605 Nachm. 03/28/17 - $GPVTG,121.5,T,121.1,M,0.0,N,0.0,K,A*27

3:09:03:605 Nachm. 03/28/17 - $GPRMC,130859.0,A,5208.353320,N,01138.607096,E,0.0,121.5,280317,0.4,E,A*01

3:09:03:606 Nachm. 03/28/17 - $GPGSA,A,2,17,19,24,28,,,,,,,,,2.3,2.1,0.9*3A

3:09:03:606 Nachm. 03/28/17 - $GNGSA,A,2,17,19,24,28,,,,,,,,,2.3,2.1,0.9*24

3:09:03:606 Nachm. 03/28/17 - $GNGSA,A,2,72,73,74,82,,,,,,,,,2.3,2.1,0.9*2E

3:09:04:584 Nachm. 03/28/17 - $GPGSV,3,1,12,01,05,019,18,10,17,298,21,17,40,068,26,19,45,101,23*7A

3:09:04:585 Nachm. 03/28/17 - $GPGSV,3,2,12,24,71,286,27,28,08,056,24,12,41,232,,13,20,158,*7C

3:09:04:586 Nachm. 03/28/17 - $GPGSV,3,3,12,15,43,194,,18,14,270,,25,01,237,,32,06,320,*7A

3:09:04:587 Nachm. 03/28/17 - $GLGSV,3,1,09,74,35,282,20,82,35,050,26,73,68,035,22,80,24,077,26*6A

3:09:04:596 Nachm. 03/28/17 - $GLGSV,3,2,09,65,16,337,21,81,06,008,14,72,40,289,19,83,30,118,*65

3:09:04:598 Nachm. 03/28/17 - $GLGSV,3,3,09,71,28,224,*54

3:09:04:607 Nachm. 03/28/17 - $GPGGA,130900.0,5208.352009,N,01138.607390,E,1,05,1.9,50.6,M,45.0,M,,*6A

3:09:04:608 Nachm. 03/28/17 - $GNGNS,130900.0,5208.352009,N,01138.607390,E,AA,09,1.9,50.6,45.0,,*52

3:09:04:608 Nachm. 03/28/17 - $GPVTG,121.5,T,121.1,M,0.0,N,0.0,K,A*27

3:09:04:609 Nachm. 03/28/17 - $GPRMC,130900.0,A,5208.352009,N,01138.607390,E,0.0,121.5,280317,0.4,E,A*00

3:09:04:609 Nachm. 03/28/17 - $GPGSA,A,2,10,17,19,24,28,,,,,,,,2.1,1.9,0.9*32

3:09:04:612 Nachm. 03/28/17 - $GNGSA,A,2,10,17,19,24,28,,,,,,,,2.1,1.9,0.9*2C

3:09:04:612 Nachm. 03/28/17 - $GNGSA,A,2,72,73,74,82,,,,,,,,,2.1,1.9,0.9*27

3:09:05:584 Nachm. 03/28/17 - $GPGSV,3,1,12,01,05,019,21,10,17,298,22,17,40,068,28,19,45,101,22*7C

3:09:05:585 Nachm. 03/28/17 - $GPGSV,3,2,12,24,71,286,26,28,08,056,25,12,41,232,,13,20,158,*7C

3:09:05:585 Nachm. 03/28/17 - $GPGSV,3,3,12,15,43,194,,18,14,270,,25,01,237,,32,06,320,*7A

3:09:05:586 Nachm. 03/28/17 - $GLGSV,3,1,09,74,35,282,18,82,35,050,25,73,68,035,22,80,24,077,26*62

3:09:05:602 Nachm. 03/28/17 - $GLGSV,3,2,09,65,16,337,26,81,06,008,14,72,40,289,17,83,30,118,*6C

3:09:05:608 Nachm. 03/28/17 - $GLGSV,3,3,09,71,28,224,*54

3:09:05:608 Nachm. 03/28/17 - $GPGGA,130901.0,5208.352629,N,01138.607244,E,1,05,1.9,52.7,M,45.0,M,,*64

3:09:05:609 Nachm. 03/28/17 - $GNGNS,130901.0,5208.352629,N,01138.607244,E,AA,09,1.9,52.7,45.0,,*5C

3:09:05:609 Nachm. 03/28/17 - $GPVTG,121.5,T,121.1,M,0.0,N,0.0,K,A*27

3:09:05:610 Nachm. 03/28/17 - $GPRMC,130901.0,A,5208.352629,N,01138.607244,E,0.0,121.5,280317,0.4,E,A*0D

3:09:05:610 Nachm. 03/28/17 - $GPGSA,A,2,10,17,19,24,28,,,,,,,,2.1,1.9,0.9*32

3:09:05:611 Nachm. 03/28/17 - $GNGSA,A,2,10,17,19,24,28,,,,,,,,2.1,1.9,0.9*2C

3:09:05:611 Nachm. 03/28/17 - $GNGSA,A,2,72,73,74,82,,,,,,,,,2.1,1.9,0.9*27

3:09:06:585 Nachm. 03/28/17 - $GPGSV,3,1,12,01,05,019,18,10,17,298,21,17,40,068,34,19,45,101,23*79

3:09:06:586 Nachm. 03/28/17 - $GPGSV,3,2,12,24,71,286,29,28,08,056,29,12,41,232,,13,20,158,*7F

3:09:06:592 Nachm. 03/28/17 - $GPGSV,3,3,12,15,43,194,,18,14,270,,25,01,237,,32,06,320,*7A

3:09:06:593 Nachm. 03/28/17 - $GLGSV,3,1,09,74,35,282,18,82,35,050,27,73,68,035,24,80,24,077,23*63

3:09:06:602 Nachm. 03/28/17 - $GLGSV,3,2,09,65,16,337,25,81,06,008,16,72,40,289,16,83,30,118,*6C

3:09:06:608 Nachm. 03/28/17 - $GLGSV,3,3,09,71,28,224,*54

3:09:06:611 Nachm. 03/28/17 - $GPGGA,130902.0,5208.352930,N,01138.607546,E,1,05,1.9,54.6,M,45.0,M,,*62

3:09:06:612 Nachm. 03/28/17 - $GNGNS,130902.0,5208.352930,N,01138.607546,E,AA,09,1.9,54.6,45.0,,*5A

3:09:06:613 Nachm. 03/28/17 - $GPVTG,121.5,T,121.1,M,0.0,N,0.0,K,A*27

3:09:06:614 Nachm. 03/28/17 - $GPRMC,130902.0,A,5208.352930,N,01138.607546,E,0.0,121.5,280317,0.4,E,A*0C

3:09:06:615 Nachm. 03/28/17 - $GPGSA,A,2,10,17,19,24,28,,,,,,,,2.1,1.9,0.9*32

3:09:06:616 Nachm. 03/28/17 - $GNGSA,A,2,10,17,19,24,28,,,,,,,,2.1,1.9,0.9*2C

3:09:06:617 Nachm. 03/28/17 - $GNGSA,A,2,72,73,74,82,,,,,,,,,2.1,1.9,0.9*27

3:09:07:584 Nachm. 03/28/17 - $GPGSV,3,1,12,01,05,019,21,10,17,298,20,17,40,068,34,19,45,101,25*74

3:09:07:585 Nachm. 03/28/17 - $GPGSV,3,2,12,24,71,286,26,28,08,056,27,12,41,232,,13,20,158,*7E

3:09:07:586 Nachm. 03/28/17 - $GPGSV,3,3,12,15,43,194,,18,14,270,,25,01,237,,32,06,320,*7A

3:09:07:586 Nachm. 03/28/17 - $GLGSV,3,1,09,74,35,282,14,82,35,050,30,73,68,035,23,80,24,077,17*69

3:09:07:592 Nachm. 03/28/17 - $GLGSV,3,2,09,65,16,337,21,81,06,008,16,72,40,289,16,83,30,118,*68

3:09:07:593 Nachm. 03/28/17 - $GLGSV,3,3,09,71,28,224,*54

3:09:07:593 Nachm. 03/28/17 - $GPGGA,130903.0,5208.352809,N,01138.607595,E,1,05,1.9,53.2,M,45.0,M,,*65

3:09:07:594 Nachm. 03/28/17 - $GNGNS,130903.0,5208.352809,N,01138.607595,E,AA,09,1.9,53.2,45.0,,*5D

3:09:07:595 Nachm. 03/28/17 - $GPVTG,121.5,T,121.1,M,0.0,N,0.0,K,A*27

3:09:07:596 Nachm. 03/28/17 - $GPRMC,130903.0,A,5208.352809,N,01138.607595,E,0.0,121.5,280317,0.4,E,A*08

3:09:07:597 Nachm. 03/28/17 - $GPGSA,A,2,10,17,19,24,28,,,,,,,,2.1,1.9,0.9*32

3:09:07:598 Nachm. 03/28/17 - $GNGSA,A,2,10,17,19,24,28,,,,,,,,2.1,1.9,0.9*2C

3:09:07:598 Nachm. 03/28/17 - $GNGSA,A,2,72,73,74,82,,,,,,,,,2.1,1.9,0.9*27

3:09:08:586 Nachm. 03/28/17 - $GPGSV,3,1,12,01,05,019,21,10,17,298,19,17,40,068,36,19,45,101,23*7A

3:09:08:591 Nachm. 03/28/17 - $GPGSV,3,2,12,24,71,286,19,28,08,056,27,12,41,232,,13,20,158,*72

3:09:08:591 Nachm. 03/28/17 - $GPGSV,3,3,12,15,43,194,,18,14,270,,25,01,237,,32,06,320,*7A

3:09:08:591 Nachm. 03/28/17 - $GLGSV,3,1,09,74,35,282,14,82,35,050,28,73,68,035,21,80,24,077,23*65

3:09:08:594 Nachm. 03/28/17 - $GLGSV,3,2,09,65,16,337,21,81,06,008,16,72,40,289,14,83,30,118,*6A

3:09:08:595 Nachm. 03/28/17 - $GLGSV,3,3,09,71,28,224,*54

3:09:08:598 Nachm. 03/28/17 - $GPGGA,130904.0,5208.352848,N,01138.607419,E,1,05,1.9,51.8,M,45.0,M,,*6A

3:09:08:599 Nachm. 03/28/17 - $GNGNS,130904.0,5208.352848,N,01138.607419,E,AA,09,1.9,51.8,45.0,,*52

3:09:08:600 Nachm. 03/28/17 - $GPVTG,121.5,T,121.1,M,0.0,N,0.0,K,A*27

3:09:08:601 Nachm. 03/28/17 - $GPRMC,130904.0,A,5208.352848,N,01138.607419,E,0.0,121.5,280317,0.4,E,A*0F

3:09:08:602 Nachm. 03/28/17 - $GPGSA,A,2,10,17,19,24,28,,,,,,,,2.1,1.9,0.9*32

3:09:08:603 Nachm. 03/28/17 - $GNGSA,A,2,10,17,19,24,28,,,,,,,,2.1,1.9,0.9*2C

3:09:08:603 Nachm. 03/28/17 - $GNGSA,A,2,72,73,74,82,,,,,,,,,2.1,1.9,0.9*27

3:09:09:583 Nachm. 03/28/17 - $GPGSV,3,1,12,01,05,019,21,10,17,298,19,17,40,068,35,19,45,101,23*79

3:09:09:583 Nachm. 03/28/17 - $GPGSV,3,2,12,24,71,286,20,28,08,056,28,12,41,232,,13,20,158,*77

3:09:09:583 Nachm. 03/28/17 - $GPGSV,3,3,12,15,43,194,,18,14,270,,25,01,237,,32,06,320,*7A

3:09:09:583 Nachm. 03/28/17 - $GLGSV,3,1,09,74,35,282,15,82,35,050,30,73,68,035,23,80,24,077,23*6F

3:09:09:585 Nachm. 03/28/17 - $GLGSV,3,2,09,65,16,337,21,81,06,008,16,72,40,289,14,83,30,118,*6A

3:09:09:587 Nachm. 03/28/17 - $GLGSV,3,3,09,71,28,224,*54

3:09:09:588 Nachm. 03/28/17 - $GPGGA,130905.0,5208.352741,N,01138.607395,E,1,05,1.9,50.3,M,45.0,M,,*64

3:09:09:588 Nachm. 03/28/17 - $GNGNS,130905.0,5208.352741,N,01138.607395,E,AA,09,1.9,50.3,45.0,,*5C

3:09:09:589 Nachm. 03/28/17 - $GPVTG,121.5,T,121.1,M,0.0,N,0.0,K,A*27

3:09:09:589 Nachm. 03/28/17 - $GPRMC,130905.0,A,5208.352741,N,01138.607395,E,0.0,121.5,280317,0.4,E,A*0B

3:09:09:590 Nachm. 03/28/17 - $GPGSA,A,2,10,17,19,24,28,,,,,,,,2.1,1.9,0.9*32

3:09:09:590 Nachm. 03/28/17 - $GNGSA,A,2,10,17,19,24,28,,,,,,,,2.1,1.9,0.9*2C

3:09:09:591 Nachm. 03/28/17 - $GNGSA,A,2,72,73,74,82,,,,,,,,,2.1,1.9,0.9*27

3:09:10:583 Nachm. 03/28/17 - $GPGSV,3,1,12,01,05,019,21,10,17,298,18,17,40,068,35,19,45,101,24*7F

3:09:10:583 Nachm. 03/28/17 - $GPGSV,3,2,12,24,71,286,23,28,08,056,28,12,41,232,,13,20,158,*74

3:09:10:584 Nachm. 03/28/17 - $GPGSV,3,3,12,15,43,194,,18,14,270,,25,01,237,,32,06,320,*7A

3:09:10:585 Nachm. 03/28/17 - $GLGSV,3,1,09,74,35,282,16,82,35,050,30,73,68,035,20,80,24,077,19*66

3:09:10:591 Nachm. 03/28/17 - $GLGSV,3,2,09,65,16,337,21,81,06,008,15,72,40,289,14,83,30,118,*69

3:09:10:597 Nachm. 03/28/17 - $GLGSV,3,3,09,71,28,224,*54

3:09:10:598 Nachm. 03/28/17 - $GPGGA,130906.0,5208.352973,N,01138.607735,E,1,05,1.9,50.5,M,45.0,M,,*60

3:09:10:600 Nachm. 03/28/17 - $GNGNS,130906.0,5208.352973,N,01138.607735,E,AA,09,1.9,50.5,45.0,,*58

3:09:10:604 Nachm. 03/28/17 - $GPVTG,121.5,T,121.1,M,0.0,N,0.0,K,A*27

3:09:10:605 Nachm. 03/28/17 - $GPRMC,130906.0,A,5208.352973,N,01138.607735,E,0.0,121.5,280317,0.4,E,A*09

3:09:10:606 Nachm. 03/28/17 - $GPGSA,A,2,10,17,19,24,28,,,,,,,,2.1,1.9,0.9*32

3:09:10:606 Nachm. 03/28/17 - $GNGSA,A,2,10,17,19,24,28,,,,,,,,2.1,1.9,0.9*2C

3:09:10:608 Nachm. 03/28/17 - $GNGSA,A,2,72,73,74,82,,,,,,,,,2.1,1.9,0.9*27

3:09:11:583 Nachm. 03/28/17 - $GPGSV,3,1,12,01,05,019,22,10,17,298,18,17,40,068,35,19,45,101,25*7D

3:09:11:585 Nachm. 03/28/17 - $GPGSV,3,2,12,24,71,286,26,28,08,056,28,12,41,232,,13,20,158,*71

3:09:11:587 Nachm. 03/28/17 - $GPGSV,3,3,12,15,43,194,,18,14,270,,25,01,237,,32,06,320,*7A

3:09:11:588 Nachm. 03/28/17 - $GLGSV,3,1,09,74,35,282,16,82,35,050,28,73,68,035,23,80,24,077,25*63

3:09:11:590 Nachm. 03/28/17 - $GLGSV,3,2,09,65,16,337,21,81,06,008,15,72,40,289,14,83,30,118,*69

3:09:11:595 Nachm. 03/28/17 - $GLGSV,3,3,09,71,28,224,*54

3:09:11:596 Nachm. 03/28/17 - $GPGGA,130907.0,5208.352937,N,01138.607884,E,1,05,1.9,50.4,M,45.0,M,,*65

3:09:11:598 Nachm. 03/28/17 - $GNGNS,130907.0,5208.352937,N,01138.607884,E,AA,09,1.9,50.4,45.0,,*5D

3:09:11:607 Nachm. 03/28/17 - $GPVTG,121.5,T,121.1,M,0.0,N,0.0,K,A*27

3:09:11:610 Nachm. 03/28/17 - $GPRMC,130907.0,A,5208.352937,N,01138.607884,E,0.0,121.5,280317,0.4,E,A*0D

3:09:11:614 Nachm. 03/28/17 - $GPGSA,A,2,10,17,19,24,28,,,,,,,,2.1,1.9,0.9*32

3:09:11:614 Nachm. 03/28/17 - $GNGSA,A,2,10,17,19,24,28,,,,,,,,2.1,1.9,0.9*2C

3:09:11:614 Nachm. 03/28/17 - $GNGSA,A,2,72,73,74,82,,,,,,,,,2.1,1.9,0.9*27

3:09:12:584 Nachm. 03/28/17 - $GPGSV,3,1,12,01,05,019,24,10,17,298,23,17,40,068,34,19,45,101,25*72

3:09:12:585 Nachm. 03/28/17 - $GPGSV,3,2,12,24,71,286,25,28,08,056,27,12,41,232,,13,20,158,*7D

3:09:12:585 Nachm. 03/28/17 - $GPGSV,3,3,12,15,43,194,,18,14,270,,25,01,237,,32,06,320,*7A

3:09:12:586 Nachm. 03/28/17 - $GLGSV,3,1,09,74,35,282,18,82,35,050,26,73,68,035,23,80,24,077,22*64

3:09:12:593 Nachm. 03/28/17 - $GLGSV,3,2,09,65,16,337,20,81,06,008,16,72,40,289,14,83,30,118,*6B

3:09:12:594 Nachm. 03/28/17 - $GLGSV,3,3,09,71,28,224,*54

3:09:12:594 Nachm. 03/28/17 - $GPGGA,130908.0,5208.353113,N,01138.608836,E,1,05,1.9,51.8,M,45.0,M,,*6E

3:09:12:595 Nachm. 03/28/17 - $GNGNS,130908.0,5208.353113,N,01138.608836,E,AA,09,1.9,51.8,45.0,,*56

3:09:12:597 Nachm. 03/28/17 - $GPVTG,121.5,T,121.1,M,0.0,N,0.0,K,A*27

3:09:12:598 Nachm. 03/28/17 - $GPRMC,130908.0,A,5208.353113,N,01138.608836,E,0.0,121.5,280317,0.4,E,A*0B

3:09:12:600 Nachm. 03/28/17 - $GPGSA,A,2,10,17,19,24,28,,,,,,,,2.1,1.9,0.9*32

3:09:12:601 Nachm. 03/28/17 - $GNGSA,A,2,10,17,19,24,28,,,,,,,,2.1,1.9,0.9*2C

3:09:12:601 Nachm. 03/28/17 - $GNGSA,A,2,72,73,74,82,,,,,,,,,2.1,1.9,0.9*27

3:09:13:587 Nachm. 03/28/17 - $GPGSV,3,1,12,01,05,019,23,10,17,298,25,17,40,068,32,19,45,101,24*74

3:09:13:588 Nachm. 03/28/17 - $GPGSV,3,2,12,24,71,286,20,28,08,056,22,12,41,232,,13,20,158,*7D

3:09:13:588 Nachm. 03/28/17 - $GPGSV,3,3,12,15,43,194,,18,14,270,,25,01,237,,32,06,320,*7A

3:09:13:592 Nachm. 03/28/17 - $GLGSV,3,1,09,74,35,282,17,82,35,050,25,73,68,035,17,80,24,077,24*69

3:09:13:598 Nachm. 03/28/17 - $GLGSV,3,2,09,65,16,337,24,81,06,008,20,72,40,289,18,83,30,118,*66

3:09:13:598 Nachm. 03/28/17 - $GLGSV,3,3,09,71,28,224,*54

3:09:13:599 Nachm. 03/28/17 - $GPGGA,130909.0,5208.353226,N,01138.609469,E,1,05,1.9,52.7,M,45.0,M,,*61

3:09:13:599 Nachm. 03/28/17 - $GNGNS,130909.0,5208.353226,N,01138.609469,E,AA,09,1.9,52.7,45.0,,*59

3:09:13:600 Nachm. 03/28/17 - $GPVTG,121.5,T,121.1,M,0.0,N,0.0,K,A*27

3:09:13:603 Nachm. 03/28/17 - $GPRMC,130909.0,A,5208.353226,N,01138.609469,E,0.0,121.5,280317,0.4,E,A*08

3:09:13:603 Nachm. 03/28/17 - $GPGSA,A,2,10,17,19,24,28,,,,,,,,2.1,1.9,0.9*32

3:09:13:609 Nachm. 03/28/17 - $GNGSA,A,2,10,17,19,24,28,,,,,,,,2.1,1.9,0.9*2C

3:09:13:613 Nachm. 03/28/17 - $GNGSA,A,2,72,73,74,82,,,,,,,,,2.1,1.9,0.9*27

3:09:14:585 Nachm. 03/28/17 - $GPGSV,3,1,12,01,05,019,24,10,17,298,24,17,40,068,30,19,45,101,24*70

3:09:14:586 Nachm. 03/28/17 - $GPGSV,3,2,12,24,71,286,22,28,08,056,24,12,41,232,,13,20,158,*79

3:09:14:587 Nachm. 03/28/17 - $GPGSV,3,3,12,15,43,194,,18,14,270,,25,01,237,,32,06,320,*7A

3:09:14:591 Nachm. 03/28/17 - $GLGSV,3,1,09,74,35,282,19,82,35,050,19,73,68,035,17,80,24,077,24*68

3:09:14:614 Nachm. 03/28/17 - $GLGSV,3,2,09,65,16,337,22,81,06,008,20,72,40,289,19,83,30,118,*61

3:09:14:616 Nachm. 03/28/17 - $GLGSV,3,3,09,71,28,224,*54

3:09:14:617 Nachm. 03/28/17 - $GPGGA,130910.0,5208.353287,N,01138.609626,E,1,05,1.9,53.1,M,45.0,M,,*6C

3:09:14:617 Nachm. 03/28/17 - $GNGNS,130910.0,5208.353287,N,01138.609626,E,AA,09,1.9,53.1,45.0,,*54

3:09:14:617 Nachm. 03/28/17 - $GPVTG,121.5,T,121.1,M,0.0,N,0.0,K,A*27

3:09:14:617 Nachm. 03/28/17 - $GPRMC,130910.0,A,5208.353287,N,01138.609626,E,0.0,121.5,280317,0.4,E,A*02

3:09:14:618 Nachm. 03/28/17 - $GPGSA,A,2,10,17,19,24,28,,,,,,,,2.1,1.9,0.9*32

3:09:14:618 Nachm. 03/28/17 - $GNGSA,A,2,10,17,19,24,28,,,,,,,,2.1,1.9,0.9*2C

3:09:14:618 Nachm. 03/28/17 - $GNGSA,A,2,72,73,74,82,,,,,,,,,2.1,1.9,0.9*27

3:09:15:584 Nachm. 03/28/17 - $GPGSV,3,1,12,01,05,019,24,10,17,298,24,17,40,068,30,19,45,101,24*70

3:09:15:585 Nachm. 03/28/17 - $GPGSV,3,2,12,24,71,286,23,28,08,056,24,32,06,320,13,12,41,232,*70

3:09:15:587 Nachm. 03/28/17 - $GPGSV,3,3,12,13,20,158,,15,43,194,,18,14,270,,25,01,237,*70

3:09:15:591 Nachm. 03/28/17 - $GLGSV,3,1,09,74,35,282,18,82,35,050,22,73,68,035,17,80,24,077,24*61

3:09:15:603 Nachm. 03/28/17 - $GLGSV,3,2,09,65,16,337,20,81,06,008,18,72,40,289,20,83,30,118,*62

3:09:15:605 Nachm. 03/28/17 - $GLGSV,3,3,09,71,28,224,*54

3:09:15:607 Nachm. 03/28/17 - $GPGGA,130911.0,5208.353309,N,01138.609574,E,1,05,1.9,53.0,M,45.0,M,,*6F

3:09:15:608 Nachm. 03/28/17 - $GNGNS,130911.0,5208.353309,N,01138.609574,E,AA,09,1.9,53.0,45.0,,*57

3:09:15:609 Nachm. 03/28/17 - $GPVTG,121.5,T,121.1,M,0.0,N,0.0,K,A*27

3:09:15:609 Nachm. 03/28/17 - $GPRMC,130911.0,A,5208.353309,N,01138.609574,E,0.0,121.5,280317,0.4,E,A*00

3:09:15:611 Nachm. 03/28/17 - $GPGSA,A,2,10,17,19,24,28,,,,,,,,2.1,1.9,0.9*32

3:09:15:612 Nachm. 03/28/17 - $GNGSA,A,2,10,17,19,24,28,,,,,,,,2.1,1.9,0.9*2C

3:09:15:613 Nachm. 03/28/17 - $GNGSA,A,2,72,73,74,82,,,,,,,,,2.1,1.9,0.9*27

3:09:16:584 Nachm. 03/28/17 - $GPGSV,3,1,12,01,05,019,23,10,17,298,24,17,40,068,30,19,45,101,24*77

3:09:16:584 Nachm. 03/28/17 - $GPGSV,3,2,12,24,71,286,23,28,08,056,24,32,06,320,14,12,41,232,*77

3:09:16:585 Nachm. 03/28/17 - $GPGSV,3,3,12,13,20,158,,15,43,194,,18,14,270,,25,01,237,*70

3:09:16:587 Nachm. 03/28/17 - $GLGSV,3,1,09,74,35,282,18,82,35,050,22,73,68,035,17,80,24,077,25*60

3:09:16:593 Nachm. 03/28/17 - $GLGSV,3,2,09,65,16,337,20,81,06,008,19,72,40,289,19,83,30,118,*69

3:09:16:597 Nachm. 03/28/17 - $GLGSV,3,3,09,71,28,224,*54

3:09:16:598 Nachm. 03/28/17 - $GPGGA,130912.0,5208.353313,N,01138.609594,E,1,05,1.9,53.0,M,45.0,M,,*69

3:09:16:598 Nachm. 03/28/17 - $GNGNS,130912.0,5208.353313,N,01138.609594,E,AA,09,1.9,53.0,45.0,,*51

3:09:16:598 Nachm. 03/28/17 - $GPVTG,121.5,T,121.1,M,0.0,N,0.0,K,A*27

3:09:16:599 Nachm. 03/28/17 - $GPRMC,130912.0,A,5208.353313,N,01138.609594,E,0.0,121.5,280317,0.4,E,A*06

3:09:16:599 Nachm. 03/28/17 - $GPGSA,A,2,10,17,19,24,28,,,,,,,,2.1,1.9,0.9*32

3:09:16:599 Nachm. 03/28/17 - $GNGSA,A,2,10,17,19,24,28,,,,,,,,2.1,1.9,0.9*2C

3:09:16:600 Nachm. 03/28/17 - $GNGSA,A,2,72,73,74,82,,,,,,,,,2.1,1.9,0.9*27

3:09:17:584 Nachm. 03/28/17 - $GPGSV,3,1,12,01,05,019,23,10,17,298,24,17,40,068,31,19,45,101,23*71

3:09:17:585 Nachm. 03/28/17 - $GPGSV,3,2,12,24,71,286,23,28,08,056,24,32,06,320,14,12,41,232,*77

3:09:17:585 Nachm. 03/28/17 - $GPGSV,3,3,12,13,20,158,,15,43,194,,18,14,270,,25,01,237,*70

3:09:17:585 Nachm. 03/28/17 - $GLGSV,3,1,09,74,35,282,19,82,35,050,24,73,68,035,17,80,24,077,24*66

3:09:17:592 Nachm. 03/28/17 - $GLGSV,3,2,09,65,16,337,20,81,06,008,19,72,40,289,18,83,30,118,*68

3:09:17:592 Nachm. 03/28/17 - $GLGSV,3,3,09,71,28,224,*54

3:09:17:593 Nachm. 03/28/17 - $GPGGA,130913.0,5208.353299,N,01138.609590,E,1,05,1.9,53.0,M,45.0,M,,*6F

3:09:17:593 Nachm. 03/28/17 - $GNGNS,130913.0,5208.353299,N,01138.609590,E,AA,09,1.9,53.0,45.0,,*57

3:09:17:593 Nachm. 03/28/17 - $GPVTG,121.5,T,121.1,M,0.0,N,0.0,K,A*27

3:09:17:593 Nachm. 03/28/17 - $GPRMC,130913.0,A,5208.353299,N,01138.609590,E,0.0,121.5,280317,0.4,E,A*00

3:09:17:593 Nachm. 03/28/17 - $GPGSA,A,2,10,17,19,24,28,,,,,,,,2.1,1.9,0.9*32

3:09:17:594 Nachm. 03/28/17 - $GNGSA,A,2,10,17,19,24,28,,,,,,,,2.1,1.9,0.9*2C

3:09:17:594 Nachm. 03/28/17 - $GNGSA,A,2,72,73,74,82,,,,,,,,,2.1,1.9,0.9*27

3:09:18:584 Nachm. 03/28/17 - $GPGSV,3,1,12,01,05,019,23,10,17,298,25,17,40,068,27,19,45,101,22*76

3:09:18:586 Nachm. 03/28/17 - $GPGSV,3,2,12,24,71,286,26,28,08,056,24,32,06,320,14,12,41,232,*72

3:09:18:590 Nachm. 03/28/17 - $GPGSV,3,3,12,13,20,158,,15,43,194,,18,14,270,,25,01,237,*70

3:09:18:591 Nachm. 03/28/17 - $GLGSV,3,1,09,74,35,282,19,82,35,050,28,73,68,035,16,80,24,077,25*6A

3:09:18:599 Nachm. 03/28/17 - $GLGSV,3,2,09,65,16,337,23,81,06,008,19,72,40,289,20,83,30,118,*60

3:09:18:599 Nachm. 03/28/17 - $GLGSV,3,3,09,71,28,224,*54

3:09:18:600 Nachm. 03/28/17 - $GPGGA,130914.0,5208.353284,N,01138.609576,E,1,05,1.9,53.0,M,45.0,M,,*6C

3:09:18:600 Nachm. 03/28/17 - $GNGNS,130914.0,5208.353284,N,01138.609576,E,AA,09,1.9,53.0,45.0,,*54

3:09:18:601 Nachm. 03/28/17 - $GPVTG,121.5,T,121.1,M,0.0,N,0.0,K,A*27

3:09:18:602 Nachm. 03/28/17 - $GPRMC,130914.0,A,5208.353284,N,01138.609576,E,0.0,121.5,280317,0.4,E,A*03

3:09:18:602 Nachm. 03/28/17 - $GPGSA,A,2,10,17,19,24,28,,,,,,,,2.1,1.9,0.9*32

3:09:18:603 Nachm. 03/28/17 - $GNGSA,A,2,10,17,19,24,28,,,,,,,,2.1,1.9,0.9*2C

3:09:18:604 Nachm. 03/28/17 - $GNGSA,A,2,72,73,74,82,,,,,,,,,2.1,1.9,0.9*27

3:09:19:584 Nachm. 03/28/17 - $GPGSV,3,1,12,01,05,018,23,10,17,298,24,17,40,068,26,19,45,101,24*71

3:09:19:584 Nachm. 03/28/17 - $GPGSV,3,2,12,24,71,286,26,28,08,056,23,32,06,320,15,12,42,232,*77

3:09:19:589 Nachm. 03/28/17 - $GPGSV,3,3,12,13,20,158,,15,43,192,,18,14,270,,25,02,237,*75

3:09:19:589 Nachm. 03/28/17 - $GLGSV,3,1,09,74,35,282,21,82,35,050,28,73,68,035,19,80,24,077,25*6E

3:09:19:592 Nachm. 03/28/17 - $GLGSV,3,2,09,65,16,337,18,81,06,008,18,72,40,288,18,83,30,116,*6D

3:09:19:597 Nachm. 03/28/17 - $GLGSV,3,3,09,71,28,224,*54

3:09:19:597 Nachm. 03/28/17 - $GPGGA,130915.0,5208.353288,N,01138.609585,E,1,05,1.9,53.1,M,45.0,M,,*6C

3:09:19:598 Nachm. 03/28/17 - $GNGNS,130915.0,5208.353288,N,01138.609585,E,AA,09,1.9,53.1,45.0,,*54

3:09:19:598 Nachm. 03/28/17 - $GPVTG,121.5,T,121.1,M,0.0,N,0.0,K,A*27

3:09:19:601 Nachm. 03/28/17 - $GPRMC,130915.0,A,5208.353288,N,01138.609585,E,0.0,121.5,280317,0.4,E,A*02

3:09:19:603 Nachm. 03/28/17 - $GPGSA,A,2,10,17,19,24,28,,,,,,,,2.1,1.9,0.9*32

3:09:19:603 Nachm. 03/28/17 - $GNGSA,A,2,10,17,19,24,28,,,,,,,,2.1,1.9,0.9*2C

3:09:19:603 Nachm. 03/28/17 - $GNGSA,A,2,72,73,74,82,,,,,,,,,2.1,1.9,0.9*27

3:09:20:584 Nachm. 03/28/17 - $GPGSV,3,1,12,01,05,018,22,10,17,298,23,17,40,068,27,19,45,101,23*71

3:09:20:585 Nachm. 03/28/17 - $GPGSV,3,2,12,24,71,286,26,28,08,056,22,32,06,320,15,12,42,232,*76

3:09:20:591 Nachm. 03/28/17 - $GPGSV,3,3,12,13,20,158,,15,43,192,,18,14,270,,25,02,237,*75

3:09:20:595 Nachm. 03/28/17 - $GLGSV,3,1,09,74,35,282,22,82,35,050,28,73,68,035,19,80,24,077,24*6C

3:09:20:598 Nachm. 03/28/17 - $GLGSV,3,2,09,65,16,337,18,81,06,008,18,72,40,288,18,83,30,116,*6D

3:09:20:601 Nachm. 03/28/17 - $GLGSV,3,3,09,71,28,224,*54

3:09:20:602 Nachm. 03/28/17 - $GPGGA,130916.0,5208.353282,N,01138.609588,E,1,05,1.9,53.1,M,45.0,M,,*68

3:09:20:603 Nachm. 03/28/17 - $GNGNS,130916.0,5208.353282,N,01138.609588,E,AA,09,1.9,53.1,45.0,,*50

3:09:20:604 Nachm. 03/28/17 - $GPVTG,121.5,T,121.1,M,0.0,N,0.0,K,A*27

3:09:20:606 Nachm. 03/28/17 - $GPRMC,130916.0,A,5208.353282,N,01138.609588,E,0.0,121.5,280317,0.4,E,A*06

3:09:20:607 Nachm. 03/28/17 - $GPGSA,A,2,10,17,19,24,28,,,,,,,,2.1,1.9,0.9*32

3:09:20:612 Nachm. 03/28/17 - $GNGSA,A,2,10,17,19,24,28,,,,,,,,2.1,1.9,0.9*2C

3:09:20:614 Nachm. 03/28/17 - $GNGSA,A,2,72,73,74,82,,,,,,,,,2.1,1.9,0.9*27

3:09:21:586 Nachm. 03/28/17 - $GPGSV,3,1,12,01,05,018,24,10,17,298,23,17,40,068,27,19,45,101,24*70

3:09:21:587 Nachm. 03/28/17 - $GPGSV,3,2,12,24,71,286,26,28,08,056,23,32,06,320,15,12,42,232,*77

3:09:21:588 Nachm. 03/28/17 - $GPGSV,3,3,12,13,20,158,,15,43,192,,18,14,270,,25,02,237,*75

3:09:21:588 Nachm. 03/28/17 - $GLGSV,3,1,09,74,35,282,21,82,35,050,28,73,68,035,18,80,24,077,25*6F

3:09:21:600 Nachm. 03/28/17 - $GLGSV,3,2,09,65,16,337,17,81,06,008,19,72,40,288,19,83,30,116,*62

3:09:21:601 Nachm. 03/28/17 - $GLGSV,3,3,09,71,28,224,*54

3:09:21:601 Nachm. 03/28/17 - $GPGGA,130917.0,5208.353274,N,01138.609594,E,1,05,1.9,53.1,M,45.0,M,,*6D

3:09:21:602 Nachm. 03/28/17 - $GNGNS,130917.0,5208.353274,N,01138.609594,E,AA,09,1.9,53.1,45.0,,*55

3:09:21:603 Nachm. 03/28/17 - $GPVTG,121.5,T,121.1,M,0.0,N,0.0,K,A*27

3:09:21:603 Nachm. 03/28/17 - $GPRMC,130917.0,A,5208.353274,N,01138.609594,E,0.0,121.5,280317,0.4,E,A*03

3:09:21:611 Nachm. 03/28/17 - $GPGSA,A,2,10,17,19,24,28,,,,,,,,2.1,1.9,0.9*32

3:09:21:612 Nachm. 03/28/17 - $GNGSA,A,2,10,17,19,24,28,,,,,,,,2.1,1.9,0.9*2C

3:09:21:616 Nachm. 03/28/17 - $GNGSA,A,2,72,73,74,82,,,,,,,,,2.1,1.9,0.9*27

3:09:22:584 Nachm. 03/28/17 - $GPGSV,3,1,12,01,05,018,23,10,17,298,25,17,40,068,27,19,45,101,24*71

3:09:22:585 Nachm. 03/28/17 - $GPGSV,3,2,12,24,71,286,26,28,08,056,24,32,06,320,16,12,42,232,*73

3:09:22:597 Nachm. 03/28/17 - $GPGSV,3,3,12,13,20,158,,15,43,192,,18,14,270,,25,02,237,*75

3:09:22:605 Nachm. 03/28/17 - $GLGSV,3,1,09,74,35,282,21,82,35,050,28,73,68,035,19,80,24,077,25*6E

3:09:22:606 Nachm. 03/28/17 - $GLGSV,3,2,09,65,16,337,21,81,06,008,19,72,40,288,17,83,30,116,*69

3:09:22:607 Nachm. 03/28/17 - $GLGSV,3,3,09,71,28,224,*54

3:09:22:607 Nachm. 03/28/17 - $GPGGA,130918.0,5208.353271,N,01138.609588,E,1,05,1.9,53.1,M,45.0,M,,*6A

3:09:22:608 Nachm. 03/28/17 - $GNGNS,130918.0,5208.353271,N,01138.609588,E,AA,09,1.9,53.1,45.0,,*52

3:09:22:609 Nachm. 03/28/17 - $GPVTG,121.5,T,121.1,M,0.0,N,0.0,K,A*27

3:09:22:609 Nachm. 03/28/17 - $GPRMC,130918.0,A,5208.353271,N,01138.609588,E,0.0,121.5,280317,0.4,E,A*04

3:09:22:610 Nachm. 03/28/17 - $GPGSA,A,2,10,17,19,24,28,,,,,,,,2.1,1.9,0.9*32

3:09:22:611 Nachm. 03/28/17 - $GNGSA,A,2,10,17,19,24,28,,,,,,,,2.1,1.9,0.9*2C

3:09:22:611 Nachm. 03/28/17 - $GNGSA,A,2,72,73,74,82,,,,,,,,,2.1,1.9,0.9*27

3:09:23:583 Nachm. 03/28/17 - $GPGSV,3,1,12,01,05,018,24,10,17,298,25,17,40,068,26,19,45,101,25*76

3:09:23:592 Nachm. 03/28/17 - $GPGSV,3,2,12,24,71,286,26,28,08,056,23,32,06,320,16,12,42,232,*74

3:09:23:593 Nachm. 03/28/17 - $GPGSV,3,3,12,13,20,158,,15,43,192,,18,14,270,,25,02,237,*75

3:09:23:597 Nachm. 03/28/17 - $GLGSV,3,1,09,74,35,282,22,82,35,050,27,73,68,035,19,80,24,077,25*62

3:09:23:598 Nachm. 03/28/17 - $GLGSV,3,2,09,65,16,337,19,81,06,008,18,72,40,288,19,83,30,116,*6D

3:09:23:604 Nachm. 03/28/17 - $GLGSV,3,3,09,71,28,224,*54

3:09:23:606 Nachm. 03/28/17 - $GPGGA,130919.0,5208.353242,N,01138.609570,E,1,05,1.9,53.0,M,45.0,M,,*6D

3:09:23:607 Nachm. 03/28/17 - $GNGNS,130919.0,5208.353242,N,01138.609570,E,AA,09,1.9,53.0,45.0,,*55

3:09:23:609 Nachm. 03/28/17 - $GPVTG,121.5,T,121.1,M,0.0,N,0.0,K,A*27

3:09:23:614 Nachm. 03/28/17 - $GPRMC,130919.0,A,5208.353242,N,01138.609570,E,0.0,121.5,280317,0.4,E,A*02

3:09:23:616 Nachm. 03/28/17 - $GPGSA,A,2,10,17,19,24,28,,,,,,,,2.1,1.9,0.9*32

3:09:23:617 Nachm. 03/28/17 - $GNGSA,A,2,10,17,19,24,28,,,,,,,,2.1,1.9,0.9*2C

3:09:23:618 Nachm. 03/28/17 - $GNGSA,A,2,72,73,74,82,,,,,,,,,2.1,1.9,0.9*27

3:09:24:585 Nachm. 03/28/17 - $GPGSV,3,1,12,01,05,018,24,10,17,298,26,17,40,068,26,19,45,101,25*75

3:09:24:586 Nachm. 03/28/17 - $GPGSV,3,2,12,24,71,286,27,28,08,056,24,32,06,320,17,12,42,232,*73

3:09:24:587 Nachm. 03/28/17 - $GPGSV,3,3,12,13,20,158,,15,43,192,,18,14,270,,25,02,237,*75

3:09:24:587 Nachm. 03/28/17 - $GLGSV,3,1,09,74,35,282,22,82,35,050,27,73,68,035,20,80,24,077,25*68

3:09:24:601 Nachm. 03/28/17 - $GLGSV,3,2,09,65,16,337,19,81,06,008,19,72,40,288,19,83,30,116,*6C

3:09:24:605 Nachm. 03/28/17 - $GLGSV,3,3,09,71,28,224,*54

3:09:24:605 Nachm. 03/28/17 - $GPGGA,130920.0,5208.353229,N,01138.609567,E,1,05,1.9,53.0,M,45.0,M,,*6C

3:09:24:606 Nachm. 03/28/17 - $GNGNS,130920.0,5208.353229,N,01138.609567,E,AA,09,1.9,53.0,45.0,,*54

3:09:24:606 Nachm. 03/28/17 - $GPVTG,121.5,T,121.1,M,0.0,N,0.0,K,A*27

3:09:24:607 Nachm. 03/28/17 - $GPRMC,130920.0,A,5208.353229,N,01138.609567,E,0.0,121.5,280317,0.4,E,A*03

3:09:24:607 Nachm. 03/28/17 - $GPGSA,A,2,10,17,19,24,28,,,,,,,,2.1,1.9,0.9*32

3:09:24:608 Nachm. 03/28/17 - $GNGSA,A,2,10,17,19,24,28,,,,,,,,2.1,1.9,0.9*2C

3:09:24:608 Nachm. 03/28/17 - $GNGSA,A,2,72,73,74,82,,,,,,,,,2.1,1.9,0.9*27

3:09:25:585 Nachm. 03/28/17 - $GPGSV,3,1,12,01,05,018,24,10,17,298,26,17,40,068,26,19,45,101,25*75

3:09:25:587 Nachm. 03/28/17 - $GPGSV,3,2,12,24,71,286,27,28,08,056,23,32,06,320,17,12,42,232,*74

3:09:25:597 Nachm. 03/28/17 - $GPGSV,3,3,12,13,20,158,,15,43,192,,18,14,270,,25,02,237,*75

3:09:25:604 Nachm. 03/28/17 - $GLGSV,3,1,09,74,35,282,21,82,35,050,27,73,68,035,22,80,24,077,26*6A

3:09:25:605 Nachm. 03/28/17 - $GLGSV,3,2,09,65,16,337,20,81,06,008,18,72,40,288,17,83,30,116,*69

3:09:25:605 Nachm. 03/28/17 - $GLGSV,3,3,09,71,28,224,*54

3:09:25:606 Nachm. 03/28/17 - $GPGGA,130921.0,5208.353215,N,01138.609558,E,1,05,1.9,53.0,M,45.0,M,,*6E

3:09:25:607 Nachm. 03/28/17 - $GNGNS,130921.0,5208.353215,N,01138.609558,E,AA,09,1.9,53.0,45.0,,*56

3:09:25:607 Nachm. 03/28/17 - $GPVTG,121.5,T,121.1,M,0.0,N,0.0,K,A*27

3:09:25:609 Nachm. 03/28/17 - $GPRMC,130921.0,A,5208.353215,N,01138.609558,E,0.0,121.5,280317,0.4,E,A*01

3:09:25:610 Nachm. 03/28/17 - $GPGSA,A,2,10,17,19,24,28,,,,,,,,2.1,1.9,0.9*32

3:09:25:610 Nachm. 03/28/17 - $GNGSA,A,2,10,17,19,24,28,,,,,,,,2.1,1.9,0.9*2C

3:09:25:611 Nachm. 03/28/17 - $GNGSA,A,2,72,73,74,82,,,,,,,,,2.1,1.9,0.9*27

3:09:26:585 Nachm. 03/28/17 - $GPGSV,3,1,12,01,05,018,22,10,17,298,27,17,40,068,30,19,45,101,26*76

3:09:26:589 Nachm. 03/28/17 - $GPGSV,3,2,12,24,71,286,26,28,08,056,17,32,06,320,17,12,42,232,*72

3:09:26:591 Nachm. 03/28/17 - $GPGSV,3,3,12,13,20,158,,15,43,192,,18,14,270,,25,02,237,*75

3:09:26:598 Nachm. 03/28/17 - $GLGSV,3,1,09,74,35,282,19,82,35,050,26,73,68,035,21,80,24,077,25*60

3:09:26:599 Nachm. 03/28/17 - $GLGSV,3,2,09,65,16,337,20,81,06,008,20,72,40,288,16,83,30,116,*63

3:09:26:600 Nachm. 03/28/17 - $GLGSV,3,3,09,71,28,224,*54

3:09:26:605 Nachm. 03/28/17 - $GPGGA,130922.0,5208.353218,N,01138.609577,E,1,05,1.9,53.0,M,45.0,M,,*6D

3:09:26:605 Nachm. 03/28/17 - $GNGNS,130922.0,5208.353218,N,01138.609577,E,AA,09,1.9,53.0,45.0,,*55

3:09:26:606 Nachm. 03/28/17 - $GPVTG,121.5,T,121.1,M,0.0,N,0.0,K,A*27

3:09:26:606 Nachm. 03/28/17 - $GPRMC,130922.0,A,5208.353218,N,01138.609577,E,0.0,121.5,280317,0.4,E,A*02

3:09:26:607 Nachm. 03/28/17 - $GPGSA,A,2,10,17,19,24,28,,,,,,,,2.1,1.9,0.9*32

3:09:26:607 Nachm. 03/28/17 - $GNGSA,A,2,10,17,19,24,28,,,,,,,,2.1,1.9,0.9*2C

3:09:26:608 Nachm. 03/28/17 - $GNGSA,A,2,72,73,74,82,,,,,,,,,2.1,1.9,0.9*27

3:09:27:587 Nachm. 03/28/17 - $GPGSV,3,1,12,01,05,018,22,10,17,298,27,17,40,068,29,19,45,101,26*7E

3:09:27:590 Nachm. 03/28/17 - $GPGSV,3,2,12,24,71,286,26,28,08,056,19,32,06,320,16,12,42,232,*7D

3:09:27:598 Nachm. 03/28/17 - $GPGSV,3,3,12,13,20,158,,15,43,192,,18,14,270,,25,02,237,*75

3:09:27:599 Nachm. 03/28/17 - $GLGSV,3,1,09,74,35,282,20,82,35,050,26,73,68,035,22,80,24,077,25*69

3:09:27:606 Nachm. 03/28/17 - $GLGSV,3,2,09,65,16,337,18,81,06,008,20,72,40,288,17,83,30,116,*69

3:09:27:615 Nachm. 03/28/17 - $GLGSV,3,3,09,71,28,224,*54

3:09:27:617 Nachm. 03/28/17 - $GPGGA,130923.0,5208.353227,N,01138.609594,E,1,05,1.9,53.0,M,45.0,M,,*6D

3:09:27:617 Nachm. 03/28/17 - $GNGNS,130923.0,5208.353227,N,01138.609594,E,AA,09,1.9,53.0,45.0,,*55

3:09:27:618 Nachm. 03/28/17 - $GPVTG,121.5,T,121.1,M,0.0,N,0.0,K,A*27

3:09:27:618 Nachm. 03/28/17 - $GPRMC,130923.0,A,5208.353227,N,01138.609594,E,0.0,121.5,280317,0.4,E,A*02

3:09:27:619 Nachm. 03/28/17 - $GPGSA,A,2,10,17,19,24,28,,,,,,,,2.1,1.9,0.9*32

3:09:27:620 Nachm. 03/28/17 - $GNGSA,A,2,10,17,19,24,28,,,,,,,,2.1,1.9,0.9*2C

3:09:27:620 Nachm. 03/28/17 - $GNGSA,A,2,72,73,74,82,,,,,,,,,2.1,1.9,0.9*27

3:09:28:583 Nachm. 03/28/17 - $GPGSV,3,1,12,01,05,018,23,10,17,298,26,17,40,068,28,19,45,101,25*7C

3:09:28:584 Nachm. 03/28/17 - $GPGSV,3,2,12,24,71,286,27,28,08,056,19,32,06,320,16,12,42,232,*7C

3:09:28:585 Nachm. 03/28/17 - $GPGSV,3,3,12,13,20,158,,15,43,192,,18,14,270,,25,02,237,*75

3:09:28:585 Nachm. 03/28/17 - $GLGSV,3,1,09,74,35,282,20,82,35,050,26,73,68,035,23,80,24,077,25*68

3:09:28:592 Nachm. 03/28/17 - $GLGSV,3,2,09,65,16,337,18,81,06,008,19,72,40,288,17,83,30,116,*63

3:09:28:594 Nachm. 03/28/17 - $GLGSV,3,3,09,71,28,224,*54

3:09:28:595 Nachm. 03/28/17 - $GPGGA,130924.0,5208.353236,N,01138.609620,E,1,05,1.9,53.1,M,45.0,M,,*67

3:09:28:595 Nachm. 03/28/17 - $GNGNS,130924.0,5208.353236,N,01138.609620,E,AA,09,1.9,53.1,45.0,,*5F

3:09:28:595 Nachm. 03/28/17 - $GPVTG,121.5,T,121.1,M,0.0,N,0.0,K,A*27

3:09:28:595 Nachm. 03/28/17 - $GPRMC,130924.0,A,5208.353236,N,01138.609620,E,0.0,121.5,280317,0.4,E,A*09

3:09:28:596 Nachm. 03/28/17 - $GPGSA,A,2,10,17,19,24,28,,,,,,,,2.1,1.9,0.9*32

3:09:28:596 Nachm. 03/28/17 - $GNGSA,A,2,10,17,19,24,28,,,,,,,,2.1,1.9,0.9*2C

3:09:28:597 Nachm. 03/28/17 - $GNGSA,A,2,72,73,74,82,,,,,,,,,2.1,1.9,0.9*27

3:09:29:584 Nachm. 03/28/17 - $GPGSV,3,1,12,01,05,018,22,10,17,298,26,17,40,068,29,19,45,101,26*7F

3:09:29:586 Nachm. 03/28/17 - $GPGSV,3,2,12,24,71,286,27,28,08,056,16,32,06,320,16,12,42,232,*73

3:09:29:586 Nachm. 03/28/17 - $GPGSV,3,3,12,13,20,158,,15,43,192,,18,14,270,,25,02,237,*75

3:09:29:587 Nachm. 03/28/17 - $GLGSV,3,1,09,74,35,282,21,82,35,050,27,73,68,035,24,80,24,077,25*6F

3:09:29:599 Nachm. 03/28/17 - $GLGSV,3,2,09,65,16,337,16,81,06,008,20,72,40,288,17,83,30,116,*67

3:09:29:600 Nachm. 03/28/17 - $GLGSV,3,3,09,71,28,224,*54

3:09:29:600 Nachm. 03/28/17 - $GPGGA,130925.0,5208.353253,N,01138.609670,E,1,05,1.9,53.2,M,45.0,M,,*63

3:09:29:600 Nachm. 03/28/17 - $GNGNS,130925.0,5208.353253,N,01138.609670,E,AA,09,1.9,53.2,45.0,,*5B

3:09:29:603 Nachm. 03/28/17 - $GPVTG,121.5,T,121.1,M,0.0,N,0.0,K,A*27

3:09:29:604 Nachm. 03/28/17 - $GPRMC,130925.0,A,5208.353253,N,01138.609670,E,0.0,121.5,280317,0.4,E,A*0E

3:09:29:604 Nachm. 03/28/17 - $GPGSA,A,2,10,17,19,24,28,,,,,,,,2.1,1.9,0.9*32

3:09:29:605 Nachm. 03/28/17 - $GNGSA,A,2,10,17,19,24,28,,,,,,,,2.1,1.9,0.9*2C

3:09:29:605 Nachm. 03/28/17 - $GNGSA,A,2,72,73,74,82,,,,,,,,,2.1,1.9,0.9*27

3:09:30:584 Nachm. 03/28/17 - $GPGSV,3,1,12,01,05,018,21,10,17,298,26,17,40,068,29,19,45,101,25*7F

3:09:30:588 Nachm. 03/28/17 - $GPGSV,3,2,12,24,71,286,27,28,08,056,19,32,06,320,16,12,42,232,*7C

3:09:30:588 Nachm. 03/28/17 - $GPGSV,3,3,12,13,20,158,,15,43,192,,18,14,270,,25,02,237,*75

3:09:30:588 Nachm. 03/28/17 - $GLGSV,3,1,09,74,35,282,20,82,35,050,26,73,68,035,23,80,24,077,25*68

3:09:30:593 Nachm. 03/28/17 - $GLGSV,3,2,09,65,16,337,16,81,06,008,19,72,40,288,18,83,30,116,*62

3:09:30:596 Nachm. 03/28/17 - $GLGSV,3,3,09,71,28,224,*54

3:09:30:607 Nachm. 03/28/17 - $GPGGA,130926.0,5208.353253,N,01138.609699,E,1,05,1.9,53.2,M,45.0,M,,*67

3:09:30:608 Nachm. 03/28/17 - $GNGNS,130926.0,5208.353253,N,01138.609699,E,AA,09,1.9,53.2,45.0,,*5F

3:09:30:608 Nachm. 03/28/17 - $GPVTG,121.5,T,121.1,M,0.0,N,0.0,K,A*27

3:09:30:608 Nachm. 03/28/17 - $GPRMC,130926.0,A,5208.353253,N,01138.609699,E,0.0,121.5,280317,0.4,E,A*0A

3:09:30:609 Nachm. 03/28/17 - $GPGSA,A,2,10,17,19,24,28,,,,,,,,2.1,1.9,0.9*32

3:09:30:609 Nachm. 03/28/17 - $GNGSA,A,2,10,17,19,24,28,,,,,,,,2.1,1.9,0.9*2C

3:09:30:610 Nachm. 03/28/17 - $GNGSA,A,2,72,73,74,82,,,,,,,,,2.1,1.9,0.9*27

3:09:31:584 Nachm. 03/28/17 - $GPGSV,3,1,12,01,05,018,22,10,17,298,25,17,40,068,30,19,45,101,26*74

3:09:31:584 Nachm. 03/28/17 - $GPGSV,3,2,12,24,71,286,27,28,08,056,19,32,06,320,16,12,42,232,*7C

3:09:31:585 Nachm. 03/28/17 - $GPGSV,3,3,12,13,20,158,,15,43,192,,18,14,270,,25,02,237,*75

3:09:31:588 Nachm. 03/28/17 - $GLGSV,3,1,09,74,35,282,19,82,35,050,25,73,68,035,23,80,24,077,25*61

3:09:31:589 Nachm. 03/28/17 - $GLGSV,3,2,09,65,16,337,16,81,06,008,21,72,40,288,18,83,30,116,*69

3:09:31:591 Nachm. 03/28/17 - $GLGSV,3,3,09,71,28,224,*54

3:09:31:591 Nachm. 03/28/17 - $GPGGA,130927.0,5208.353256,N,01138.609721,E,1,05,1.9,53.3,M,45.0,M,,*60

3:09:31:592 Nachm. 03/28/17 - $GNGNS,130927.0,5208.353256,N,01138.609721,E,AA,09,1.9,53.3,45.0,,*58

3:09:31:592 Nachm. 03/28/17 - $GPVTG,121.5,T,121.1,M,0.0,N,0.0,K,A*27

3:09:31:595 Nachm. 03/28/17 - $GPRMC,130927.0,A,5208.353256,N,01138.609721,E,0.0,121.5,280317,0.4,E,A*0C

3:09:31:603 Nachm. 03/28/17 - $GPGSA,A,2,10,17,19,24,28,,,,,,,,2.1,1.9,0.9*32

3:09:31:604 Nachm. 03/28/17 - $GNGSA,A,2,10,17,19,24,28,,,,,,,,2.1,1.9,0.9*2C

3:09:31:604 Nachm. 03/28/17 - $GNGSA,A,2,72,73,74,82,,,,,,,,,2.1,1.9,0.9*27

3:09:32:583 Nachm. 03/28/17 - $GPGSV,3,1,12,01,05,018,21,10,17,298,25,17,40,068,29,19,45,101,27*7E

3:09:32:583 Nachm. 03/28/17 - $GPGSV,3,2,12,24,71,286,26,28,08,056,18,32,06,320,16,12,42,232,*7C

3:09:32:584 Nachm. 03/28/17 - $GPGSV,3,3,12,13,20,158,,15,43,192,,18,14,270,,25,02,237,*75

3:09:32:584 Nachm. 03/28/17 - $GLGSV,3,1,09,74,35,282,19,82,35,050,25,73,68,035,22,80,24,077,25*60

3:09:32:584 Nachm. 03/28/17 - $GLGSV,3,2,09,65,16,337,18,81,06,008,20,72,40,288,17,83,30,116,*69

3:09:32:585 Nachm. 03/28/17 - $GLGSV,3,3,09,71,28,224,*54

3:09:32:585 Nachm. 03/28/17 - $GPGGA,130928.0,5208.353264,N,01138.609739,E,1,05,1.9,53.3,M,45.0,M,,*67

3:09:32:585 Nachm. 03/28/17 - $GNGNS,130928.0,5208.353264,N,01138.609739,E,AA,09,1.9,53.3,45.0,,*5F

3:09:32:586 Nachm. 03/28/17 - $GPVTG,121.5,T,121.1,M,0.0,N,0.0,K,A*27

3:09:32:586 Nachm. 03/28/17 - $GPRMC,130928.0,A,5208.353264,N,01138.609739,E,0.0,121.5,280317,0.4,E,A*0B

3:09:32:595 Nachm. 03/28/17 - $GPGSA,A,2,10,17,19,24,28,,,,,,,,2.1,1.9,0.9*32

3:09:32:596 Nachm. 03/28/17 - $GNGSA,A,2,10,17,19,24,28,,,,,,,,2.1,1.9,0.9*2C

3:09:32:597 Nachm. 03/28/17 - $GNGSA,A,2,72,73,74,82,,,,,,,,,2.1,1.9,0.9*27

3:09:33:584 Nachm. 03/28/17 - $GPGSV,3,1,12,01,05,018,21,10,17,298,26,17,40,068,30,19,45,101,26*74

3:09:33:584 Nachm. 03/28/17 - $GPGSV,3,2,12,24,71,286,28,28,08,056,16,32,06,320,16,12,42,232,*7C

3:09:33:584 Nachm. 03/28/17 - $GPGSV,3,3,12,13,20,158,,15,43,192,,18,14,270,,25,02,237,*75

3:09:33:584 Nachm. 03/28/17 - $GLGSV,3,1,09,74,35,282,19,82,35,050,26,73,68,035,23,80,24,077,25*62

3:09:33:590 Nachm. 03/28/17 - $GLGSV,3,2,09,65,16,337,17,81,06,008,19,72,40,288,16,83,30,116,*6D

3:09:33:596 Nachm. 03/28/17 - $GLGSV,3,3,09,71,28,224,*54

3:09:33:597 Nachm. 03/28/17 - $GPGGA,130929.0,5208.353281,N,01138.609770,E,1,05,1.9,53.4,M,45.0,M,,*67

3:09:33:597 Nachm. 03/28/17 - $GNGNS,130929.0,5208.353281,N,01138.609770,E,AA,09,1.9,53.4,45.0,,*5F

3:09:33:597 Nachm. 03/28/17 - $GPVTG,121.5,T,121.1,M,0.0,N,0.0,K,A*27

3:09:33:597 Nachm. 03/28/17 - $GPRMC,130929.0,A,5208.353281,N,01138.609770,E,0.0,121.5,280317,0.4,E,A*0C

3:09:33:604 Nachm. 03/28/17 - $GPGSA,A,2,10,17,19,24,28,,,,,,,,2.1,1.9,0.9*32

3:09:33:605 Nachm. 03/28/17 - $GNGSA,A,2,10,17,19,24,28,,,,,,,,2.1,1.9,0.9*2C

3:09:33:605 Nachm. 03/28/17 - $GNGSA,A,2,72,73,74,82,,,,,,,,,2.1,1.9,0.9*27

3:09:34:583 Nachm. 03/28/17 - $GPGSV,3,1,12,01,05,018,21,10,17,298,25,17,40,068,30,19,45,101,25*74

3:09:34:583 Nachm. 03/28/17 - $GPGSV,3,2,12,24,71,286,27,28,08,056,16,32,06,320,16,12,42,232,*73

3:09:34:583 Nachm. 03/28/17 - $GPGSV,3,3,12,13,20,158,,15,43,192,,18,14,270,,25,02,237,*75

3:09:34:585 Nachm. 03/28/17 - $GLGSV,3,1,09,74,35,282,16,82,35,050,26,73,68,035,22,80,24,077,24*6D

3:09:34:585 Nachm. 03/28/17 - $GLGSV,3,2,09,65,16,337,17,81,06,008,19,72,40,288,18,83,30,116,*63

3:09:34:585 Nachm. 03/28/17 - $GLGSV,3,3,09,71,28,224,*54

3:09:34:585 Nachm. 03/28/17 - $GPGGA,130930.0,5208.353288,N,01138.609774,E,1,05,1.9,53.4,M,45.0,M,,*62

3:09:34:587 Nachm. 03/28/17 - $GNGNS,130930.0,5208.353288,N,01138.609774,E,AA,09,1.9,53.4,45.0,,*5A

3:09:34:588 Nachm. 03/28/17 - $GPVTG,121.5,T,121.1,M,0.0,N,0.0,K,A*27

3:09:34:590 Nachm. 03/28/17 - $GPRMC,130930.0,A,5208.353288,N,01138.609774,E,0.0,121.5,280317,0.4,E,A*09

3:09:34:591 Nachm. 03/28/17 - $GPGSA,A,2,10,17,19,24,28,,,,,,,,2.1,1.9,0.9*32

3:09:34:591 Nachm. 03/28/17 - $GNGSA,A,2,10,17,19,24,28,,,,,,,,2.1,1.9,0.9*2C

3:09:34:592 Nachm. 03/28/17 - $GNGSA,A,2,72,73,74,82,,,,,,,,,2.1,1.9,0.9*27

3:09:35:584 Nachm. 03/28/17 - $GPGSV,3,1,12,01,05,018,20,10,17,298,24,17,40,068,29,19,45,101,25*7C

3:09:35:585 Nachm. 03/28/17 - $GPGSV,3,2,12,24,71,286,26,28,08,056,16,32,06,320,13,12,42,232,*77

3:09:35:587 Nachm. 03/28/17 - $GPGSV,3,3,12,13,20,158,,15,43,192,,18,14,270,,25,02,237,*75

3:09:35:593 Nachm. 03/28/17 - $GLGSV,3,1,09,74,35,282,17,82,35,050,26,73,68,035,20,80,24,077,23*69

3:09:35:601 Nachm. 03/28/17 - $GLGSV,3,2,09,65,16,337,16,81,06,008,18,72,40,288,18,83,30,116,*63

3:09:35:602 Nachm. 03/28/17 - $GLGSV,3,3,09,71,28,224,*54

3:09:35:602 Nachm. 03/28/17 - $GPGGA,130931.0,5208.353299,N,01138.609781,E,1,05,1.9,53.4,M,45.0,M,,*69

3:09:35:602 Nachm. 03/28/17 - $GNGNS,130931.0,5208.353299,N,01138.609781,E,AA,09,1.9,53.4,45.0,,*51

3:09:35:602 Nachm. 03/28/17 - $GPVTG,121.5,T,121.1,M,0.0,N,0.0,K,A*27

3:09:35:604 Nachm. 03/28/17 - $GPRMC,130931.0,A,5208.353299,N,01138.609781,E,0.0,121.5,280317,0.4,E,A*02

3:09:35:604 Nachm. 03/28/17 - $GPGSA,A,2,10,17,19,24,28,,,,,,,,2.1,1.9,0.9*32

3:09:35:605 Nachm. 03/28/17 - $GNGSA,A,2,10,17,19,24,28,,,,,,,,2.1,1.9,0.9*2C

3:09:35:605 Nachm. 03/28/17 - $GNGSA,A,2,72,73,74,82,,,,,,,,,2.1,1.9,0.9*27

3:09:36:583 Nachm. 03/28/17 - $GPGSV,3,1,12,01,05,018,21,10,17,298,21,17,40,068,29,19,45,101,25*78

3:09:36:584 Nachm. 03/28/17 - $GPGSV,3,2,12,24,71,286,28,28,08,056,14,32,06,320,13,12,42,232,*7B

3:09:36:584 Nachm. 03/28/17 - $GPGSV,3,3,12,13,20,158,,15,43,192,,18,14,270,,25,02,237,*75

3:09:36:586 Nachm. 03/28/17 - $GLGSV,3,1,09,74,35,282,19,82,35,050,28,73,68,035,21,80,24,077,25*6E

3:09:36:592 Nachm. 03/28/17 - $GLGSV,3,2,09,65,16,337,16,81,06,008,21,72,40,288,16,83,30,116,*67

3:09:36:598 Nachm. 03/28/17 - $GLGSV,3,3,09,71,28,224,*54

3:09:36:599 Nachm. 03/28/17 - $GPGGA,130932.0,5208.353307,N,01138.609784,E,1,05,1.9,53.4,M,45.0,M,,*69

3:09:36:599 Nachm. 03/28/17 - $GNGNS,130932.0,5208.353307,N,01138.609784,E,AA,09,1.9,53.4,45.0,,*51

3:09:36:599 Nachm. 03/28/17 - $GPVTG,121.5,T,121.1,M,0.0,N,0.0,K,A*27

3:09:36:599 Nachm. 03/28/17 - $GPRMC,130932.0,A,5208.353307,N,01138.609784,E,0.0,121.5,280317,0.4,E,A*02

3:09:36:600 Nachm. 03/28/17 - $GPGSA,A,2,10,17,19,24,28,,,,,,,,2.1,1.9,0.9*32

3:09:36:600 Nachm. 03/28/17 - $GNGSA,A,2,10,17,19,24,28,,,,,,,,2.1,1.9,0.9*2C

3:09:36:600 Nachm. 03/28/17 - $GNGSA,A,2,72,73,74,82,,,,,,,,,2.1,1.9,0.9*27

3:09:37:584 Nachm. 03/28/17 - $GPGSV,3,1,12,01,05,018,21,10,17,298,21,17,40,068,27,19,45,101,25*76

3:09:37:589 Nachm. 03/28/17 - $GPGSV,3,2,12,24,71,286,28,28,08,056,20,32,06,320,13,12,42,232,*7C

3:09:37:592 Nachm. 03/28/17 - $GPGSV,3,3,12,13,20,158,,15,43,192,,18,14,270,,25,02,237,*75

3:09:37:593 Nachm. 03/28/17 - $GLGSV,3,1,09,74,35,282,18,82,35,050,28,73,68,035,24,80,24,077,25*6A

3:09:37:594 Nachm. 03/28/17 - $GLGSV,3,2,09,65,16,337,23,81,06,008,19,72,40,288,16,83,30,116,*6A

3:09:37:595 Nachm. 03/28/17 - $GLGSV,3,3,09,71,28,224,*54

3:09:37:595 Nachm. 03/28/17 - $GPGGA,130933.0,5208.353301,N,01138.609787,E,1,05,1.9,53.4,M,45.0,M,,*6D

3:09:37:597 Nachm. 03/28/17 - $GNGNS,130933.0,5208.353301,N,01138.609787,E,AA,09,1.9,53.4,45.0,,*55

3:09:37:598 Nachm. 03/28/17 - $GPVTG,121.5,T,121.1,M,0.0,N,0.0,K,A*27

3:09:37:599 Nachm. 03/28/17 - $GPRMC,130933.0,A,5208.353301,N,01138.609787,E,0.0,121.5,280317,0.4,E,A*06

3:09:37:600 Nachm. 03/28/17 - $GPGSA,A,2,10,17,19,24,28,,,,,,,,2.1,1.9,0.9*32

3:09:37:601 Nachm. 03/28/17 - $GNGSA,A,2,10,17,19,24,28,,,,,,,,2.1,1.9,0.9*2C

3:09:37:602 Nachm. 03/28/17 - $GNGSA,A,2,72,73,74,82,,,,,,,,,2.1,1.9,0.9*27

3:09:38:583 Nachm. 03/28/17 - $GPGSV,3,1,12,01,05,018,21,10,17,298,21,12,42,232,13,17,40,068,27*7C

3:09:38:585 Nachm. 03/28/17 - $GPGSV,3,2,12,19,45,101,24,24,71,286,27,28,08,056,22,32,06,320,13*78

3:09:38:586 Nachm. 03/28/17 - $GPGSV,3,3,12,13,20,158,,15,43,192,,18,14,270,,25,02,237,*75

3:09:38:587 Nachm. 03/28/17 - $GLGSV,3,1,09,74,35,282,16,82,35,050,28,73,68,035,24,80,24,077,25*64

3:09:38:594 Nachm. 03/28/17 - $GLGSV,3,2,09,65,16,337,27,81,06,008,19,72,40,288,18,83,30,116,*60

3:09:38:596 Nachm. 03/28/17 - $GLGSV,3,3,09,71,28,224,*54

3:09:38:597 Nachm. 03/28/17 - $GPGGA,130934.0,5208.353291,N,01138.609784,E,1,06,1.4,53.4,M,45.0,M,,*6F

3:09:38:597 Nachm. 03/28/17 - $GNGNS,130934.0,5208.353291,N,01138.609784,E,AA,10,1.4,53.4,45.0,,*5C

3:09:38:598 Nachm. 03/28/17 - $GPVTG,121.5,T,121.1,M,0.0,N,0.0,K,A*27

3:09:38:598 Nachm. 03/28/17 - $GPRMC,130934.0,A,5208.353291,N,01138.609784,E,0.0,121.5,280317,0.4,E,A*0A

3:09:38:599 Nachm. 03/28/17 - $GPGSA,A,2,10,12,17,19,24,28,,,,,,,1.6,1.4,0.9*38

3:09:38:599 Nachm. 03/28/17 - $GNGSA,A,2,10,12,17,19,24,28,,,,,,,1.6,1.4,0.9*26

3:09:38:600 Nachm. 03/28/17 - $GNGSA,A,2,72,73,74,82,,,,,,,,,1.6,1.4,0.9*2E

3:09:39:584 Nachm. 03/28/17 - $GPGSV,3,1,12,01,05,018,22,10,17,298,16,12,42,232,14,17,40,068,28*73

3:09:39:584 Nachm. 03/28/17 - $GPGSV,3,2,12,19,45,101,24,24,71,286,28,28,08,056,22,32,06,320,13*77

3:09:39:584 Nachm. 03/28/17 - $GPGSV,3,3,12,13,20,158,,15,43,192,,18,14,270,,25,02,237,*75

3:09:39:588 Nachm. 03/28/17 - $GLGSV,3,1,09,74,35,282,18,82,35,050,29,73,68,035,25,80,24,077,23*6C

3:09:39:592 Nachm. 03/28/17 - $GLGSV,3,2,09,65,16,337,27,81,06,008,21,72,40,288,17,83,30,116,*64

3:09:39:592 Nachm. 03/28/17 - $GLGSV,3,3,09,71,28,224,*54

3:09:39:592 Nachm. 03/28/17 - $GPGGA,130935.0,5208.353295,N,01138.609786,E,1,06,1.4,53.4,M,45.0,M,,*68

3:09:39:597 Nachm. 03/28/17 - $GNGNS,130935.0,5208.353295,N,01138.609786,E,AA,10,1.4,53.4,45.0,,*5B

3:09:39:600 Nachm. 03/28/17 - $GPVTG,121.5,T,121.1,M,0.0,N,0.0,K,A*27

3:09:39:603 Nachm. 03/28/17 - $GPRMC,130935.0,A,5208.353295,N,01138.609786,E,0.0,121.5,280317,0.4,E,A*0D

3:09:39:604 Nachm. 03/28/17 - $GPGSA,A,2,10,12,17,19,24,28,,,,,,,1.6,1.4,0.9*38

3:09:39:607 Nachm. 03/28/17 - $GNGSA,A,2,10,12,17,19,24,28,,,,,,,1.6,1.4,0.9*26

3:09:39:607 Nachm. 03/28/17 - $GNGSA,A,2,72,73,74,82,,,,,,,,,1.6,1.4,0.9*2E

3:09:40:583 Nachm. 03/28/17 - $GPGSV,3,1,12,01,05,018,21,10,17,298,16,12,42,232,15,17,40,068,27*7E

3:09:40:584 Nachm. 03/28/17 - $GPGSV,3,2,12,19,45,101,23,24,71,286,28,28,08,056,23,32,06,320,13*71

3:09:40:585 Nachm. 03/28/17 - $GPGSV,3,3,12,13,20,158,,15,43,192,,18,14,270,,25,02,237,*75

3:09:40:585 Nachm. 03/28/17 - $GLGSV,3,1,09,74,35,282,19,82,35,050,29,73,68,035,25,80,24,077,24*6A

3:09:40:590 Nachm. 03/28/17 - $GLGSV,3,2,09,65,16,337,27,81,06,008,21,72,40,288,18,83,30,116,*6B

3:09:40:591 Nachm. 03/28/17 - $GLGSV,3,3,09,71,28,224,*54

3:09:40:592 Nachm. 03/28/17 - $GPGGA,130936.0,5208.353289,N,01138.609788,E,1,06,1.4,53.4,M,45.0,M,,*68

3:09:40:593 Nachm. 03/28/17 - $GNGNS,130936.0,5208.353289,N,01138.609788,E,AA,10,1.4,53.4,45.0,,*5B

3:09:40:593 Nachm. 03/28/17 - $GPVTG,121.5,T,121.1,M,0.0,N,0.0,K,A*27

3:09:40:594 Nachm. 03/28/17 - $GPRMC,130936.0,A,5208.353289,N,01138.609788,E,0.0,121.5,280317,0.4,E,A*0D

3:09:40:595 Nachm. 03/28/17 - $GPGSA,A,2,10,12,17,19,24,28,,,,,,,1.6,1.4,0.9*38

3:09:40:596 Nachm. 03/28/17 - $GNGSA,A,2,10,12,17,19,24,28,,,,,,,1.6,1.4,0.9*26

3:09:40:597 Nachm. 03/28/17 - $GNGSA,A,2,72,73,74,82,,,,,,,,,1.6,1.4,0.9*2E

3:09:41:583 Nachm. 03/28/17 - $GPGSV,3,1,12,01,05,018,22,10,17,298,15,12,42,232,15,17,40,068,27*7E

3:09:41:583 Nachm. 03/28/17 - $GPGSV,3,2,12,19,45,101,23,24,71,286,28,28,08,056,25,32,06,320,13*77

3:09:41:583 Nachm. 03/28/17 - $GPGSV,3,3,12,13,20,158,,15,43,192,,18,14,270,,25,02,237,*75

3:09:41:586 Nachm. 03/28/17 - $GLGSV,3,1,09,74,35,282,18,82,35,050,29,73,68,035,25,80,24,077,23*6C

3:09:41:589 Nachm. 03/28/17 - $GLGSV,3,2,09,65,16,337,28,81,06,008,20,72,40,288,18,83,30,116,*65

3:09:41:590 Nachm. 03/28/17 - $GLGSV,3,3,09,71,28,224,*54

3:09:41:590 Nachm. 03/28/17 - $GPGGA,130937.0,5208.353284,N,01138.609784,E,1,06,1.4,53.4,M,45.0,M,,*68

3:09:41:591 Nachm. 03/28/17 - $GNGNS,130937.0,5208.353284,N,01138.609784,E,AA,10,1.4,53.4,45.0,,*5B

3:09:41:591 Nachm. 03/28/17 - $GPVTG,121.5,T,121.1,M,0.0,N,0.0,K,A*27

3:09:41:594 Nachm. 03/28/17 - $GPRMC,130937.0,A,5208.353284,N,01138.609784,E,0.0,121.5,280317,0.4,E,A*0D

3:09:41:594 Nachm. 03/28/17 - $GPGSA,A,2,10,12,17,19,24,28,,,,,,,1.6,1.4,0.9*38

3:09:41:594 Nachm. 03/28/17 - $GNGSA,A,2,10,12,17,19,24,28,,,,,,,1.6,1.4,0.9*26

3:09:41:595 Nachm. 03/28/17 - $GNGSA,A,2,72,73,74,82,,,,,,,,,1.6,1.4,0.9*2E

3:09:42:584 Nachm. 03/28/17 - $GPGSV,3,1,12,01,05,018,21,10,17,298,17,12,42,232,15,17,40,068,29*71

3:09:42:584 Nachm. 03/28/17 - $GPGSV,3,2,12,19,45,101,24,24,71,286,29,28,08,056,23,32,06,320,13*77

3:09:42:584 Nachm. 03/28/17 - $GPGSV,3,3,12,13,20,158,,15,43,192,,18,14,270,,25,02,237,*75

3:09:42:585 Nachm. 03/28/17 - $GLGSV,3,1,09,74,35,282,17,82,35,050,30,73,68,035,24,80,24,077,23*6A

3:09:42:590 Nachm. 03/28/17 - $GLGSV,3,2,09,65,16,337,22,81,06,008,21,72,40,288,18,83,30,116,*6E

3:09:42:591 Nachm. 03/28/17 - $GLGSV,3,3,09,71,28,224,*54

3:09:42:592 Nachm. 03/28/17 - $GPGGA,130938.0,5208.353271,N,01138.609784,E,1,06,1.4,53.4,M,45.0,M,,*6D

3:09:42:592 Nachm. 03/28/17 - $GNGNS,130938.0,5208.353271,N,01138.609784,E,AA,10,1.4,53.4,45.0,,*5E

3:09:42:592 Nachm. 03/28/17 - $GPVTG,121.5,T,121.1,M,0.0,N,0.0,K,A*27

3:09:42:592 Nachm. 03/28/17 - $GPRMC,130938.0,A,5208.353271,N,01138.609784,E,0.0,121.5,280317,0.4,E,A*08

3:09:42:593 Nachm. 03/28/17 - $GPGSA,A,2,10,12,17,19,24,28,,,,,,,1.6,1.4,0.9*38

3:09:42:593 Nachm. 03/28/17 - $GNGSA,A,2,10,12,17,19,24,28,,,,,,,1.6,1.4,0.9*26

3:09:42:593 Nachm. 03/28/17 - $GNGSA,A,2,72,73,74,82,,,,,,,,,1.6,1.4,0.9*2E


