2:57:25:584 Nachm. 03/28/17 - $GPGSV,3,1,11,10,18,303,14,12,36,229,30,13,26,158,24,15,48,196,33*70

2:57:25:585 Nachm. 03/28/17 - $GPGSV,3,2,11,17,41,075,24,19,42,108,22,24,66,286,18,28,13,054,16*75

2:57:25:586 Nachm. 03/28/17 - $GPGSV,3,3,11,01,05,023,,18,16,274,,32,02,322,*43

2:57:25:590 Nachm. 03/28/17 - $GLGSV,2,1,08,82,35,057,25,73,72,016,20,,,,18,83,25,120,15*51

2:57:25:590 Nachm. 03/28/17 - $GLGSV,2,2,08,71,33,229,27,70,,,,65,11,341,,72,40,298,*57

2:57:25:590 Nachm. 03/28/17 - $GPGGA,125721.0,5208.423267,N,01138.446784,E,1,09,0.8,70.2,M,45.0,M,,*64

2:57:25:590 Nachm. 03/28/17 - $GNGNS,125721.0,5208.423267,N,01138.446784,E,AA,13,0.8,70.2,45.0,,*5B

2:57:25:597 Nachm. 03/28/17 - $GPVTG,132.5,T,132.1,M,0.0,N,0.0,K,A*27

2:57:25:598 Nachm. 03/28/17 - $GPRMC,125721.0,A,5208.423267,N,01138.446784,E,0.0,132.5,280317,0.4,E,A*06

2:57:25:598 Nachm. 03/28/17 - $GPGSA,A,2,10,12,13,15,17,18,19,24,28,,,,1.1,0.8,0.8*3C

2:57:25:599 Nachm. 03/28/17 - $GNGSA,A,2,10,12,13,15,17,18,19,24,28,,,,1.1,0.8,0.8*22

2:57:25:600 Nachm. 03/28/17 - $GNGSA,A,2,71,73,82,83,,,,,,,,,1.1,0.8,0.8*2E

2:57:26:586 Nachm. 03/28/17 - $GPGSV,3,1,11,10,18,303,14,12,36,229,30,13,26,158,24,15,48,196,33*70

2:57:26:588 Nachm. 03/28/17 - $GPGSV,3,2,11,17,41,075,27,19,42,108,19,24,66,286,18,28,13,054,18*70

2:57:26:589 Nachm. 03/28/17 - $GPGSV,3,3,11,01,05,023,,18,16,274,,32,02,322,*43

2:57:26:602 Nachm. 03/28/17 - $GLGSV,2,1,08,82,35,057,24,73,72,016,17,,,,18,83,25,120,14*55

2:57:26:603 Nachm. 03/28/17 - $GLGSV,2,2,08,71,33,229,25,70,,,,65,11,341,,72,40,298,*55

2:57:26:604 Nachm. 03/28/17 - $GPGGA,125722.0,5208.423303,N,01138.446752,E,1,09,0.8,70.2,M,45.0,M,,*6F

2:57:26:604 Nachm. 03/28/17 - $GNGNS,125722.0,5208.423303,N,01138.446752,E,AA,13,0.8,70.2,45.0,,*50

2:57:26:604 Nachm. 03/28/17 - $GPVTG,132.5,T,132.1,M,0.0,N,0.0,K,A*27

2:57:26:605 Nachm. 03/28/17 - $GPRMC,125722.0,A,5208.423303,N,01138.446752,E,0.0,132.5,280317,0.4,E,A*0D

2:57:26:605 Nachm. 03/28/17 - $GPGSA,A,2,10,12,13,15,17,18,19,24,28,,,,1.1,0.8,0.8*3C

2:57:26:605 Nachm. 03/28/17 - $GNGSA,A,2,10,12,13,15,17,18,19,24,28,,,,1.1,0.8,0.8*22

2:57:26:605 Nachm. 03/28/17 - $GNGSA,A,2,71,73,82,83,,,,,,,,,1.1,0.8,0.8*2E

2:57:27:586 Nachm. 03/28/17 - $GPGSV,3,1,11,10,18,303,13,12,36,229,31,13,26,158,22,15,48,196,35*76

2:57:27:587 Nachm. 03/28/17 - $GPGSV,3,2,11,17,41,075,27,19,42,108,19,24,66,286,18,28,13,054,18*70

2:57:27:588 Nachm. 03/28/17 - $GPGSV,3,3,11,01,05,023,,18,16,274,,32,02,322,*43

2:57:27:588 Nachm. 03/28/17 - $GLGSV,2,1,08,82,35,057,28,73,72,016,17,,,,18,83,25,120,14*59

2:57:27:598 Nachm. 03/28/17 - $GLGSV,2,2,08,71,33,229,26,70,,,,65,11,341,,72,40,298,*56

2:57:27:599 Nachm. 03/28/17 - $GPGGA,125723.0,5208.423286,N,01138.446763,E,1,09,0.8,70.2,M,45.0,M,,*60

2:57:27:600 Nachm. 03/28/17 - $GNGNS,125723.0,5208.423286,N,01138.446763,E,AA,13,0.8,70.2,45.0,,*5F

2:57:27:602 Nachm. 03/28/17 - $GPVTG,132.5,T,132.1,M,0.0,N,0.0,K,A*27

2:57:27:603 Nachm. 03/28/17 - $GPRMC,125723.0,A,5208.423286,N,01138.446763,E,0.0,132.5,280317,0.4,E,A*02

2:57:27:604 Nachm. 03/28/17 - $GPGSA,A,2,10,12,13,15,17,18,19,24,28,,,,1.1,0.8,0.8*3C

2:57:27:605 Nachm. 03/28/17 - $GNGSA,A,2,10,12,13,15,17,18,19,24,28,,,,1.1,0.8,0.8*22

2:57:27:607 Nachm. 03/28/17 - $GNGSA,A,2,71,73,82,83,,,,,,,,,1.1,0.8,0.8*2E

2:57:28:586 Nachm. 03/28/17 - $GPGSV,3,1,11,10,18,303,13,12,36,229,30,13,26,158,22,15,48,196,34*76

2:57:28:588 Nachm. 03/28/17 - $GPGSV,3,2,11,17,41,075,26,19,42,108,19,24,66,286,23,28,13,054,18*79

2:57:28:592 Nachm. 03/28/17 - $GPGSV,3,3,11,01,05,023,,18,16,274,,32,02,322,*43

2:57:28:593 Nachm. 03/28/17 - $GLGSV,2,1,08,82,35,057,27,73,72,016,15,,,,18,83,25,120,15*55

2:57:28:609 Nachm. 03/28/17 - $GLGSV,2,2,08,71,33,229,26,70,,,,65,11,341,,72,40,298,*56

2:57:28:612 Nachm. 03/28/17 - $GPGGA,125724.0,5208.423314,N,01138.446727,E,1,09,0.8,70.3,M,45.0,M,,*6C

2:57:28:612 Nachm. 03/28/17 - $GNGNS,125724.0,5208.423314,N,01138.446727,E,AA,13,0.8,70.3,45.0,,*53

2:57:28:612 Nachm. 03/28/17 - $GPVTG,132.5,T,132.1,M,0.0,N,0.0,K,A*27

2:57:28:613 Nachm. 03/28/17 - $GPRMC,125724.0,A,5208.423314,N,01138.446727,E,0.0,132.5,280317,0.4,E,A*0F

2:57:28:618 Nachm. 03/28/17 - $GPGSA,A,2,10,12,13,15,17,18,19,24,28,,,,1.1,0.8,0.8*3C

2:57:28:619 Nachm. 03/28/17 - $GNGSA,A,2,10,12,13,15,17,18,19,24,28,,,,1.1,0.8,0.8*22

2:57:28:620 Nachm. 03/28/17 - $GNGSA,A,2,71,73,82,83,,,,,,,,,1.1,0.8,0.8*2E

2:57:29:586 Nachm. 03/28/17 - $GPGSV,3,1,11,10,18,303,13,12,36,229,31,13,26,158,23,15,48,196,34*76

2:57:29:588 Nachm. 03/28/17 - $GPGSV,3,2,11,17,41,075,19,19,42,108,22,24,66,286,23,28,13,054,16*73

2:57:29:591 Nachm. 03/28/17 - $GPGSV,3,3,11,01,05,023,,18,16,274,,32,02,322,*43

2:57:29:593 Nachm. 03/28/17 - $GLGSV,2,1,08,82,35,057,26,73,72,016,15,,,,18,83,25,120,15*54

2:57:29:594 Nachm. 03/28/17 - $GLGSV,2,2,08,71,33,229,27,70,,,,65,11,341,,72,40,298,*57

2:57:29:596 Nachm. 03/28/17 - $GPGGA,125725.0,5208.423297,N,01138.446739,E,1,09,0.8,70.3,M,45.0,M,,*68

2:57:29:600 Nachm. 03/28/17 - $GNGNS,125725.0,5208.423297,N,01138.446739,E,AA,13,0.8,70.3,45.0,,*57

2:57:29:605 Nachm. 03/28/17 - $GPVTG,132.5,T,132.1,M,0.0,N,0.0,K,A*27

2:57:29:605 Nachm. 03/28/17 - $GPRMC,125725.0,A,5208.423297,N,01138.446739,E,0.0,132.5,280317,0.4,E,A*0B

2:57:29:605 Nachm. 03/28/17 - $GPGSA,A,2,10,12,13,15,17,18,19,24,28,,,,1.1,0.8,0.8*3C

2:57:29:606 Nachm. 03/28/17 - $GNGSA,A,2,10,12,13,15,17,18,19,24,28,,,,1.1,0.8,0.8*22

2:57:29:606 Nachm. 03/28/17 - $GNGSA,A,2,71,73,82,83,,,,,,,,,1.1,0.8,0.8*2E

2:57:30:587 Nachm. 03/28/17 - $GPGSV,3,1,11,10,18,303,13,12,36,229,31,13,26,158,27,15,48,196,34*72

2:57:30:587 Nachm. 03/28/17 - $GPGSV,3,2,11,17,41,075,24,19,42,108,18,24,66,286,23,28,13,054,23*72

2:57:30:588 Nachm. 03/28/17 - $GPGSV,3,3,11,01,05,023,,18,16,274,,32,02,322,*43

2:57:30:591 Nachm. 03/28/17 - $GLGSV,2,1,08,82,35,057,24,73,72,016,20,,,,18,83,25,120,15*50

2:57:30:593 Nachm. 03/28/17 - $GLGSV,2,2,08,71,33,229,26,70,,,,65,11,341,,72,40,298,*56

2:57:30:595 Nachm. 03/28/17 - $GPGGA,125726.0,5208.423334,N,01138.446696,E,1,08,0.8,70.2,M,45.0,M,,*67

2:57:30:596 Nachm. 03/28/17 - $GNGNS,125726.0,5208.423334,N,01138.446696,E,AA,12,0.8,70.2,45.0,,*58

2:57:30:610 Nachm. 03/28/17 - $GPVTG,132.5,T,132.1,M,0.0,N,0.0,K,A*27

2:57:30:611 Nachm. 03/28/17 - $GPRMC,125726.0,A,5208.423334,N,01138.446696,E,0.0,132.5,280317,0.4,E,A*04

2:57:30:611 Nachm. 03/28/17 - $GPGSA,A,2,10,12,13,15,17,19,24,28,,,,,1.1,0.8,0.8*35

2:57:30:611 Nachm. 03/28/17 - $GNGSA,A,2,10,12,13,15,17,19,24,28,,,,,1.1,0.8,0.8*2B

2:57:30:611 Nachm. 03/28/17 - $GNGSA,A,2,71,73,82,83,,,,,,,,,1.1,0.8,0.8*2E

2:57:31:587 Nachm. 03/28/17 - $GPGSV,3,1,11,10,18,303,13,12,36,229,32,13,26,158,27,15,48,196,34*71

2:57:31:592 Nachm. 03/28/17 - $GPGSV,3,2,11,17,41,075,26,19,42,108,19,24,66,286,19,28,13,054,24*7F

2:57:31:593 Nachm. 03/28/17 - $GPGSV,3,3,11,01,05,023,,18,16,274,,32,02,322,*43

2:57:31:608 Nachm. 03/28/17 - $GLGSV,2,1,08,82,35,057,25,73,72,016,24,,,,18,83,25,120,15*55

2:57:31:609 Nachm. 03/28/17 - $GLGSV,2,2,08,71,33,229,28,70,,,,65,11,341,,72,40,298,*58

2:57:31:610 Nachm. 03/28/17 - $GPGGA,125727.0,5208.423337,N,01138.446682,E,1,08,0.8,70.3,M,45.0,M,,*61

2:57:31:610 Nachm. 03/28/17 - $GNGNS,125727.0,5208.423337,N,01138.446682,E,AA,12,0.8,70.3,45.0,,*5E

2:57:31:611 Nachm. 03/28/17 - $GPVTG,132.5,T,132.1,M,0.0,N,0.0,K,A*27

2:57:31:612 Nachm. 03/28/17 - $GPRMC,125727.0,A,5208.423337,N,01138.446682,E,0.0,132.5,280317,0.4,E,A*03

2:57:31:612 Nachm. 03/28/17 - $GPGSA,A,2,10,12,13,15,17,19,24,28,,,,,1.1,0.8,0.8*35

2:57:31:613 Nachm. 03/28/17 - $GNGSA,A,2,10,12,13,15,17,19,24,28,,,,,1.1,0.8,0.8*2B

2:57:31:613 Nachm. 03/28/17 - $GNGSA,A,2,71,73,82,83,,,,,,,,,1.1,0.8,0.8*2E

2:57:32:585 Nachm. 03/28/17 - $GPGSV,3,1,11,10,18,303,13,12,36,229,33,13,26,158,25,15,48,196,31*77

2:57:32:587 Nachm. 03/28/17 - $GPGSV,3,2,11,17,41,075,28,19,42,108,18,24,66,286,19,28,13,054,22*76

2:57:32:588 Nachm. 03/28/17 - $GPGSV,3,3,11,01,05,023,,18,16,274,,32,02,322,*43

2:57:32:591 Nachm. 03/28/17 - $GLGSV,2,1,08,82,35,057,26,73,72,016,22,,,,18,83,25,120,19*5C

2:57:32:606 Nachm. 03/28/17 - $GLGSV,2,2,08,71,33,229,30,70,,,,65,11,341,,72,40,298,*51

2:57:32:608 Nachm. 03/28/17 - $GPGGA,125728.0,5208.423628,N,01138.446292,E,1,08,0.8,70.7,M,45.0,M,,*64

2:57:32:609 Nachm. 03/28/17 - $GNGNS,125728.0,5208.423628,N,01138.446292,E,AA,12,0.8,70.7,45.0,,*5B

2:57:32:611 Nachm. 03/28/17 - $GPVTG,132.5,T,132.1,M,0.0,N,0.0,K,A*27

2:57:32:612 Nachm. 03/28/17 - $GPRMC,125728.0,A,5208.423628,N,01138.446292,E,0.0,132.5,280317,0.4,E,A*02

2:57:32:614 Nachm. 03/28/17 - $GPGSA,A,2,10,12,13,15,17,19,24,28,,,,,1.1,0.8,0.8*35

2:57:32:614 Nachm. 03/28/17 - $GNGSA,A,2,10,12,13,15,17,19,24,28,,,,,1.1,0.8,0.8*2B

2:57:32:615 Nachm. 03/28/17 - $GNGSA,A,2,71,73,82,83,,,,,,,,,1.1,0.8,0.8*2E

2:57:33:586 Nachm. 03/28/17 - $GPGSV,3,1,11,10,18,303,16,12,36,229,33,13,26,158,24,15,48,196,31*73

2:57:33:588 Nachm. 03/28/17 - $GPGSV,3,2,11,17,41,075,30,19,42,108,21,24,66,286,17,28,13,054,22*7B

2:57:33:591 Nachm. 03/28/17 - $GPGSV,3,3,11,01,05,023,,18,16,274,,32,02,322,*43

2:57:33:602 Nachm. 03/28/17 - $GLGSV,2,1,08,82,35,057,29,73,72,016,23,,,,18,83,25,120,20*58

2:57:33:608 Nachm. 03/28/17 - $GLGSV,2,2,08,71,33,229,29,70,,,,65,11,341,,72,40,298,*59

2:57:33:611 Nachm. 03/28/17 - $GPGGA,125729.0,5208.423610,N,01138.446292,E,1,08,0.8,71.5,M,45.0,M,,*6D

2:57:33:612 Nachm. 03/28/17 - $GNGNS,125729.0,5208.423610,N,01138.446292,E,AA,12,0.8,71.5,45.0,,*52

2:57:33:612 Nachm. 03/28/17 - $GPVTG,132.5,T,132.1,M,0.0,N,0.0,K,A*27

2:57:33:613 Nachm. 03/28/17 - $GPRMC,125729.0,A,5208.423610,N,01138.446292,E,0.0,132.5,280317,0.4,E,A*08

2:57:33:613 Nachm. 03/28/17 - $GPGSA,A,2,10,12,13,15,17,19,24,28,,,,,1.1,0.8,0.8*35

2:57:33:614 Nachm. 03/28/17 - $GNGSA,A,2,10,12,13,15,17,19,24,28,,,,,1.1,0.8,0.8*2B

2:57:33:615 Nachm. 03/28/17 - $GNGSA,A,2,71,73,82,83,,,,,,,,,1.1,0.8,0.8*2E

2:57:34:588 Nachm. 03/28/17 - $GPGSV,3,1,11,10,18,303,16,12,36,229,32,13,26,158,23,15,48,196,32*76

2:57:34:589 Nachm. 03/28/17 - $GPGSV,3,2,11,17,41,075,29,18,16,274,20,19,42,108,22,24,66,286,17*74

2:57:34:590 Nachm. 03/28/17 - $GPGSV,3,3,11,28,13,054,23,01,05,023,,32,02,322,*44

2:57:34:591 Nachm. 03/28/17 - $GLGSV,2,1,08,82,35,057,30,73,72,016,25,,,,18,83,25,120,21*57

2:57:34:599 Nachm. 03/28/17 - $GLGSV,2,2,08,71,33,229,29,70,,,,65,11,341,,72,40,298,*59

2:57:34:615 Nachm. 03/28/17 - $GPGGA,125730.0,5208.423512,N,01138.446442,E,1,09,0.8,71.7,M,45.0,M,,*6C

2:57:34:615 Nachm. 03/28/17 - $GNGNS,125730.0,5208.423512,N,01138.446442,E,AA,13,0.8,71.7,45.0,,*53

2:57:34:618 Nachm. 03/28/17 - $GPVTG,132.5,T,132.1,M,0.0,N,0.0,K,A*27

2:57:34:619 Nachm. 03/28/17 - $GPRMC,125730.0,A,5208.423512,N,01138.446442,E,0.0,132.5,280317,0.4,E,A*0A

2:57:34:619 Nachm. 03/28/17 - $GPGSA,A,2,10,12,13,15,17,18,19,24,28,,,,1.1,0.8,0.8*3C

2:57:34:620 Nachm. 03/28/17 - $GNGSA,A,2,10,12,13,15,17,18,19,24,28,,,,1.1,0.8,0.8*22

2:57:34:620 Nachm. 03/28/17 - $GNGSA,A,2,71,73,82,83,,,,,,,,,1.1,0.8,0.8*2E

2:57:35:586 Nachm. 03/28/17 - $GPGSV,3,1,11,10,18,303,17,12,36,229,32,13,26,158,25,15,48,196,33*70

2:57:35:591 Nachm. 03/28/17 - $GPGSV,3,2,11,17,41,075,28,18,16,274,20,19,42,108,20,24,66,286,17*77

2:57:35:592 Nachm. 03/28/17 - $GPGSV,3,3,11,28,13,054,21,01,05,023,,32,02,322,*46

2:57:35:595 Nachm. 03/28/17 - $GLGSV,2,1,08,82,35,057,30,73,72,016,26,,,,18,83,25,120,20*55

2:57:35:596 Nachm. 03/28/17 - $GLGSV,2,2,08,71,33,229,29,70,,,,65,11,341,,72,40,298,*59

2:57:35:597 Nachm. 03/28/17 - $GPGGA,125731.0,5208.423638,N,01138.446297,E,1,09,0.8,71.6,M,45.0,M,,*69

2:57:35:602 Nachm. 03/28/17 - $GNGNS,125731.0,5208.423638,N,01138.446297,E,AA,13,0.8,71.6,45.0,,*56

2:57:35:603 Nachm. 03/28/17 - $GPVTG,132.5,T,132.1,M,0.0,N,0.0,K,A*27

2:57:35:603 Nachm. 03/28/17 - $GPRMC,125731.0,A,5208.423638,N,01138.446297,E,0.0,132.5,280317,0.4,E,A*0E

2:57:35:604 Nachm. 03/28/17 - $GPGSA,A,2,10,12,13,15,17,18,19,24,28,,,,1.1,0.8,0.8*3C

2:57:35:604 Nachm. 03/28/17 - $GNGSA,A,2,10,12,13,15,17,18,19,24,28,,,,1.1,0.8,0.8*22

2:57:35:609 Nachm. 03/28/17 - $GNGSA,A,2,71,73,82,83,,,,,,,,,1.1,0.8,0.8*2E

2:57:36:586 Nachm. 03/28/17 - $GPGSV,3,1,11,10,18,303,17,12,36,229,32,13,26,158,23,15,48,196,31*74

2:57:36:588 Nachm. 03/28/17 - $GPGSV,3,2,11,17,41,075,26,18,16,274,19,19,42,108,21,24,66,286,21*77

2:57:36:588 Nachm. 03/28/17 - $GPGSV,3,3,11,28,13,054,19,01,05,023,,32,02,322,*4D

2:57:36:596 Nachm. 03/28/17 - $GLGSV,2,1,08,82,35,057,28,73,72,016,24,,,,18,83,25,120,19*54

2:57:36:597 Nachm. 03/28/17 - $GLGSV,2,2,08,71,33,229,30,72,40,298,13,70,,,,65,11,341,*53

2:57:36:604 Nachm. 03/28/17 - $GPGGA,125732.0,5208.423614,N,01138.446306,E,1,09,0.7,71.8,M,45.0,M,,*6C

2:57:36:605 Nachm. 03/28/17 - $GNGNS,125732.0,5208.423614,N,01138.446306,E,AA,14,0.7,71.8,45.0,,*54

2:57:36:613 Nachm. 03/28/17 - $GPVTG,132.5,T,132.1,M,0.0,N,0.0,K,A*27

2:57:36:615 Nachm. 03/28/17 - $GPRMC,125732.0,A,5208.423614,N,01138.446306,E,0.0,132.5,280317,0.4,E,A*0A

2:57:36:617 Nachm. 03/28/17 - $GPGSA,A,2,10,12,13,15,17,18,19,24,28,,,,1.1,0.7,0.8*33

2:57:36:618 Nachm. 03/28/17 - $GNGSA,A,2,10,12,13,15,17,18,19,24,28,,,,1.1,0.7,0.8*2D

2:57:36:619 Nachm. 03/28/17 - $GNGSA,A,2,71,72,73,82,83,,,,,,,,1.1,0.7,0.8*24

2:57:37:586 Nachm. 03/28/17 - $GPGSV,3,1,11,10,18,303,17,12,36,229,32,13,26,158,21,15,48,196,33*74

2:57:37:587 Nachm. 03/28/17 - $GPGSV,3,2,11,17,41,075,26,18,16,274,19,19,42,108,21,24,66,286,23*75

2:57:37:588 Nachm. 03/28/17 - $GPGSV,3,3,11,28,13,054,22,01,05,023,,32,02,322,*45

2:57:37:592 Nachm. 03/28/17 - $GLGSV,2,1,08,82,35,057,27,73,72,016,23,,,,18,83,25,120,19*5C

2:57:37:611 Nachm. 03/28/17 - $GLGSV,2,2,08,71,33,229,29,72,40,298,12,70,,,,65,11,341,*5A

2:57:37:615 Nachm. 03/28/17 - $GPGGA,125733.0,5208.423165,N,01138.446828,E,1,09,0.7,72.8,M,45.0,M,,*68

2:57:37:616 Nachm. 03/28/17 - $GNGNS,125733.0,5208.423165,N,01138.446828,E,AA,14,0.7,72.8,45.0,,*50

2:57:37:616 Nachm. 03/28/17 - $GPVTG,132.5,T,132.1,M,0.0,N,0.0,K,A*27

2:57:37:617 Nachm. 03/28/17 - $GPRMC,125733.0,A,5208.423165,N,01138.446828,E,0.0,132.5,280317,0.4,E,A*0D

2:57:37:617 Nachm. 03/28/17 - $GPGSA,A,2,10,12,13,15,17,18,19,24,28,,,,1.1,0.7,0.8*33

2:57:37:618 Nachm. 03/28/17 - $GNGSA,A,2,10,12,13,15,17,18,19,24,28,,,,1.1,0.7,0.8*2D

2:57:37:618 Nachm. 03/28/17 - $GNGSA,A,2,71,72,73,82,83,,,,,,,,1.1,0.7,0.8*24

2:57:38:589 Nachm. 03/28/17 - $GPGSV,3,1,11,10,18,303,17,12,36,229,32,13,26,158,22,15,48,196,30*74

2:57:38:592 Nachm. 03/28/17 - $GPGSV,3,2,11,17,41,075,26,18,16,274,18,19,42,108,16,24,66,286,23*70

2:57:38:592 Nachm. 03/28/17 - $GPGSV,3,3,11,28,13,054,22,01,05,023,,32,02,322,*45

2:57:38:593 Nachm. 03/28/17 - $GLGSV,2,1,08,82,35,057,27,73,72,016,21,,,,18,83,25,120,17*50

2:57:38:601 Nachm. 03/28/17 - $GLGSV,2,2,08,71,33,229,30,72,40,298,12,70,,,,65,11,341,*52

2:57:38:608 Nachm. 03/28/17 - $GPGGA,125734.0,5208.423101,N,01138.446887,E,1,09,0.7,73.1,M,45.0,M,,*60

2:57:38:609 Nachm. 03/28/17 - $GNGNS,125734.0,5208.423101,N,01138.446887,E,AA,14,0.7,73.1,45.0,,*58

2:57:38:609 Nachm. 03/28/17 - $GPVTG,132.5,T,132.1,M,0.0,N,0.0,K,A*27

2:57:38:610 Nachm. 03/28/17 - $GPRMC,125734.0,A,5208.423101,N,01138.446887,E,0.0,132.5,280317,0.4,E,A*0D

2:57:38:612 Nachm. 03/28/17 - $GPGSA,A,2,10,12,13,15,17,18,19,24,28,,,,1.1,0.7,0.8*33

2:57:38:613 Nachm. 03/28/17 - $GNGSA,A,2,10,12,13,15,17,18,19,24,28,,,,1.1,0.7,0.8*2D

2:57:38:614 Nachm. 03/28/17 - $GNGSA,A,2,71,72,73,82,83,,,,,,,,1.1,0.7,0.8*24

2:57:39:586 Nachm. 03/28/17 - $GPGSV,3,1,11,01,05,023,13,10,18,303,17,12,36,229,32,13,26,158,23*77

2:57:39:592 Nachm. 03/28/17 - $GPGSV,3,2,11,15,48,196,29,17,41,075,22,18,16,274,18,19,42,108,21*76

2:57:39:592 Nachm. 03/28/17 - $GPGSV,3,3,11,24,66,286,17,28,13,054,22,32,02,322,*4C

2:57:39:608 Nachm. 03/28/17 - $GLGSV,2,1,08,82,35,057,29,73,72,016,20,,,,18,83,25,120,17*5F

2:57:39:609 Nachm. 03/28/17 - $GLGSV,2,2,08,71,33,229,30,72,40,298,12,70,,,,65,11,341,*52

2:57:39:609 Nachm. 03/28/17 - $GPGGA,125735.0,5208.423076,N,01138.446901,E,1,09,0.7,73.2,M,45.0,M,,*6C

2:57:39:609 Nachm. 03/28/17 - $GNGNS,125735.0,5208.423076,N,01138.446901,E,AA,14,0.7,73.2,45.0,,*54

2:57:39:609 Nachm. 03/28/17 - $GPVTG,132.5,T,132.1,M,0.0,N,0.0,K,A*27

2:57:39:610 Nachm. 03/28/17 - $GPRMC,125735.0,A,5208.423076,N,01138.446901,E,0.0,132.5,280317,0.4,E,A*02

2:57:39:610 Nachm. 03/28/17 - $GPGSA,A,2,10,12,13,15,17,18,19,24,28,,,,1.1,0.7,0.8*33

2:57:39:611 Nachm. 03/28/17 - $GNGSA,A,2,10,12,13,15,17,18,19,24,28,,,,1.1,0.7,0.8*2D

2:57:39:611 Nachm. 03/28/17 - $GNGSA,A,2,71,72,73,82,83,,,,,,,,1.1,0.7,0.8*24

2:57:40:586 Nachm. 03/28/17 - $GPGSV,3,1,11,01,05,023,13,10,18,303,17,12,36,229,32,13,26,158,23*77

2:57:40:587 Nachm. 03/28/17 - $GPGSV,3,2,11,15,48,196,29,17,41,075,21,18,16,274,18,19,42,108,23*77

2:57:40:588 Nachm. 03/28/17 - $GPGSV,3,3,11,24,66,286,17,28,13,054,15,32,02,322,*48

2:57:40:600 Nachm. 03/28/17 - $GLGSV,2,1,08,82,35,057,29,73,72,016,21,,,,18,83,25,120,18*51

2:57:40:602 Nachm. 03/28/17 - $GLGSV,2,2,08,71,33,229,31,72,40,298,12,70,,,,65,11,341,*53

2:57:40:605 Nachm. 03/28/17 - $GPGGA,125736.0,5208.423063,N,01138.446898,E,1,09,0.7,73.3,M,45.0,M,,*6B

2:57:40:609 Nachm. 03/28/17 - $GNGNS,125736.0,5208.423063,N,01138.446898,E,AA,14,0.7,73.3,45.0,,*53

2:57:40:613 Nachm. 03/28/17 - $GPVTG,132.5,T,132.1,M,0.0,N,0.0,K,A*27

2:57:40:614 Nachm. 03/28/17 - $GPRMC,125736.0,A,5208.423063,N,01138.446898,E,0.0,132.5,280317,0.4,E,A*04

2:57:40:614 Nachm. 03/28/17 - $GPGSA,A,2,10,12,13,15,17,18,19,24,28,,,,1.1,0.7,0.8*33

2:57:40:615 Nachm. 03/28/17 - $GNGSA,A,2,10,12,13,15,17,18,19,24,28,,,,1.1,0.7,0.8*2D

2:57:40:616 Nachm. 03/28/17 - $GNGSA,A,2,71,72,73,82,83,,,,,,,,1.1,0.7,0.8*24

2:57:41:586 Nachm. 03/28/17 - $GPGSV,3,1,11,01,05,023,13,10,18,303,17,12,36,229,33,13,26,158,22*77

2:57:41:587 Nachm. 03/28/17 - $GPGSV,3,2,11,15,48,196,31,17,41,075,27,18,16,274,18,19,42,108,24*7F

2:57:41:593 Nachm. 03/28/17 - $GPGSV,3,3,11,24,66,286,18,28,13,054,20,32,02,322,*41

2:57:41:601 Nachm. 03/28/17 - $GLGSV,2,1,08,82,35,057,26,73,72,016,22,,,,18,83,25,120,18*5D

2:57:41:603 Nachm. 03/28/17 - $GLGSV,2,2,08,71,33,229,30,72,40,298,12,70,,,,65,11,341,*52

2:57:41:603 Nachm. 03/28/17 - $GPGGA,125737.0,5208.423014,N,01138.446952,E,1,09,0.7,73.5,M,45.0,M,,*6B

2:57:41:604 Nachm. 03/28/17 - $GNGNS,125737.0,5208.423014,N,01138.446952,E,AA,14,0.7,73.5,45.0,,*53

2:57:41:604 Nachm. 03/28/17 - $GPVTG,132.5,T,132.1,M,0.0,N,0.0,K,A*27

2:57:41:606 Nachm. 03/28/17 - $GPRMC,125737.0,A,5208.423014,N,01138.446952,E,0.0,132.5,280317,0.4,E,A*02

2:57:41:607 Nachm. 03/28/17 - $GPGSA,A,2,10,12,13,15,17,18,19,24,28,,,,1.1,0.7,0.8*33

2:57:41:607 Nachm. 03/28/17 - $GNGSA,A,2,10,12,13,15,17,18,19,24,28,,,,1.1,0.7,0.8*2D

2:57:41:607 Nachm. 03/28/17 - $GNGSA,A,2,71,72,73,82,83,,,,,,,,1.1,0.7,0.8*24

2:57:42:586 Nachm. 03/28/17 - $GPGSV,3,1,11,01,05,023,12,10,18,303,17,12,36,229,32,13,26,158,24*71

2:57:42:587 Nachm. 03/28/17 - $GPGSV,3,2,11,15,48,196,32,17,41,075,27,18,16,274,18,19,42,108,23*7B

2:57:42:588 Nachm. 03/28/17 - $GPGSV,3,3,11,24,66,286,20,28,13,054,23,32,02,322,*49

2:57:42:592 Nachm. 03/28/17 - $GLGSV,2,1,08,82,35,057,24,73,72,016,23,,,,18,83,25,120,16*50

2:57:42:612 Nachm. 03/28/17 - $GLGSV,2,2,08,71,33,229,30,72,40,298,12,70,,,,65,11,341,*52

2:57:42:614 Nachm. 03/28/17 - $GPGGA,125738.0,5208.422999,N,01138.446975,E,1,09,0.7,73.6,M,45.0,M,,*6F

2:57:42:614 Nachm. 03/28/17 - $GNGNS,125738.0,5208.422999,N,01138.446975,E,AA,14,0.7,73.6,45.0,,*57

2:57:42:615 Nachm. 03/28/17 - $GPVTG,132.5,T,132.1,M,0.0,N,0.0,K,A*27

2:57:42:616 Nachm. 03/28/17 - $GPRMC,125738.0,A,5208.422999,N,01138.446975,E,0.0,132.5,280317,0.4,E,A*05

2:57:42:618 Nachm. 03/28/17 - $GPGSA,A,2,10,12,13,15,17,18,19,24,28,,,,1.1,0.7,0.8*33

2:57:42:619 Nachm. 03/28/17 - $GNGSA,A,2,10,12,13,15,17,18,19,24,28,,,,1.1,0.7,0.8*2D

2:57:42:620 Nachm. 03/28/17 - $GNGSA,A,2,71,72,73,82,83,,,,,,,,1.1,0.7,0.8*24

2:57:43:586 Nachm. 03/28/17 - $GPGSV,3,1,11,01,05,023,12,10,18,303,17,12,36,229,32,13,26,158,23*76

2:57:43:587 Nachm. 03/28/17 - $GPGSV,3,2,11,15,48,196,32,17,41,075,27,18,16,274,18,19,42,108,20*78

2:57:43:587 Nachm. 03/28/17 - $GPGSV,3,3,11,24,66,286,19,28,13,054,23,32,02,322,*43

2:57:43:589 Nachm. 03/28/17 - $GLGSV,2,1,08,82,35,057,22,73,72,016,22,,,,18,83,25,120,16*57

2:57:43:589 Nachm. 03/28/17 - $GLGSV,2,2,08,71,33,229,29,72,40,298,12,70,,,,65,11,341,*5A

2:57:43:595 Nachm. 03/28/17 - $GPGGA,125739.0,5208.423015,N,01138.446958,E,1,09,0.7,73.6,M,45.0,M,,*6D

2:57:43:597 Nachm. 03/28/17 - $GNGNS,125739.0,5208.423015,N,01138.446958,E,AA,14,0.7,73.6,45.0,,*55

2:57:43:600 Nachm. 03/28/17 - $GPVTG,132.5,T,132.1,M,0.0,N,0.0,K,A*27

2:57:43:600 Nachm. 03/28/17 - $GPRMC,125739.0,A,5208.423015,N,01138.446958,E,0.0,132.5,280317,0.4,E,A*07

2:57:43:600 Nachm. 03/28/17 - $GPGSA,A,2,10,12,13,15,17,18,19,24,28,,,,1.1,0.7,0.8*33

2:57:43:601 Nachm. 03/28/17 - $GNGSA,A,2,10,12,13,15,17,18,19,24,28,,,,1.1,0.7,0.8*2D

2:57:43:601 Nachm. 03/28/17 - $GNGSA,A,2,71,72,73,82,83,,,,,,,,1.1,0.7,0.8*24

2:57:44:585 Nachm. 03/28/17 - $GPGSV,3,1,11,01,05,023,12,10,18,303,13,12,36,229,32,13,26,158,22*73

2:57:44:587 Nachm. 03/28/17 - $GPGSV,3,2,11,15,48,196,33,17,41,075,28,18,16,274,18,19,42,108,18*7D

2:57:44:593 Nachm. 03/28/17 - $GPGSV,3,3,11,24,66,286,20,28,13,054,24,32,02,322,*4E

2:57:44:598 Nachm. 03/28/17 - $GLGSV,2,1,08,82,35,057,22,73,72,016,21,,,,18,83,25,120,17*55

2:57:44:599 Nachm. 03/28/17 - $GLGSV,2,2,08,71,33,229,29,72,40,298,12,70,,,,65,11,341,*5A

2:57:44:600 Nachm. 03/28/17 - $GPGGA,125740.0,5208.423021,N,01138.446955,E,1,09,0.7,73.6,M,45.0,M,,*69

2:57:44:614 Nachm. 03/28/17 - $GNGNS,125740.0,5208.423021,N,01138.446955,E,AA,14,0.7,73.6,45.0,,*51

2:57:44:615 Nachm. 03/28/17 - $GPVTG,132.5,T,132.1,M,0.0,N,0.0,K,A*27

2:57:44:617 Nachm. 03/28/17 - $GPRMC,125740.0,A,5208.423021,N,01138.446955,E,0.0,132.5,280317,0.4,E,A*03

2:57:44:618 Nachm. 03/28/17 - $GPGSA,A,2,10,12,13,15,17,18,19,24,28,,,,1.1,0.7,0.8*33

2:57:44:618 Nachm. 03/28/17 - $GNGSA,A,2,10,12,13,15,17,18,19,24,28,,,,1.1,0.7,0.8*2D

2:57:44:618 Nachm. 03/28/17 - $GNGSA,A,2,71,72,73,82,83,,,,,,,,1.1,0.7,0.8*24

2:57:45:587 Nachm. 03/28/17 - $GPGSV,3,1,11,01,05,023,12,10,18,303,13,12,36,229,32,13,26,158,24*75

2:57:45:588 Nachm. 03/28/17 - $GPGSV,3,2,11,15,48,196,32,17,41,075,29,18,16,274,18,19,42,108,23*75

2:57:45:592 Nachm. 03/28/17 - $GPGSV,3,3,11,24,66,286,19,28,13,054,24,32,02,322,*44

2:57:45:605 Nachm. 03/28/17 - $GLGSV,2,1,08,82,35,057,24,73,72,016,18,,,,18,83,25,120,18*56

2:57:45:607 Nachm. 03/28/17 - $GLGSV,2,2,08,71,33,229,29,72,40,298,12,70,,,,65,11,341,*5A

2:57:45:608 Nachm. 03/28/17 - $GPGGA,125741.0,5208.423030,N,01138.446943,E,1,09,0.7,73.6,M,45.0,M,,*6F

2:57:45:609 Nachm. 03/28/17 - $GNGNS,125741.0,5208.423030,N,01138.446943,E,AA,14,0.7,73.6,45.0,,*57

2:57:45:609 Nachm. 03/28/17 - $GPVTG,132.5,T,132.1,M,0.0,N,0.0,K,A*27

2:57:45:610 Nachm. 03/28/17 - $GPRMC,125741.0,A,5208.423030,N,01138.446943,E,0.0,132.5,280317,0.4,E,A*05

2:57:45:611 Nachm. 03/28/17 - $GPGSA,A,2,10,12,13,15,17,18,19,24,28,,,,1.1,0.7,0.8*33

2:57:45:613 Nachm. 03/28/17 - $GNGSA,A,2,10,12,13,15,17,18,19,24,28,,,,1.1,0.7,0.8*2D

2:57:45:614 Nachm. 03/28/17 - $GNGSA,A,2,71,72,73,82,83,,,,,,,,1.1,0.7,0.8*24

2:57:46:586 Nachm. 03/28/17 - $GPGSV,3,1,11,01,05,023,12,10,18,303,13,12,36,229,32,13,26,158,22*73

2:57:46:587 Nachm. 03/28/17 - $GPGSV,3,2,11,15,48,196,32,17,41,075,30,18,16,274,18,19,42,108,23*7D

2:57:46:587 Nachm. 03/28/17 - $GPGSV,3,3,11,24,66,286,19,28,13,054,24,32,02,322,*44

2:57:46:594 Nachm. 03/28/17 - $GLGSV,2,1,08,82,35,057,24,73,72,016,20,,,,18,83,25,120,18*5D

2:57:46:595 Nachm. 03/28/17 - $GLGSV,2,2,08,71,33,229,29,72,40,298,12,70,,,,65,11,341,*5A

2:57:46:596 Nachm. 03/28/17 - $GPGGA,125742.0,5208.423055,N,01138.446914,E,1,09,0.7,73.6,M,45.0,M,,*6D

2:57:46:597 Nachm. 03/28/17 - $GNGNS,125742.0,5208.423055,N,01138.446914,E,AA,14,0.7,73.6,45.0,,*55

2:57:46:598 Nachm. 03/28/17 - $GPVTG,132.5,T,132.1,M,0.0,N,0.0,K,A*27

2:57:46:599 Nachm. 03/28/17 - $GPRMC,125742.0,A,5208.423055,N,01138.446914,E,0.0,132.5,280317,0.4,E,A*07

2:57:46:599 Nachm. 03/28/17 - $GPGSA,A,2,10,12,13,15,17,18,19,24,28,,,,1.1,0.7,0.8*33

2:57:46:599 Nachm. 03/28/17 - $GNGSA,A,2,10,12,13,15,17,18,19,24,28,,,,1.1,0.7,0.8*2D

2:57:46:600 Nachm. 03/28/17 - $GNGSA,A,2,71,72,73,82,83,,,,,,,,1.1,0.7,0.8*24

2:57:47:585 Nachm. 03/28/17 - $GPGSV,3,1,11,01,05,023,12,10,18,303,13,12,36,229,32,13,26,158,22*73

2:57:47:585 Nachm. 03/28/17 - $GPGSV,3,2,11,15,48,196,33,17,41,075,29,18,16,274,18,19,42,108,20*77

2:57:47:586 Nachm. 03/28/17 - $GPGSV,3,3,11,24,66,286,16,28,13,054,23,32,02,322,*4C

2:57:47:586 Nachm. 03/28/17 - $GLGSV,2,1,08,82,35,057,24,73,72,016,23,,,,18,83,25,120,18*5E

2:57:47:589 Nachm. 03/28/17 - $GLGSV,2,2,08,71,33,229,30,72,40,298,12,70,,,,65,11,341,*52

2:57:47:589 Nachm. 03/28/17 - $GPGGA,125743.0,5208.423072,N,01138.446890,E,1,09,0.7,73.5,M,45.0,M,,*67

2:57:47:589 Nachm. 03/28/17 - $GNGNS,125743.0,5208.423072,N,01138.446890,E,AA,14,0.7,73.5,45.0,,*5F

2:57:47:589 Nachm. 03/28/17 - $GPVTG,132.5,T,132.1,M,0.0,N,0.0,K,A*27

2:57:47:589 Nachm. 03/28/17 - $GPRMC,125743.0,A,5208.423072,N,01138.446890,E,0.0,132.5,280317,0.4,E,A*0E

2:57:47:592 Nachm. 03/28/17 - $GPGSA,A,2,10,12,13,15,17,18,19,24,28,,,,1.1,0.7,0.8*33

2:57:47:592 Nachm. 03/28/17 - $GNGSA,A,2,10,12,13,15,17,18,19,24,28,,,,1.1,0.7,0.8*2D

2:57:47:593 Nachm. 03/28/17 - $GNGSA,A,2,71,72,73,82,83,,,,,,,,1.1,0.7,0.8*24

2:57:48:587 Nachm. 03/28/17 - $GPGSV,3,1,11,01,05,023,12,10,18,303,13,12,36,229,33,13,26,158,22*72

2:57:48:593 Nachm. 03/28/17 - $GPGSV,3,2,11,15,48,196,33,17,41,075,29,18,16,274,18,19,42,108,20*77

2:57:48:593 Nachm. 03/28/17 - $GPGSV,3,3,11,24,66,286,18,28,13,054,24,32,02,322,*45

2:57:48:594 Nachm. 03/28/17 - $GLGSV,2,1,08,82,35,057,23,73,72,016,22,,,,18,83,25,120,20*53

2:57:48:594 Nachm. 03/28/17 - $GLGSV,2,2,08,71,33,229,29,72,40,298,12,70,,,,65,11,341,*5A

2:57:48:598 Nachm. 03/28/17 - $GPGGA,125744.0,5208.423113,N,01138.446858,E,1,09,0.8,73.4,M,45.0,M,,*6C

2:57:48:599 Nachm. 03/28/17 - $GNGNS,125744.0,5208.423113,N,01138.446858,E,AA,13,0.8,73.4,45.0,,*53

2:57:48:600 Nachm. 03/28/17 - $GPVTG,132.5,T,132.1,M,0.0,N,0.0,K,A*27

2:57:48:602 Nachm. 03/28/17 - $GPRMC,125744.0,A,5208.423113,N,01138.446858,E,0.0,132.5,280317,0.4,E,A*0B

2:57:48:602 Nachm. 03/28/17 - $GPGSA,A,2,10,12,13,15,17,18,19,24,28,,,,1.1,0.8,0.8*3C

2:57:48:603 Nachm. 03/28/17 - $GNGSA,A,2,10,12,13,15,17,18,19,24,28,,,,1.1,0.8,0.8*22

2:57:48:603 Nachm. 03/28/17 - $GNGSA,A,2,71,73,82,83,,,,,,,,,1.1,0.8,0.8*2E

2:57:49:586 Nachm. 03/28/17 - $GPGSV,3,1,11,01,05,023,12,10,18,303,13,12,36,229,32,13,26,158,22*73

2:57:49:589 Nachm. 03/28/17 - $GPGSV,3,2,11,15,48,196,33,17,41,075,29,18,16,274,18,19,42,108,19*7D

2:57:49:589 Nachm. 03/28/17 - $GPGSV,3,3,11,24,66,286,18,28,13,054,24,32,02,322,*45

2:57:49:594 Nachm. 03/28/17 - $GLGSV,2,1,08,82,35,057,22,73,72,016,23,,,,18,83,25,120,18*58

2:57:49:595 Nachm. 03/28/17 - $GLGSV,2,2,08,71,33,229,29,72,40,298,12,70,,,,65,11,341,*5A

2:57:49:596 Nachm. 03/28/17 - $GPGGA,125745.0,5208.423150,N,01138.446819,E,1,08,0.8,73.3,M,45.0,M,,*69

2:57:49:599 Nachm. 03/28/17 - $GNGNS,125745.0,5208.423150,N,01138.446819,E,AA,12,0.8,73.3,45.0,,*56

2:57:49:603 Nachm. 03/28/17 - $GPVTG,132.5,T,132.1,M,0.0,N,0.0,K,A*27

2:57:49:604 Nachm. 03/28/17 - $GPRMC,125745.0,A,5208.423150,N,01138.446819,E,0.0,132.5,280317,0.4,E,A*08

2:57:49:605 Nachm. 03/28/17 - $GPGSA,A,2,10,12,13,15,17,19,24,28,,,,,1.1,0.8,0.8*35

2:57:49:606 Nachm. 03/28/17 - $GNGSA,A,2,10,12,13,15,17,19,24,28,,,,,1.1,0.8,0.8*2B

2:57:49:607 Nachm. 03/28/17 - $GNGSA,A,2,71,73,82,83,,,,,,,,,1.1,0.8,0.8*2E

2:57:50:586 Nachm. 03/28/17 - $GPGSV,3,1,11,01,05,023,12,10,18,303,13,12,36,229,32,13,26,158,22*73

2:57:50:587 Nachm. 03/28/17 - $GPGSV,3,2,11,15,48,196,32,17,41,075,28,18,16,274,18,19,42,108,19*7D

2:57:50:591 Nachm. 03/28/17 - $GPGSV,3,3,11,24,66,286,18,28,13,054,23,32,02,322,*42

2:57:50:593 Nachm. 03/28/17 - $GLGSV,2,1,08,82,35,057,22,73,72,016,23,,,,18,83,25,120,18*58

2:57:50:597 Nachm. 03/28/17 - $GLGSV,2,2,08,71,33,229,29,72,40,298,12,70,,,,65,11,341,*5A

2:57:50:597 Nachm. 03/28/17 - $GPGGA,125746.0,5208.423190,N,01138.446771,E,1,08,0.8,73.3,M,45.0,M,,*67

2:57:50:601 Nachm. 03/28/17 - $GNGNS,125746.0,5208.423190,N,01138.446771,E,AA,12,0.8,73.3,45.0,,*58

2:57:50:601 Nachm. 03/28/17 - $GPVTG,132.5,T,132.1,M,0.0,N,0.0,K,A*27

2:57:50:601 Nachm. 03/28/17 - $GPRMC,125746.0,A,5208.423190,N,01138.446771,E,0.0,132.5,280317,0.4,E,A*06

2:57:50:601 Nachm. 03/28/17 - $GPGSA,A,2,10,12,13,15,17,19,24,28,,,,,1.1,0.8,0.8*35

2:57:50:602 Nachm. 03/28/17 - $GNGSA,A,2,10,12,13,15,17,19,24,28,,,,,1.1,0.8,0.8*2B

2:57:50:602 Nachm. 03/28/17 - $GNGSA,A,2,71,73,82,83,,,,,,,,,1.1,0.8,0.8*2E

2:57:51:585 Nachm. 03/28/17 - $GPGSV,3,1,11,01,05,023,12,10,18,303,13,12,36,229,31,13,26,158,23*71

2:57:51:585 Nachm. 03/28/17 - $GPGSV,3,2,11,15,48,196,31,17,41,075,28,18,16,274,18,19,42,108,18*7F

2:57:51:585 Nachm. 03/28/17 - $GPGSV,3,3,11,24,66,286,17,28,13,054,23,32,02,322,*4D

2:57:51:591 Nachm. 03/28/17 - $GLGSV,2,1,08,82,35,057,21,73,72,016,22,,,,18,83,25,120,18*5A

2:57:51:593 Nachm. 03/28/17 - $GLGSV,2,2,08,71,33,229,28,72,40,298,12,70,,,,65,11,341,*5B

2:57:51:593 Nachm. 03/28/17 - $GPGGA,125747.0,5208.423226,N,01138.446738,E,1,07,1.0,73.3,M,45.0,M,,*63

2:57:51:594 Nachm. 03/28/17 - $GNGNS,125747.0,5208.423226,N,01138.446738,E,AA,11,1.0,73.3,45.0,,*50

2:57:51:594 Nachm. 03/28/17 - $GPVTG,132.5,T,132.1,M,0.0,N,0.0,K,A*27

2:57:51:595 Nachm. 03/28/17 - $GPRMC,125747.0,A,5208.423226,N,01138.446738,E,0.0,132.5,280317,0.4,E,A*04

2:57:51:595 Nachm. 03/28/17 - $GPGSA,A,2,12,13,15,17,19,24,28,,,,,,1.3,1.0,0.9*3E

2:57:51:595 Nachm. 03/28/17 - $GNGSA,A,2,12,13,15,17,19,24,28,,,,,,1.3,1.0,0.9*20

2:57:51:595 Nachm. 03/28/17 - $GNGSA,A,2,71,73,82,83,,,,,,,,,1.3,1.0,0.9*24

2:57:52:585 Nachm. 03/28/17 - $GPGSV,3,1,11,01,05,023,12,10,18,303,13,12,36,229,31,13,26,158,23*71

2:57:52:587 Nachm. 03/28/17 - $GPGSV,3,2,11,15,48,196,31,17,41,075,29,18,16,274,18,19,42,108,18*7E

2:57:52:589 Nachm. 03/28/17 - $GPGSV,3,3,11,24,66,286,17,28,13,054,21,32,02,322,*4F

2:57:52:591 Nachm. 03/28/17 - $GLGSV,2,1,08,82,35,057,21,73,72,016,23,,,,18,83,25,120,16*55

2:57:52:615 Nachm. 03/28/17 - $GLGSV,2,2,08,71,33,229,29,72,40,298,12,70,,,,65,11,341,*5A

2:57:52:627 Nachm. 03/28/17 - $GPGGA,125748.0,5208.436228,N,01138.433504,E,1,07,1.0,67.3,M,45.0,M,,*6C

2:57:52:630 Nachm. 03/28/17 - $GNGNS,125748.0,5208.436228,N,01138.433504,E,AA,11,1.0,67.3,45.0,,*5F

2:57:52:630 Nachm. 03/28/17 - $GPVTG,132.5,T,132.1,M,0.4,N,0.8,K,A*2B

2:57:52:630 Nachm. 03/28/17 - $GPRMC,125748.0,A,5208.436228,N,01138.433504,E,0.4,132.5,280317,0.4,E,A*0A

2:57:52:631 Nachm. 03/28/17 - $GPGSA,A,2,12,13,15,17,19,24,28,,,,,,1.3,1.0,0.9*3E

2:57:52:631 Nachm. 03/28/17 - $GNGSA,A,2,12,13,15,17,19,24,28,,,,,,1.3,1.0,0.9*20

2:57:52:632 Nachm. 03/28/17 - $GNGSA,A,2,71,73,82,83,,,,,,,,,1.3,1.0,0.9*24

2:57:53:585 Nachm. 03/28/17 - $GPGSV,3,1,11,01,05,023,12,10,18,303,13,12,36,229,31,13,26,158,24*76

2:57:53:588 Nachm. 03/28/17 - $GPGSV,3,2,11,15,48,196,31,17,41,075,31,18,16,274,18,19,42,108,22*7E

2:57:53:592 Nachm. 03/28/17 - $GPGSV,3,3,11,24,66,286,17,28,13,054,22,32,02,322,*4C

2:57:53:592 Nachm. 03/28/17 - $GLGSV,2,1,08,82,35,057,22,73,72,016,22,,,,18,83,25,120,16*57

2:57:53:593 Nachm. 03/28/17 - $GLGSV,2,2,08,71,33,229,29,72,40,298,12,70,,,,65,11,341,*5A

2:57:53:595 Nachm. 03/28/17 - $GPGGA,125749.0,5208.436476,N,01138.432952,E,1,07,1.0,68.3,M,45.0,M,,*61

2:57:53:595 Nachm. 03/28/17 - $GNGNS,125749.0,5208.436476,N,01138.432952,E,AA,11,1.0,68.3,45.0,,*52

2:57:53:598 Nachm. 03/28/17 - $GPVTG,132.5,T,132.1,M,0.0,N,0.0,K,A*27

2:57:53:598 Nachm. 03/28/17 - $GPRMC,125749.0,A,5208.436476,N,01138.432952,E,0.0,132.5,280317,0.4,E,A*0C

2:57:53:598 Nachm. 03/28/17 - $GPGSA,A,2,12,13,15,17,19,24,28,,,,,,1.3,1.0,0.9*3E

2:57:53:598 Nachm. 03/28/17 - $GNGSA,A,2,12,13,15,17,19,24,28,,,,,,1.3,1.0,0.9*20

2:57:53:599 Nachm. 03/28/17 - $GNGSA,A,2,71,73,82,83,,,,,,,,,1.3,1.0,0.9*24

2:57:54:585 Nachm. 03/28/17 - $GPGSV,3,1,11,01,05,023,12,12,36,229,30,13,26,158,22,15,48,196,28*77

2:57:54:586 Nachm. 03/28/17 - $GPGSV,3,2,11,17,41,075,32,18,16,274,18,19,42,108,29,24,66,286,17*7E

2:57:54:587 Nachm. 03/28/17 - $GPGSV,3,3,11,28,13,054,20,10,18,303,,32,02,322,*4A

2:57:54:588 Nachm. 03/28/17 - $GLGSV,2,1,08,82,35,057,25,73,72,016,22,,,,18,83,25,120,19*5F

2:57:54:591 Nachm. 03/28/17 - $GLGSV,2,2,08,71,33,229,27,72,40,298,12,70,,,,65,11,341,*54

2:57:54:596 Nachm. 03/28/17 - $GPGGA,125750.0,5208.436545,N,01138.433123,E,1,07,1.0,69.0,M,45.0,M,,*65

2:57:54:597 Nachm. 03/28/17 - $GNGNS,125750.0,5208.436545,N,01138.433123,E,AA,11,1.0,69.0,45.0,,*56

2:57:54:597 Nachm. 03/28/17 - $GPVTG,132.5,T,132.1,M,0.0,N,0.0,K,A*27

2:57:54:598 Nachm. 03/28/17 - $GPRMC,125750.0,A,5208.436545,N,01138.433123,E,0.0,132.5,280317,0.4,E,A*0A

2:57:54:598 Nachm. 03/28/17 - $GPGSA,A,2,12,13,15,17,19,24,28,,,,,,1.3,1.0,0.9*3E

2:57:54:598 Nachm. 03/28/17 - $GNGSA,A,2,12,13,15,17,19,24,28,,,,,,1.3,1.0,0.9*20

2:57:54:599 Nachm. 03/28/17 - $GNGSA,A,2,71,73,82,83,,,,,,,,,1.3,1.0,0.9*24

2:57:55:586 Nachm. 03/28/17 - $GPGSV,3,1,11,01,05,023,12,12,36,229,31,13,26,158,22,15,48,196,29*77

2:57:55:587 Nachm. 03/28/17 - $GPGSV,3,2,11,17,41,075,33,18,16,274,17,19,42,108,31,24,66,286,17*79

2:57:55:587 Nachm. 03/28/17 - $GPGSV,3,3,11,28,13,054,19,10,18,303,,32,02,322,*40

2:57:55:591 Nachm. 03/28/17 - $GLGSV,2,1,08,82,35,057,23,73,72,016,14,,,,18,83,25,120,20*56

2:57:55:591 Nachm. 03/28/17 - $GLGSV,2,2,08,71,33,229,28,72,40,298,12,70,,,,65,11,341,*5B

2:57:55:598 Nachm. 03/28/17 - $GPGGA,125751.0,5208.436207,N,01138.433864,E,1,08,0.8,68.8,M,45.0,M,,*60

2:57:55:598 Nachm. 03/28/17 - $GNGNS,125751.0,5208.436207,N,01138.433864,E,AA,12,0.8,68.8,45.0,,*5F

2:57:55:599 Nachm. 03/28/17 - $GPVTG,132.5,T,132.1,M,0.0,N,0.0,K,A*27

2:57:55:599 Nachm. 03/28/17 - $GPRMC,125751.0,A,5208.436207,N,01138.433864,E,0.0,132.5,280317,0.4,E,A*00

2:57:55:599 Nachm. 03/28/17 - $GPGSA,A,2,12,13,15,17,18,19,24,28,,,,,1.2,0.8,0.8*3E

2:57:55:600 Nachm. 03/28/17 - $GNGSA,A,2,12,13,15,17,18,19,24,28,,,,,1.2,0.8,0.8*20

2:57:55:600 Nachm. 03/28/17 - $GNGSA,A,2,71,73,82,83,,,,,,,,,1.2,0.8,0.8*2D

2:57:56:585 Nachm. 03/28/17 - $GPGSV,3,1,11,01,05,023,12,12,36,229,30,13,26,158,16,15,48,196,28*70

2:57:56:586 Nachm. 03/28/17 - $GPGSV,3,2,11,17,41,075,31,18,16,274,16,19,42,108,30,24,66,286,17*7B

2:57:56:588 Nachm. 03/28/17 - $GPGSV,3,3,11,28,13,054,19,10,18,303,,32,02,322,*40

2:57:56:591 Nachm. 03/28/17 - $GLGSV,2,1,08,82,35,057,23,73,72,016,14,,,,18,83,25,120,18*5D

2:57:56:591 Nachm. 03/28/17 - $GLGSV,2,2,08,71,33,229,27,72,40,298,12,70,,,,65,11,341,*54

2:57:56:591 Nachm. 03/28/17 - $GPGGA,125752.0,5208.436456,N,01138.433841,E,1,08,0.8,69.7,M,45.0,M,,*68

2:57:56:591 Nachm. 03/28/17 - $GNGNS,125752.0,5208.436456,N,01138.433841,E,AA,12,0.8,69.7,45.0,,*57

2:57:56:591 Nachm. 03/28/17 - $GPVTG,132.5,T,132.1,M,0.0,N,0.0,K,A*27

2:57:56:592 Nachm. 03/28/17 - $GPRMC,125752.0,A,5208.436456,N,01138.433841,E,0.0,132.5,280317,0.4,E,A*06

2:57:56:594 Nachm. 03/28/17 - $GPGSA,A,2,12,13,15,17,18,19,24,28,,,,,1.2,0.8,0.8*3E

2:57:56:595 Nachm. 03/28/17 - $GNGSA,A,2,12,13,15,17,18,19,24,28,,,,,1.2,0.8,0.8*20

2:57:56:595 Nachm. 03/28/17 - $GNGSA,A,2,71,73,82,83,,,,,,,,,1.2,0.8,0.8*2D

2:57:57:585 Nachm. 03/28/17 - $GPGSV,3,1,11,01,05,023,12,12,36,229,29,13,26,158,17,15,48,196,27*76

2:57:57:586 Nachm. 03/28/17 - $GPGSV,3,2,11,17,41,075,31,18,16,274,16,19,42,108,29,24,66,286,17*73

2:57:57:586 Nachm. 03/28/17 - $GPGSV,3,3,11,28,13,054,19,10,18,303,,32,02,322,*40

2:57:57:587 Nachm. 03/28/17 - $GLGSV,2,1,08,82,35,057,22,73,72,016,14,,,,18,83,25,120,19*5D

2:57:57:589 Nachm. 03/28/17 - $GLGSV,2,2,08,71,33,229,27,72,40,298,12,70,,,,65,11,341,*54

2:57:57:590 Nachm. 03/28/17 - $GPGGA,125753.0,5208.436692,N,01138.433753,E,1,08,0.8,70.6,M,45.0,M,,*66

2:57:57:590 Nachm. 03/28/17 - $GNGNS,125753.0,5208.436692,N,01138.433753,E,AA,12,0.8,70.6,45.0,,*59

2:57:57:590 Nachm. 03/28/17 - $GPVTG,132.5,T,132.1,M,0.0,N,0.0,K,A*27

2:57:57:590 Nachm. 03/28/17 - $GPRMC,125753.0,A,5208.436692,N,01138.433753,E,0.0,132.5,280317,0.4,E,A*01

2:57:57:590 Nachm. 03/28/17 - $GPGSA,A,2,12,13,15,17,18,19,24,28,,,,,1.2,0.8,0.8*3E

2:57:57:591 Nachm. 03/28/17 - $GNGSA,A,2,12,13,15,17,18,19,24,28,,,,,1.2,0.8,0.8*20

2:57:57:593 Nachm. 03/28/17 - $GNGSA,A,2,71,73,82,83,,,,,,,,,1.2,0.8,0.8*2D

2:57:58:585 Nachm. 03/28/17 - $GPGSV,3,1,11,01,05,023,12,12,36,229,31,13,26,158,20,15,48,196,31*7C

2:57:58:587 Nachm. 03/28/17 - $GPGSV,3,2,11,17,41,075,31,18,16,274,16,19,42,108,24,24,66,286,14*7D

2:57:58:588 Nachm. 03/28/17 - $GPGSV,3,3,11,28,13,054,18,10,18,303,,32,02,322,*41

2:57:58:589 Nachm. 03/28/17 - $GLGSV,2,1,08,82,35,057,24,73,72,016,16,,,,18,83,25,120,19*59

2:57:58:591 Nachm. 03/28/17 - $GLGSV,2,2,08,71,33,229,29,72,40,298,12,70,,,,65,11,341,*5A

2:57:58:595 Nachm. 03/28/17 - $GPGGA,125754.0,5208.437155,N,01138.433163,E,1,08,0.8,70.8,M,45.0,M,,*67

2:57:58:596 Nachm. 03/28/17 - $GNGNS,125754.0,5208.437155,N,01138.433163,E,AA,12,0.8,70.8,45.0,,*58

2:57:58:596 Nachm. 03/28/17 - $GPVTG,132.5,T,132.1,M,0.0,N,0.0,K,A*27

2:57:58:600 Nachm. 03/28/17 - $GPRMC,125754.0,A,5208.437155,N,01138.433163,E,0.0,132.5,280317,0.4,E,A*0E

2:57:58:601 Nachm. 03/28/17 - $GPGSA,A,2,12,13,15,17,18,19,24,28,,,,,1.2,0.8,0.8*3E

2:57:58:601 Nachm. 03/28/17 - $GNGSA,A,2,12,13,15,17,18,19,24,28,,,,,1.2,0.8,0.8*20

2:57:58:602 Nachm. 03/28/17 - $GNGSA,A,2,71,73,82,83,,,,,,,,,1.2,0.8,0.8*2D

2:57:59:584 Nachm. 03/28/17 - $GPGSV,3,1,11,01,05,023,12,12,36,229,32,13,26,158,22,15,48,196,31*7D

2:57:59:584 Nachm. 03/28/17 - $GPGSV,3,2,11,17,41,075,32,18,16,274,16,19,42,108,25,24,66,286,14*7F

2:57:59:584 Nachm. 03/28/17 - $GPGSV,3,3,11,28,13,054,21,10,18,303,,32,02,322,*4B

2:57:59:585 Nachm. 03/28/17 - $GLGSV,2,1,08,82,35,057,24,73,72,016,22,,,,18,83,25,120,16*51

2:57:59:585 Nachm. 03/28/17 - $GLGSV,2,2,08,71,33,229,30,72,40,298,12,70,,,,65,11,341,*52

2:57:59:585 Nachm. 03/28/17 - $GPGGA,125755.0,5208.437321,N,01138.432977,E,1,08,0.8,70.5,M,45.0,M,,*66

2:57:59:587 Nachm. 03/28/17 - $GNGNS,125755.0,5208.437321,N,01138.432977,E,AA,12,0.8,70.5,45.0,,*59

2:57:59:587 Nachm. 03/28/17 - $GPVTG,132.5,T,132.1,M,0.0,N,0.0,K,A*27

2:57:59:588 Nachm. 03/28/17 - $GPRMC,125755.0,A,5208.437321,N,01138.432977,E,0.0,132.5,280317,0.4,E,A*02

2:57:59:589 Nachm. 03/28/17 - $GPGSA,A,2,12,13,15,17,18,19,24,28,,,,,1.2,0.8,0.8*3E

2:57:59:591 Nachm. 03/28/17 - $GNGSA,A,2,12,13,15,17,18,19,24,28,,,,,1.2,0.8,0.8*20

2:57:59:591 Nachm. 03/28/17 - $GNGSA,A,2,71,73,82,83,,,,,,,,,1.2,0.8,0.8*2D

2:58:00:584 Nachm. 03/28/17 - $GPGSV,3,1,11,01,05,023,12,12,36,229,29,13,26,158,22,15,48,196,28*7F

2:58:00:584 Nachm. 03/28/17 - $GPGSV,3,2,11,17,41,075,31,18,16,274,16,19,42,108,28,24,66,286,14*71

2:58:00:584 Nachm. 03/28/17 - $GPGSV,3,3,11,28,13,054,19,10,18,303,,32,02,322,*40

2:58:00:585 Nachm. 03/28/17 - $GLGSV,2,1,08,82,35,057,23,73,72,016,22,,,,22,83,25,120,16*5F

2:58:00:587 Nachm. 03/28/17 - $GLGSV,2,2,08,71,33,229,26,72,40,298,12,70,,,,65,11,341,*55

2:58:00:587 Nachm. 03/28/17 - $GPGGA,125756.0,5208.437646,N,01138.432593,E,1,08,0.8,70.3,M,45.0,M,,*61

2:58:00:588 Nachm. 03/28/17 - $GNGNS,125756.0,5208.437646,N,01138.432593,E,AA,12,0.8,70.3,45.0,,*5E

2:58:00:588 Nachm. 03/28/17 - $GPVTG,132.5,T,132.1,M,0.0,N,0.0,K,A*27

2:58:00:588 Nachm. 03/28/17 - $GPRMC,125756.0,A,5208.437646,N,01138.432593,E,0.0,132.5,280317,0.4,E,A*03

2:58:00:588 Nachm. 03/28/17 - $GPGSA,A,2,12,13,15,17,18,19,24,28,,,,,1.2,0.8,0.8*3E

2:58:00:589 Nachm. 03/28/17 - $GNGSA,A,2,12,13,15,17,18,19,24,28,,,,,1.2,0.8,0.8*20

2:58:00:596 Nachm. 03/28/17 - $GNGSA,A,2,71,73,82,83,,,,,,,,,1.2,0.8,0.8*2D

2:58:01:583 Nachm. 03/28/17 - $GPGSV,3,1,11,01,05,023,12,12,36,229,30,13,26,158,22,15,48,196,28*77

2:58:01:584 Nachm. 03/28/17 - $GPGSV,3,2,11,17,41,075,32,19,42,108,30,24,66,286,14,28,13,054,19*72

2:58:01:584 Nachm. 03/28/17 - $GPGSV,3,3,11,10,18,303,,18,16,274,,32,02,322,*4E

2:58:01:584 Nachm. 03/28/17 - $GLGSV,2,1,08,82,35,057,24,73,72,016,15,,,,22,83,25,120,18*52

2:58:01:585 Nachm. 03/28/17 - $GLGSV,2,2,08,71,33,229,28,70,,,,65,11,341,,,40,298,*5D

2:58:01:585 Nachm. 03/28/17 - $GPGGA,125757.0,5208.437536,N,01138.432608,E,1,08,0.8,70.5,M,45.0,M,,*63

2:58:01:585 Nachm. 03/28/17 - $GNGNS,125757.0,5208.437536,N,01138.432608,E,AA,12,0.8,70.5,45.0,,*5C

2:58:01:585 Nachm. 03/28/17 - $GPVTG,132.5,T,132.1,M,0.0,N,0.0,K,A*27

2:58:01:585 Nachm. 03/28/17 - $GPRMC,125757.0,A,5208.437536,N,01138.432608,E,0.0,132.5,280317,0.4,E,A*07

2:58:01:585 Nachm. 03/28/17 - $GPGSA,A,2,12,13,15,17,18,19,24,28,,,,,1.2,0.8,0.8*3E

2:58:01:585 Nachm. 03/28/17 - $GNGSA,A,2,12,13,15,17,18,19,24,28,,,,,1.2,0.8,0.8*20

2:58:01:585 Nachm. 03/28/17 - $GNGSA,A,2,71,73,82,83,,,,,,,,,1.2,0.8,0.8*2D

2:58:02:584 Nachm. 03/28/17 - $GPGSV,3,1,11,01,05,023,12,12,36,229,29,13,26,158,22,15,48,196,28*7F

2:58:02:584 Nachm. 03/28/17 - $GPGSV,3,2,11,17,41,075,31,19,42,108,28,24,66,286,14,28,13,054,19*78

2:58:02:584 Nachm. 03/28/17 - $GPGSV,3,3,11,10,18,303,,18,16,274,,32,02,322,*4E

2:58:02:585 Nachm. 03/28/17 - $GLGSV,2,1,08,82,35,057,22,73,72,016,17,,,,22,83,25,120,18*56

2:58:02:587 Nachm. 03/28/17 - $GLGSV,2,2,08,71,33,229,27,70,,,,65,11,341,,72,40,298,*57

2:58:02:587 Nachm. 03/28/17 - $GPGGA,125758.0,5208.437205,N,01138.432912,E,1,08,0.8,70.2,M,45.0,M,,*68

2:58:02:587 Nachm. 03/28/17 - $GNGNS,125758.0,5208.437205,N,01138.432912,E,AA,12,0.8,70.2,45.0,,*57

2:58:02:587 Nachm. 03/28/17 - $GPVTG,132.5,T,132.1,M,0.0,N,0.0,K,A*27

2:58:02:589 Nachm. 03/28/17 - $GPRMC,125758.0,A,5208.437205,N,01138.432912,E,0.0,132.5,280317,0.4,E,A*0B

2:58:02:589 Nachm. 03/28/17 - $GPGSA,A,2,12,13,15,17,18,19,24,28,,,,,1.2,0.8,0.8*3E

2:58:02:590 Nachm. 03/28/17 - $GNGSA,A,2,12,13,15,17,18,19,24,28,,,,,1.2,0.8,0.8*20

2:58:02:590 Nachm. 03/28/17 - $GNGSA,A,2,71,73,82,83,,,,,,,,,1.2,0.8,0.8*2D


