3:14:05:583 Nachm. 03/28/17 - $GPGSV,3,1,12,01,05,016,22,10,17,295,25,12,45,232,26,15,41,192,29*70

3:14:05:585 Nachm. 03/28/17 - $GPGSV,3,2,12,17,40,066,30,18,13,268,21,19,45,098,20,24,73,286,31*78

3:14:05:585 Nachm. 03/28/17 - $GPGSV,3,3,12,32,08,320,23,13,18,160,,25,03,237,,28,07,056,*73

3:14:05:587 Nachm. 03/28/17 - $GLGSV,3,1,10,74,37,284,16,82,34,047,28,73,67,040,31,80,23,078,24*6F

3:14:05:589 Nachm. 03/28/17 - $GLGSV,3,2,10,65,17,336,24,83,33,115,27,81,04,007,19,71,25,223,22*6B

3:14:05:591 Nachm. 03/28/17 - $GLGSV,3,3,10,72,40,285,17,84,,,*50

3:14:05:592 Nachm. 03/28/17 - $GPGGA,131401.0,5208.366448,N,01138.678730,E,1,07,0.8,62.8,M,45.0,M,,*6A

3:14:05:597 Nachm. 03/28/17 - $GNGNS,131401.0,5208.366448,N,01138.678730,E,AA,14,0.8,62.8,45.0,,*5C

3:14:05:598 Nachm. 03/28/17 - $GPVTG,3.2,T,2.8,M,0.0,N,0.0,K,A*28

3:14:05:598 Nachm. 03/28/17 - $GPRMC,131401.0,A,5208.366448,N,01138.678730,E,0.0,3.2,280317,0.4,E,A*0B

3:14:05:599 Nachm. 03/28/17 - $GPGSA,A,2,10,12,15,17,18,19,24,,,,,,1.1,0.8,0.8*34

3:14:05:600 Nachm. 03/28/17 - $GNGSA,A,2,10,12,15,17,18,19,24,,,,,,1.1,0.8,0.8*2A

3:14:05:601 Nachm. 03/28/17 - $GNGSA,A,2,65,71,72,73,74,82,83,,,,,,1.1,0.8,0.8*2B

3:14:06:584 Nachm. 03/28/17 - $GPGSV,3,1,12,01,05,016,21,10,17,295,25,12,45,232,24,15,41,192,29*71

3:14:06:585 Nachm. 03/28/17 - $GPGSV,3,2,12,17,40,066,31,18,13,268,22,19,45,098,17,24,73,286,30*7F

3:14:06:588 Nachm. 03/28/17 - $GPGSV,3,3,12,32,08,320,24,13,18,160,,25,03,237,,28,07,056,*74

3:14:06:608 Nachm. 03/28/17 - $GLGSV,3,1,10,74,37,284,16,82,34,047,29,73,67,040,29,80,23,078,23*60

3:14:06:610 Nachm. 03/28/17 - $GLGSV,3,2,10,65,17,336,23,83,33,115,28,81,04,007,18,71,25,223,23*63

3:14:06:610 Nachm. 03/28/17 - $GLGSV,3,3,10,72,40,285,17,84,,,*50

3:14:06:611 Nachm. 03/28/17 - $GPGGA,131402.0,5208.367166,N,01138.678912,E,1,07,0.8,62.0,M,45.0,M,,*67

3:14:06:612 Nachm. 03/28/17 - $GNGNS,131402.0,5208.367166,N,01138.678912,E,AA,14,0.8,62.0,45.0,,*51

3:14:06:612 Nachm. 03/28/17 - $GPVTG,3.2,T,2.8,M,0.0,N,0.0,K,A*28

3:14:06:613 Nachm. 03/28/17 - $GPRMC,131402.0,A,5208.367166,N,01138.678912,E,0.0,3.2,280317,0.4,E,A*0E

3:14:06:613 Nachm. 03/28/17 - $GPGSA,A,2,10,12,15,17,18,19,24,,,,,,1.1,0.8,0.8*34

3:14:06:614 Nachm. 03/28/17 - $GNGSA,A,2,10,12,15,17,18,19,24,,,,,,1.1,0.8,0.8*2A

3:14:06:614 Nachm. 03/28/17 - $GNGSA,A,2,65,71,72,73,74,82,83,,,,,,1.1,0.8,0.8*2B

3:14:07:584 Nachm. 03/28/17 - $GPGSV,3,1,12,01,05,016,20,10,17,295,25,12,45,232,28,15,41,192,33*77

3:14:07:586 Nachm. 03/28/17 - $GPGSV,3,2,12,17,40,066,25,18,13,268,22,19,45,098,28,24,73,286,28*7F

3:14:07:587 Nachm. 03/28/17 - $GPGSV,3,3,12,32,08,320,23,13,18,160,,25,03,237,,28,07,056,*73

3:14:07:597 Nachm. 03/28/17 - $GLGSV,3,1,10,74,37,284,16,82,34,047,22,73,67,040,26,80,23,078,21*66

3:14:07:602 Nachm. 03/28/17 - $GLGSV,3,2,10,65,17,336,18,83,33,115,26,81,04,007,18,71,25,223,25*63

3:14:07:603 Nachm. 03/28/17 - $GLGSV,3,3,10,72,40,285,18,84,,,*5F

3:14:07:604 Nachm. 03/28/17 - $GPGGA,131403.0,5208.367895,N,01138.679061,E,1,07,0.8,60.8,M,45.0,M,,*65

3:14:07:606 Nachm. 03/28/17 - $GNGNS,131403.0,5208.367895,N,01138.679061,E,AA,14,0.8,60.8,45.0,,*53

3:14:07:607 Nachm. 03/28/17 - $GPVTG,3.2,T,2.8,M,0.0,N,0.0,K,A*28

3:14:07:608 Nachm. 03/28/17 - $GPRMC,131403.0,A,5208.367895,N,01138.679061,E,0.0,3.2,280317,0.4,E,A*06

3:14:07:609 Nachm. 03/28/17 - $GPGSA,A,2,10,12,15,17,18,19,24,,,,,,1.1,0.8,0.8*34

3:14:07:610 Nachm. 03/28/17 - $GNGSA,A,2,10,12,15,17,18,19,24,,,,,,1.1,0.8,0.8*2A

3:14:07:611 Nachm. 03/28/17 - $GNGSA,A,2,65,71,72,73,74,82,83,,,,,,1.1,0.8,0.8*2B

3:14:08:583 Nachm. 03/28/17 - $GPGSV,3,1,12,01,05,016,21,10,17,295,25,12,45,232,29,15,41,192,30*74

3:14:08:584 Nachm. 03/28/17 - $GPGSV,3,2,12,17,40,066,28,18,13,268,22,19,45,098,26,24,73,286,28*7C

3:14:08:585 Nachm. 03/28/17 - $GPGSV,3,3,12,32,08,320,20,13,18,160,,25,03,237,,28,07,056,*70

3:14:08:586 Nachm. 03/28/17 - $GLGSV,3,1,10,74,37,284,16,82,34,047,23,73,67,040,25,80,23,078,20*65

3:14:08:586 Nachm. 03/28/17 - $GLGSV,3,2,10,65,17,336,18,83,33,115,26,81,04,007,18,71,25,223,27*61

3:14:08:588 Nachm. 03/28/17 - $GLGSV,3,3,10,72,40,285,20,84,,,*54

3:14:08:588 Nachm. 03/28/17 - $GPGGA,131404.0,5208.368343,N,01138.679151,E,1,07,0.8,60.5,M,45.0,M,,*62

3:14:08:588 Nachm. 03/28/17 - $GNGNS,131404.0,5208.368343,N,01138.679151,E,AA,14,0.8,60.5,45.0,,*54

3:14:08:588 Nachm. 03/28/17 - $GPVTG,3.2,T,2.8,M,0.0,N,0.0,K,A*28

3:14:08:589 Nachm. 03/28/17 - $GPRMC,131404.0,A,5208.368343,N,01138.679151,E,0.0,3.2,280317,0.4,E,A*0C

3:14:08:589 Nachm. 03/28/17 - $GPGSA,A,2,10,12,15,17,18,19,24,,,,,,1.1,0.8,0.8*34

3:14:08:589 Nachm. 03/28/17 - $GNGSA,A,2,10,12,15,17,18,19,24,,,,,,1.1,0.8,0.8*2A

3:14:08:590 Nachm. 03/28/17 - $GNGSA,A,2,65,71,72,73,74,82,83,,,,,,1.1,0.8,0.8*2B

3:14:09:586 Nachm. 03/28/17 - $GPGSV,3,1,12,01,05,016,21,10,17,295,25,12,45,232,32,15,41,192,25*7A

3:14:09:588 Nachm. 03/28/17 - $GPGSV,3,2,12,17,40,066,32,18,13,268,22,19,45,098,27,24,73,286,25*7B

3:14:09:589 Nachm. 03/28/17 - $GPGSV,3,3,12,32,08,320,21,13,18,160,,25,03,237,,28,07,056,*71

3:14:09:590 Nachm. 03/28/17 - $GLGSV,3,1,10,74,37,284,12,82,34,047,27,73,67,040,22,80,23,078,23*61

3:14:09:599 Nachm. 03/28/17 - $GLGSV,3,2,10,65,17,336,18,83,33,115,29,81,04,007,18,71,25,223,24*6D

3:14:09:602 Nachm. 03/28/17 - $GLGSV,3,3,10,72,40,285,20,84,,,*54

3:14:09:603 Nachm. 03/28/17 - $GPGGA,131405.0,5208.368698,N,01138.679349,E,1,07,0.8,60.5,M,45.0,M,,*6B

3:14:09:603 Nachm. 03/28/17 - $GNGNS,131405.0,5208.368698,N,01138.679349,E,AA,14,0.8,60.5,45.0,,*5D

3:14:09:604 Nachm. 03/28/17 - $GPVTG,3.2,T,2.8,M,0.0,N,0.0,K,A*28

3:14:09:604 Nachm. 03/28/17 - $GPRMC,131405.0,A,5208.368698,N,01138.679349,E,0.0,3.2,280317,0.4,E,A*05

3:14:09:605 Nachm. 03/28/17 - $GPGSA,A,2,10,12,15,17,18,19,24,,,,,,1.1,0.8,0.8*34

3:14:09:605 Nachm. 03/28/17 - $GNGSA,A,2,10,12,15,17,18,19,24,,,,,,1.1,0.8,0.8*2A

3:14:09:605 Nachm. 03/28/17 - $GNGSA,A,2,65,71,72,73,74,82,83,,,,,,1.1,0.8,0.8*2B

3:14:10:587 Nachm. 03/28/17 - $GPGSV,3,1,12,01,05,016,19,10,17,295,25,12,45,232,26,15,41,192,24*75

3:14:10:589 Nachm. 03/28/17 - $GPGSV,3,2,12,17,40,066,33,19,45,098,26,24,73,286,21,32,08,320,24*76

3:14:10:589 Nachm. 03/28/17 - $GPGSV,3,3,12,13,18,160,,18,13,268,,25,03,237,,28,07,056,*7D

3:14:10:594 Nachm. 03/28/17 - $GLGSV,3,1,10,74,37,284,12,82,34,047,27,73,67,040,19,80,23,078,22*68

3:14:10:597 Nachm. 03/28/17 - $GLGSV,3,2,10,65,17,336,16,83,33,115,29,81,04,007,14,71,25,223,24*6F

3:14:10:597 Nachm. 03/28/17 - $GLGSV,3,3,10,72,40,285,20,84,,,*54

3:14:10:598 Nachm. 03/28/17 - $GPGGA,131406.0,5208.368815,N,01138.679460,E,1,07,0.8,60.1,M,45.0,M,,*6B

3:14:10:601 Nachm. 03/28/17 - $GNGNS,131406.0,5208.368815,N,01138.679460,E,AA,14,0.8,60.1,45.0,,*5D

3:14:10:604 Nachm. 03/28/17 - $GPVTG,3.2,T,2.8,M,0.0,N,0.0,K,A*28

3:14:10:604 Nachm. 03/28/17 - $GPRMC,131406.0,A,5208.368815,N,01138.679460,E,0.0,3.2,280317,0.4,E,A*01

3:14:10:604 Nachm. 03/28/17 - $GPGSA,A,2,10,12,15,17,18,19,24,,,,,,1.1,0.8,0.8*34

3:14:10:612 Nachm. 03/28/17 - $GNGSA,A,2,10,12,15,17,18,19,24,,,,,,1.1,0.8,0.8*2A

3:14:10:612 Nachm. 03/28/17 - $GNGSA,A,2,65,71,72,73,74,82,83,,,,,,1.1,0.8,0.8*2B

3:14:11:584 Nachm. 03/28/17 - $GPGSV,3,1,12,01,05,016,21,10,17,295,25,12,45,232,28,15,41,192,29*7D

3:14:11:585 Nachm. 03/28/17 - $GPGSV,3,2,12,17,40,066,27,19,45,098,20,24,73,286,30,32,08,320,25*74

3:14:11:586 Nachm. 03/28/17 - $GPGSV,3,3,12,13,18,160,,18,13,268,,25,03,237,,28,07,056,*7D

3:14:11:589 Nachm. 03/28/17 - $GLGSV,3,1,10,74,37,284,12,82,34,047,26,73,67,040,26,80,23,078,21*66

3:14:11:591 Nachm. 03/28/17 - $GLGSV,3,2,10,65,17,336,16,83,33,115,28,81,04,007,19,71,25,223,28*6F

3:14:11:592 Nachm. 03/28/17 - $GLGSV,3,3,10,72,40,285,20,84,,,*54

3:14:11:593 Nachm. 03/28/17 - $GPGGA,131407.0,5208.368841,N,01138.679522,E,1,07,0.8,60.0,M,45.0,M,,*6D

3:14:11:595 Nachm. 03/28/17 - $GNGNS,131407.0,5208.368841,N,01138.679522,E,AA,14,0.8,60.0,45.0,,*5B

3:14:11:600 Nachm. 03/28/17 - $GPVTG,3.2,T,2.8,M,0.0,N,0.0,K,A*28

3:14:11:619 Nachm. 03/28/17 - $GPRMC,131407.0,A,5208.368841,N,01138.679522,E,0.0,3.2,280317,0.4,E,A*06

3:14:11:620 Nachm. 03/28/17 - $GPGSA,A,2,10,12,15,17,18,19,24,,,,,,1.1,0.8,0.8*34

3:14:11:620 Nachm. 03/28/17 - $GNGSA,A,2,10,12,15,17,18,19,24,,,,,,1.1,0.8,0.8*2A

3:14:11:621 Nachm. 03/28/17 - $GNGSA,A,2,65,71,72,73,74,82,83,,,,,,1.1,0.8,0.8*2B

3:14:12:583 Nachm. 03/28/17 - $GPGSV,3,1,12,01,05,016,22,10,17,295,25,12,45,232,28,15,41,192,27*70

3:14:12:583 Nachm. 03/28/17 - $GPGSV,3,2,12,17,40,066,30,19,45,098,25,24,73,286,31,32,08,320,26*75

3:14:12:584 Nachm. 03/28/17 - $GPGSV,3,3,12,13,18,160,,18,13,268,,25,03,237,,28,07,056,*7D

3:14:12:585 Nachm. 03/28/17 - $GLGSV,3,1,10,74,37,284,12,82,34,047,25,73,67,040,27,80,23,078,18*6E

3:14:12:586 Nachm. 03/28/17 - $GLGSV,3,2,10,65,17,336,16,83,33,115,26,81,04,007,22,71,25,223,31*61

3:14:12:586 Nachm. 03/28/17 - $GLGSV,3,3,10,72,40,285,14,84,,,*53

3:14:12:586 Nachm. 03/28/17 - $GPGGA,131408.0,5208.368914,N,01138.679528,E,1,07,0.8,59.9,M,45.0,M,,*6A

3:14:12:589 Nachm. 03/28/17 - $GNGNS,131408.0,5208.368914,N,01138.679528,E,AA,14,0.8,59.9,45.0,,*5C

3:14:12:590 Nachm. 03/28/17 - $GPVTG,3.2,T,2.8,M,0.0,N,0.0,K,A*28

3:14:12:591 Nachm. 03/28/17 - $GPRMC,131408.0,A,5208.368914,N,01138.679528,E,0.0,3.2,280317,0.4,E,A*02

3:14:12:591 Nachm. 03/28/17 - $GPGSA,A,2,10,12,15,17,18,19,24,,,,,,1.1,0.8,0.8*34

3:14:12:592 Nachm. 03/28/17 - $GNGSA,A,2,10,12,15,17,18,19,24,,,,,,1.1,0.8,0.8*2A

3:14:12:592 Nachm. 03/28/17 - $GNGSA,A,2,65,71,72,73,74,82,83,,,,,,1.1,0.8,0.8*2B

3:14:13:585 Nachm. 03/28/17 - $GPGSV,3,1,12,01,05,016,22,10,17,295,22,12,45,232,25,15,41,192,26*7B

3:14:13:586 Nachm. 03/28/17 - $GPGSV,3,2,12,17,40,066,30,19,45,098,22,24,73,286,32,28,07,056,15*77

3:14:13:587 Nachm. 03/28/17 - $GPGSV,3,3,12,32,08,320,18,13,18,160,,18,13,268,,25,03,237,*72

3:14:13:603 Nachm. 03/28/17 - $GLGSV,3,1,10,74,37,284,15,82,34,047,28,73,67,040,29,80,23,078,22*63

3:14:13:604 Nachm. 03/28/17 - $GLGSV,3,2,10,65,17,336,19,83,33,115,29,81,04,007,21,71,25,223,25*67

3:14:13:604 Nachm. 03/28/17 - $GLGSV,3,3,10,72,40,285,22,84,,,*56

3:14:13:605 Nachm. 03/28/17 - $GPGGA,131409.0,5208.368941,N,01138.679516,E,1,07,0.8,59.9,M,45.0,M,,*66

3:14:13:605 Nachm. 03/28/17 - $GNGNS,131409.0,5208.368941,N,01138.679516,E,AA,14,0.8,59.9,45.0,,*50

3:14:13:605 Nachm. 03/28/17 - $GPVTG,3.2,T,2.8,M,0.0,N,0.0,K,A*28

3:14:13:606 Nachm. 03/28/17 - $GPRMC,131409.0,A,5208.368941,N,01138.679516,E,0.0,3.2,280317,0.4,E,A*0E

3:14:13:606 Nachm. 03/28/17 - $GPGSA,A,2,10,12,15,17,19,24,28,,,,,,1.1,0.8,0.8*37

3:14:13:607 Nachm. 03/28/17 - $GNGSA,A,2,10,12,15,17,19,24,28,,,,,,1.1,0.8,0.8*29

3:14:13:607 Nachm. 03/28/17 - $GNGSA,A,2,65,71,72,73,74,82,83,,,,,,1.1,0.8,0.8*2B

3:14:14:584 Nachm. 03/28/17 - $GPGSV,3,1,12,01,05,016,19,10,17,295,23,12,45,232,22,15,41,192,30*72

3:14:14:585 Nachm. 03/28/17 - $GPGSV,3,2,12,17,40,066,28,19,45,098,24,24,73,286,31,28,07,056,16*78

3:14:14:586 Nachm. 03/28/17 - $GPGSV,3,3,12,32,08,320,20,13,18,160,,18,13,268,,25,03,237,*79

3:14:14:591 Nachm. 03/28/17 - $GLGSV,3,1,10,74,37,284,15,82,34,047,29,73,67,040,30,80,23,078,23*6B

3:14:14:591 Nachm. 03/28/17 - $GLGSV,3,2,10,65,17,336,16,83,33,115,30,81,04,007,20,71,25,223,26*62

3:14:14:593 Nachm. 03/28/17 - $GLGSV,3,3,10,72,40,285,22,84,,,*56

3:14:14:600 Nachm. 03/28/17 - $GPGGA,131410.0,5208.368962,N,01138.679515,E,1,07,0.8,59.9,M,45.0,M,,*6C

3:14:14:606 Nachm. 03/28/17 - $GNGNS,131410.0,5208.368962,N,01138.679515,E,AA,14,0.8,59.9,45.0,,*5A

3:14:14:609 Nachm. 03/28/17 - $GPVTG,3.2,T,2.8,M,0.0,N,0.0,K,A*28

3:14:14:609 Nachm. 03/28/17 - $GPRMC,131410.0,A,5208.368962,N,01138.679515,E,0.0,3.2,280317,0.4,E,A*04

3:14:14:609 Nachm. 03/28/17 - $GPGSA,A,2,10,12,15,17,19,24,28,,,,,,1.1,0.8,0.8*37

3:14:14:610 Nachm. 03/28/17 - $GNGSA,A,2,10,12,15,17,19,24,28,,,,,,1.1,0.8,0.8*29

3:14:14:610 Nachm. 03/28/17 - $GNGSA,A,2,65,71,72,73,74,82,83,,,,,,1.1,0.8,0.8*2B

3:14:15:583 Nachm. 03/28/17 - $GPGSV,3,1,12,01,05,016,19,10,17,295,26,12,45,232,24,15,41,192,31*70

3:14:15:585 Nachm. 03/28/17 - $GPGSV,3,2,12,17,40,066,27,19,45,098,25,24,73,286,30,28,07,056,17*76

3:14:15:586 Nachm. 03/28/17 - $GPGSV,3,3,12,32,08,320,25,13,18,160,,18,13,268,,25,03,237,*7C

3:14:15:586 Nachm. 03/28/17 - $GLGSV,3,1,10,74,37,284,15,82,34,047,30,73,67,040,28,80,23,078,24*6D

3:14:15:587 Nachm. 03/28/17 - $GLGSV,3,2,10,65,17,336,16,83,33,115,28,81,04,007,20,71,25,223,28*65

3:14:15:598 Nachm. 03/28/17 - $GLGSV,3,3,10,72,40,285,15,84,,,*52

3:14:15:598 Nachm. 03/28/17 - $GPGGA,131411.0,5208.368989,N,01138.679518,E,1,07,0.8,59.9,M,45.0,M,,*65

3:14:15:599 Nachm. 03/28/17 - $GNGNS,131411.0,5208.368989,N,01138.679518,E,AA,14,0.8,59.9,45.0,,*53

3:14:15:599 Nachm. 03/28/17 - $GPVTG,3.2,T,2.8,M,0.0,N,0.0,K,A*28

3:14:15:600 Nachm. 03/28/17 - $GPRMC,131411.0,A,5208.368989,N,01138.679518,E,0.0,3.2,280317,0.4,E,A*0D

3:14:15:601 Nachm. 03/28/17 - $GPGSA,A,2,10,12,15,17,19,24,28,,,,,,1.1,0.8,0.8*37

3:14:15:601 Nachm. 03/28/17 - $GNGSA,A,2,10,12,15,17,19,24,28,,,,,,1.1,0.8,0.8*29

3:14:15:602 Nachm. 03/28/17 - $GNGSA,A,2,65,71,72,73,74,82,83,,,,,,1.1,0.8,0.8*2B

3:14:16:584 Nachm. 03/28/17 - $GPGSV,3,1,12,01,05,016,18,10,17,295,26,12,45,232,28,15,41,192,32*7E

3:14:16:585 Nachm. 03/28/17 - $GPGSV,3,2,12,17,40,066,33,19,45,098,31,24,73,286,25,28,07,056,18*7D

3:14:16:586 Nachm. 03/28/17 - $GPGSV,3,3,12,32,08,320,25,13,18,160,,18,13,268,,25,03,237,*7C

3:14:16:588 Nachm. 03/28/17 - $GLGSV,3,1,10,74,37,284,15,82,34,047,31,73,67,040,21,80,23,078,23*62

3:14:16:589 Nachm. 03/28/17 - $GLGSV,3,2,10,65,17,336,16,83,33,115,30,81,04,007,18,71,25,223,28*67

3:14:16:590 Nachm. 03/28/17 - $GLGSV,3,3,10,72,40,285,17,84,,,*50

3:14:16:591 Nachm. 03/28/17 - $GPGGA,131412.0,5208.369018,N,01138.679520,E,1,07,0.8,59.9,M,45.0,M,,*6D

3:14:16:606 Nachm. 03/28/17 - $GNGNS,131412.0,5208.369018,N,01138.679520,E,AA,14,0.8,59.9,45.0,,*5B

3:14:16:607 Nachm. 03/28/17 - $GPVTG,3.2,T,2.8,M,0.0,N,0.0,K,A*28

3:14:16:608 Nachm. 03/28/17 - $GPRMC,131412.0,A,5208.369018,N,01138.679520,E,0.0,3.2,280317,0.4,E,A*05

3:14:16:608 Nachm. 03/28/17 - $GPGSA,A,2,10,12,15,17,19,24,28,,,,,,1.1,0.8,0.8*37

3:14:16:609 Nachm. 03/28/17 - $GNGSA,A,2,10,12,15,17,19,24,28,,,,,,1.1,0.8,0.8*29

3:14:16:610 Nachm. 03/28/17 - $GNGSA,A,2,65,71,72,73,74,82,83,,,,,,1.1,0.8,0.8*2B

3:14:17:585 Nachm. 03/28/17 - $GPGSV,3,1,12,01,05,016,17,10,17,295,27,12,45,232,24,15,41,192,33*7D

3:14:17:586 Nachm. 03/28/17 - $GPGSV,3,2,12,17,40,066,30,19,45,098,29,24,73,286,27,28,07,056,21*7F

3:14:17:587 Nachm. 03/28/17 - $GPGSV,3,3,12,32,08,320,25,13,18,160,,18,13,268,,25,03,237,*7C

3:14:17:592 Nachm. 03/28/17 - $GLGSV,3,1,10,74,37,284,15,82,34,047,30,73,67,040,26,80,23,078,24*63

3:14:17:593 Nachm. 03/28/17 - $GLGSV,3,2,10,65,17,336,16,83,33,115,29,81,04,007,18,71,25,223,30*66

3:14:17:593 Nachm. 03/28/17 - $GLGSV,3,3,10,72,40,285,17,84,,,*50

3:14:17:594 Nachm. 03/28/17 - $GPGGA,131413.0,5208.369004,N,01138.679445,E,1,07,0.8,60.4,M,45.0,M,,*64

3:14:17:595 Nachm. 03/28/17 - $GNGNS,131413.0,5208.369004,N,01138.679445,E,AA,14,0.8,60.4,45.0,,*52

3:14:17:595 Nachm. 03/28/17 - $GPVTG,3.2,T,2.8,M,0.0,N,0.0,K,A*28

3:14:17:596 Nachm. 03/28/17 - $GPRMC,131413.0,A,5208.369004,N,01138.679445,E,0.0,3.2,280317,0.4,E,A*0B

3:14:17:602 Nachm. 03/28/17 - $GPGSA,A,2,10,12,15,17,19,24,28,,,,,,1.1,0.8,0.8*37

3:14:17:602 Nachm. 03/28/17 - $GNGSA,A,2,10,12,15,17,19,24,28,,,,,,1.1,0.8,0.8*29

3:14:17:602 Nachm. 03/28/17 - $GNGSA,A,2,65,71,72,73,74,82,83,,,,,,1.1,0.8,0.8*2B

3:14:18:583 Nachm. 03/28/17 - $GPGSV,3,1,12,01,05,016,19,10,17,295,27,12,45,232,20,15,41,192,32*76

3:14:18:584 Nachm. 03/28/17 - $GPGSV,3,2,12,17,40,066,22,19,45,098,24,24,73,286,29,28,07,056,17*7A

3:14:18:585 Nachm. 03/28/17 - $GPGSV,3,3,12,32,08,320,25,13,18,160,,18,13,268,,25,03,237,*7C

3:14:18:592 Nachm. 03/28/17 - $GLGSV,3,1,10,74,37,284,15,82,34,047,30,73,67,040,29,80,23,078,24*6C

3:14:18:601 Nachm. 03/28/17 - $GLGSV,3,2,10,65,17,336,16,83,33,115,29,81,04,007,18,71,25,223,31*67

3:14:18:601 Nachm. 03/28/17 - $GLGSV,3,3,10,72,40,285,17,84,,,*50

3:14:18:601 Nachm. 03/28/17 - $GPGGA,131414.0,5208.369053,N,01138.679477,E,1,07,0.8,60.2,M,45.0,M,,*66

3:14:18:601 Nachm. 03/28/17 - $GNGNS,131414.0,5208.369053,N,01138.679477,E,AA,14,0.8,60.2,45.0,,*50

3:14:18:601 Nachm. 03/28/17 - $GPVTG,3.2,T,2.8,M,0.0,N,0.0,K,A*28

3:14:18:602 Nachm. 03/28/17 - $GPRMC,131414.0,A,5208.369053,N,01138.679477,E,0.0,3.2,280317,0.4,E,A*0F

3:14:18:602 Nachm. 03/28/17 - $GPGSA,A,2,10,12,15,17,19,24,28,,,,,,1.1,0.8,0.8*37

3:14:18:602 Nachm. 03/28/17 - $GNGSA,A,2,10,12,15,17,19,24,28,,,,,,1.1,0.8,0.8*29

3:14:18:602 Nachm. 03/28/17 - $GNGSA,A,2,65,71,72,73,74,82,83,,,,,,1.1,0.8,0.8*2B

3:14:19:584 Nachm. 03/28/17 - $GPGSV,3,1,12,01,05,016,19,10,17,295,26,12,45,232,26,15,41,192,28*7A

3:14:19:585 Nachm. 03/28/17 - $GPGSV,3,2,12,17,40,066,28,18,13,268,21,19,45,098,21,24,73,286,29*79

3:14:19:586 Nachm. 03/28/17 - $GPGSV,3,3,12,28,07,056,19,32,08,320,25,13,18,160,,25,03,237,*7D

3:14:19:591 Nachm. 03/28/17 - $GLGSV,3,1,10,74,37,284,14,82,34,047,29,73,67,040,30,80,23,078,26*6F

3:14:19:592 Nachm. 03/28/17 - $GLGSV,3,2,10,65,17,336,16,83,33,115,29,81,04,007,18,71,25,223,29*6E

3:14:19:595 Nachm. 03/28/17 - $GLGSV,3,3,10,72,40,285,18,84,,,*5F

3:14:19:600 Nachm. 03/28/17 - $GPGGA,131415.0,5208.369088,N,01138.679499,E,1,08,0.7,60.1,M,45.0,M,,*62

3:14:19:601 Nachm. 03/28/17 - $GNGNS,131415.0,5208.369088,N,01138.679499,E,AA,15,0.7,60.1,45.0,,*5A

3:14:19:602 Nachm. 03/28/17 - $GPVTG,3.2,T,2.8,M,0.0,N,0.0,K,A*28

3:14:19:603 Nachm. 03/28/17 - $GPRMC,131415.0,A,5208.369088,N,01138.679499,E,0.0,3.2,280317,0.4,E,A*08

3:14:19:603 Nachm. 03/28/17 - $GPGSA,A,2,10,12,15,17,18,19,24,28,,,,,1.1,0.7,0.8*31

3:14:19:605 Nachm. 03/28/17 - $GNGSA,A,2,10,12,15,17,18,19,24,28,,,,,1.1,0.7,0.8*2F

3:14:19:606 Nachm. 03/28/17 - $GNGSA,A,2,65,71,72,73,74,82,83,,,,,,1.1,0.7,0.8*24

3:14:20:584 Nachm. 03/28/17 - $GPGSV,3,1,12,01,05,016,19,10,17,295,24,12,45,232,23,15,41,192,32*76

3:14:20:584 Nachm. 03/28/17 - $GPGSV,3,2,12,17,40,066,22,18,13,268,19,19,45,098,28,24,73,286,31*78

3:14:20:584 Nachm. 03/28/17 - $GPGSV,3,3,12,28,07,056,22,32,08,320,21,13,18,160,,25,03,237,*71

3:14:20:590 Nachm. 03/28/17 - $GLGSV,3,1,10,74,37,284,14,82,34,047,28,73,67,040,29,80,23,078,23*63

3:14:20:591 Nachm. 03/28/17 - $GLGSV,3,2,10,65,17,336,13,83,33,115,29,81,04,007,18,71,25,223,26*64

3:14:20:591 Nachm. 03/28/17 - $GLGSV,3,3,10,72,40,285,22,84,,,*56

3:14:20:591 Nachm. 03/28/17 - $GPGGA,131416.0,5208.369092,N,01138.679471,E,1,08,0.7,60.3,M,45.0,M,,*6E

3:14:20:593 Nachm. 03/28/17 - $GNGNS,131416.0,5208.369092,N,01138.679471,E,AA,15,0.7,60.3,45.0,,*56

3:14:20:593 Nachm. 03/28/17 - $GPVTG,3.2,T,2.8,M,0.0,N,0.0,K,A*28

3:14:20:594 Nachm. 03/28/17 - $GPRMC,131416.0,A,5208.369092,N,01138.679471,E,0.0,3.2,280317,0.4,E,A*06

3:14:20:594 Nachm. 03/28/17 - $GPGSA,A,2,10,12,15,17,18,19,24,28,,,,,1.1,0.7,0.8*31

3:14:20:594 Nachm. 03/28/17 - $GNGSA,A,2,10,12,15,17,18,19,24,28,,,,,1.1,0.7,0.8*2F

3:14:20:594 Nachm. 03/28/17 - $GNGSA,A,2,65,71,72,73,74,82,83,,,,,,1.1,0.7,0.8*24

3:14:21:584 Nachm. 03/28/17 - $GPGSV,3,1,12,01,05,016,19,10,17,295,25,12,45,232,17,15,41,192,31*73

3:14:21:586 Nachm. 03/28/17 - $GPGSV,3,2,12,17,40,066,21,18,13,268,18,19,45,098,24,24,73,286,29*7F

3:14:21:589 Nachm. 03/28/17 - $GPGSV,3,3,12,28,07,056,19,32,08,320,23,13,18,160,,25,03,237,*7B

3:14:21:601 Nachm. 03/28/17 - $GLGSV,3,1,10,74,37,284,14,82,34,047,28,73,67,040,28,80,23,078,23*62

3:14:21:603 Nachm. 03/28/17 - $GLGSV,3,2,10,65,17,336,21,83,33,115,28,81,04,007,19,71,25,223,23*60

3:14:21:603 Nachm. 03/28/17 - $GLGSV,3,3,10,72,40,285,19,84,,,*5E

3:14:21:604 Nachm. 03/28/17 - $GPGGA,131417.0,5208.369136,N,01138.679508,E,1,08,0.7,60.1,M,45.0,M,,*6D

3:14:21:604 Nachm. 03/28/17 - $GNGNS,131417.0,5208.369136,N,01138.679508,E,AA,15,0.7,60.1,45.0,,*55

3:14:21:605 Nachm. 03/28/17 - $GPVTG,3.2,T,2.8,M,0.0,N,0.0,K,A*28

3:14:21:605 Nachm. 03/28/17 - $GPRMC,131417.0,A,5208.369136,N,01138.679508,E,0.0,3.2,280317,0.4,E,A*07

3:14:21:606 Nachm. 03/28/17 - $GPGSA,A,2,10,12,15,17,18,19,24,28,,,,,1.1,0.7,0.8*31

3:14:21:606 Nachm. 03/28/17 - $GNGSA,A,2,10,12,15,17,18,19,24,28,,,,,1.1,0.7,0.8*2F

3:14:21:607 Nachm. 03/28/17 - $GNGSA,A,2,65,71,72,73,74,82,83,,,,,,1.1,0.7,0.8*24

3:14:22:584 Nachm. 03/28/17 - $GPGSV,3,1,12,01,05,016,20,10,17,295,26,12,45,232,17,15,41,192,29*73

3:14:22:590 Nachm. 03/28/17 - $GPGSV,3,2,12,17,40,066,30,18,13,268,18,19,45,098,24,24,73,286,27*71

3:14:22:590 Nachm. 03/28/17 - $GPGSV,3,3,12,28,07,056,19,32,08,320,22,13,18,160,,25,03,237,*7A

3:14:22:591 Nachm. 03/28/17 - $GLGSV,3,1,10,74,37,284,14,82,34,047,26,73,67,040,26,80,23,078,21*60

3:14:22:592 Nachm. 03/28/17 - $GLGSV,3,2,10,65,17,336,21,83,33,115,28,81,04,007,18,71,25,223,19*68

3:14:22:592 Nachm. 03/28/17 - $GLGSV,3,3,10,72,40,285,18,84,,,*5F

3:14:22:602 Nachm. 03/28/17 - $GPGGA,131418.0,5208.369159,N,01138.679515,E,1,08,0.7,60.0,M,45.0,M,,*66

3:14:22:602 Nachm. 03/28/17 - $GNGNS,131418.0,5208.369159,N,01138.679515,E,AA,15,0.7,60.0,45.0,,*5E

3:14:22:602 Nachm. 03/28/17 - $GPVTG,3.2,T,2.8,M,0.0,N,0.0,K,A*28

3:14:22:602 Nachm. 03/28/17 - $GPRMC,131418.0,A,5208.369159,N,01138.679515,E,0.0,3.2,280317,0.4,E,A*0D

3:14:22:604 Nachm. 03/28/17 - $GPGSA,A,2,10,12,15,17,18,19,24,28,,,,,1.1,0.7,0.8*31

3:14:22:604 Nachm. 03/28/17 - $GNGSA,A,2,10,12,15,17,18,19,24,28,,,,,1.1,0.7,0.8*2F

3:14:22:604 Nachm. 03/28/17 - $GNGSA,A,2,65,71,72,73,74,82,83,,,,,,1.1,0.7,0.8*24

3:14:23:584 Nachm. 03/28/17 - $GPGSV,3,1,12,01,05,016,18,10,17,295,24,12,45,232,20,15,41,192,32*74

3:14:23:586 Nachm. 03/28/17 - $GPGSV,3,2,12,17,40,066,24,18,13,268,18,19,45,098,24,24,73,286,30*72

3:14:23:590 Nachm. 03/28/17 - $GPGSV,3,3,12,28,07,056,20,32,08,320,22,13,18,160,,25,03,237,*70

3:14:23:591 Nachm. 03/28/17 - $GLGSV,3,1,10,74,37,284,14,82,34,047,25,73,67,040,27,80,23,078,23*60

3:14:23:593 Nachm. 03/28/17 - $GLGSV,3,2,10,65,17,336,21,83,33,115,27,81,04,007,21,71,25,223,28*6F

3:14:23:598 Nachm. 03/28/17 - $GLGSV,3,3,10,72,40,285,21,84,,,*55

3:14:23:598 Nachm. 03/28/17 - $GPGGA,131419.0,5208.369194,N,01138.679535,E,1,08,0.7,59.9,M,45.0,M,,*67

3:14:23:600 Nachm. 03/28/17 - $GNGNS,131419.0,5208.369194,N,01138.679535,E,AA,15,0.7,59.9,45.0,,*5F

3:14:23:600 Nachm. 03/28/17 - $GPVTG,3.2,T,2.8,M,0.0,N,0.0,K,A*28

3:14:23:600 Nachm. 03/28/17 - $GPRMC,131419.0,A,5208.369194,N,01138.679535,E,0.0,3.2,280317,0.4,E,A*0F

3:14:23:605 Nachm. 03/28/17 - $GPGSA,A,2,10,12,15,17,18,19,24,28,,,,,1.1,0.7,0.8*31

3:14:23:605 Nachm. 03/28/17 - $GNGSA,A,2,10,12,15,17,18,19,24,28,,,,,1.1,0.7,0.8*2F

3:14:23:605 Nachm. 03/28/17 - $GNGSA,A,2,65,71,72,73,74,82,83,,,,,,1.1,0.7,0.8*24

3:14:24:585 Nachm. 03/28/17 - $GPGSV,3,1,12,01,05,016,18,10,17,295,23,12,45,232,21,15,41,192,32*72

3:14:24:589 Nachm. 03/28/17 - $GPGSV,3,2,12,17,40,066,24,18,13,268,17,19,45,098,24,24,73,286,31*7C

3:14:24:592 Nachm. 03/28/17 - $GPGSV,3,3,12,28,07,056,21,32,08,320,23,13,18,160,,25,03,237,*70

3:14:24:606 Nachm. 03/28/17 - $GLGSV,3,1,10,74,37,284,15,82,34,047,24,73,67,040,28,80,23,078,23*6F

3:14:24:606 Nachm. 03/28/17 - $GLGSV,3,2,10,65,17,336,16,83,33,115,28,81,04,007,22,71,25,223,28*67

3:14:24:607 Nachm. 03/28/17 - $GLGSV,3,3,10,72,40,285,19,84,,,*5E

3:14:24:607 Nachm. 03/28/17 - $GPGGA,131420.0,5208.369212,N,01138.679576,E,1,08,0.7,59.8,M,45.0,M,,*66

3:14:24:607 Nachm. 03/28/17 - $GNGNS,131420.0,5208.369212,N,01138.679576,E,AA,15,0.7,59.8,45.0,,*5E

3:14:24:607 Nachm. 03/28/17 - $GPVTG,3.2,T,2.8,M,0.0,N,0.0,K,A*28

3:14:24:607 Nachm. 03/28/17 - $GPRMC,131420.0,A,5208.369212,N,01138.679576,E,0.0,3.2,280317,0.4,E,A*0F

3:14:24:608 Nachm. 03/28/17 - $GPGSA,A,2,10,12,15,17,18,19,24,28,,,,,1.1,0.7,0.8*31

3:14:24:608 Nachm. 03/28/17 - $GNGSA,A,2,10,12,15,17,18,19,24,28,,,,,1.1,0.7,0.8*2F

3:14:24:608 Nachm. 03/28/17 - $GNGSA,A,2,65,71,72,73,74,82,83,,,,,,1.1,0.7,0.8*24

3:14:25:586 Nachm. 03/28/17 - $GPGSV,3,1,12,01,05,016,18,10,17,295,25,12,45,232,22,15,41,192,31*74

3:14:25:587 Nachm. 03/28/17 - $GPGSV,3,2,12,17,40,066,17,18,13,268,17,19,45,098,21,24,73,286,31*79

3:14:25:592 Nachm. 03/28/17 - $GPGSV,3,3,12,28,07,056,21,32,08,320,23,13,18,160,,25,03,237,*70

3:14:25:593 Nachm. 03/28/17 - $GLGSV,3,1,10,74,37,284,18,82,34,047,25,73,67,040,29,80,23,078,24*65

3:14:25:594 Nachm. 03/28/17 - $GLGSV,3,2,10,65,17,336,16,83,33,115,27,81,04,007,20,71,25,223,27*65

3:14:25:598 Nachm. 03/28/17 - $GLGSV,3,3,10,72,40,285,21,84,,,*55

3:14:25:599 Nachm. 03/28/17 - $GPGGA,131421.0,5208.369225,N,01138.679613,E,1,08,0.7,59.7,M,45.0,M,,*6C

3:14:25:599 Nachm. 03/28/17 - $GNGNS,131421.0,5208.369225,N,01138.679613,E,AA,15,0.7,59.7,45.0,,*54

3:14:25:600 Nachm. 03/28/17 - $GPVTG,3.2,T,2.8,M,0.0,N,0.0,K,A*28

3:14:25:600 Nachm. 03/28/17 - $GPRMC,131421.0,A,5208.369225,N,01138.679613,E,0.0,3.2,280317,0.4,E,A*0A

3:14:25:601 Nachm. 03/28/17 - $GPGSA,A,2,10,12,15,17,18,19,24,28,,,,,1.1,0.7,0.8*31

3:14:25:603 Nachm. 03/28/17 - $GNGSA,A,2,10,12,15,17,18,19,24,28,,,,,1.1,0.7,0.8*2F

3:14:25:603 Nachm. 03/28/17 - $GNGSA,A,2,65,71,72,73,74,82,83,,,,,,1.1,0.7,0.8*24

3:14:26:585 Nachm. 03/28/17 - $GPGSV,3,1,12,01,05,016,18,10,17,295,25,12,45,232,22,15,41,192,32*77

3:14:26:587 Nachm. 03/28/17 - $GPGSV,3,2,12,17,40,066,20,18,13,268,16,19,45,098,21,24,73,286,31*7C

3:14:26:593 Nachm. 03/28/17 - $GPGSV,3,3,12,28,07,056,19,32,08,320,24,13,18,160,,25,03,237,*7C

3:14:26:593 Nachm. 03/28/17 - $GLGSV,3,1,10,74,37,284,19,82,34,047,23,73,67,040,29,80,23,078,23*65

3:14:26:595 Nachm. 03/28/17 - $GLGSV,3,2,10,65,17,336,16,83,33,115,27,81,04,007,22,71,25,223,29*69

3:14:26:596 Nachm. 03/28/17 - $GLGSV,3,3,10,72,40,285,18,84,,,*5F

3:14:26:599 Nachm. 03/28/17 - $GPGGA,131422.0,5208.369227,N,01138.679661,E,1,08,0.7,59.5,M,45.0,M,,*6A

3:14:26:603 Nachm. 03/28/17 - $GNGNS,131422.0,5208.369227,N,01138.679661,E,AA,15,0.7,59.5,45.0,,*52

3:14:26:605 Nachm. 03/28/17 - $GPVTG,3.2,T,2.8,M,0.0,N,0.0,K,A*28

3:14:26:605 Nachm. 03/28/17 - $GPRMC,131422.0,A,5208.369227,N,01138.679661,E,0.0,3.2,280317,0.4,E,A*0E

3:14:26:606 Nachm. 03/28/17 - $GPGSA,A,2,10,12,15,17,18,19,24,28,,,,,1.1,0.7,0.8*31

3:14:26:606 Nachm. 03/28/17 - $GNGSA,A,2,10,12,15,17,18,19,24,28,,,,,1.1,0.7,0.8*2F

3:14:26:607 Nachm. 03/28/17 - $GNGSA,A,2,65,71,72,73,74,82,83,,,,,,1.1,0.7,0.8*24

3:14:27:584 Nachm. 03/28/17 - $GPGSV,3,1,12,01,05,016,17,10,17,295,25,12,45,232,22,15,41,192,32*78

3:14:27:586 Nachm. 03/28/17 - $GPGSV,3,2,12,17,40,066,23,18,13,268,16,19,45,098,21,24,73,286,31*7F

3:14:27:589 Nachm. 03/28/17 - $GPGSV,3,3,12,28,07,056,20,32,08,320,24,13,18,160,,25,03,237,*76

3:14:27:598 Nachm. 03/28/17 - $GLGSV,3,1,10,74,37,284,18,82,34,047,23,73,67,040,30,80,23,078,23*6C

3:14:27:603 Nachm. 03/28/17 - $GLGSV,3,2,10,65,17,336,16,83,33,115,27,81,04,007,22,71,25,223,29*69

3:14:27:603 Nachm. 03/28/17 - $GLGSV,3,3,10,72,40,285,18,84,,,*5F

3:14:27:604 Nachm. 03/28/17 - $GPGGA,131423.0,5208.369248,N,01138.679654,E,1,08,0.7,59.6,M,45.0,M,,*67

3:14:27:604 Nachm. 03/28/17 - $GNGNS,131423.0,5208.369248,N,01138.679654,E,AA,15,0.7,59.6,45.0,,*5F

3:14:27:605 Nachm. 03/28/17 - $GPVTG,3.2,T,2.8,M,0.0,N,0.0,K,A*28

3:14:27:605 Nachm. 03/28/17 - $GPRMC,131423.0,A,5208.369248,N,01138.679654,E,0.0,3.2,280317,0.4,E,A*00

3:14:27:606 Nachm. 03/28/17 - $GPGSA,A,2,10,12,15,17,18,19,24,28,,,,,1.1,0.7,0.8*31

3:14:27:606 Nachm. 03/28/17 - $GNGSA,A,2,10,12,15,17,18,19,24,28,,,,,1.1,0.7,0.8*2F

3:14:27:607 Nachm. 03/28/17 - $GNGSA,A,2,65,71,72,73,74,82,83,,,,,,1.1,0.7,0.8*24

3:14:28:584 Nachm. 03/28/17 - $GPGSV,3,1,12,01,05,016,17,10,17,295,26,12,45,232,23,15,41,192,32*7A

3:14:28:585 Nachm. 03/28/17 - $GPGSV,3,2,12,17,40,066,24,18,13,268,16,19,45,098,21,24,73,286,31*78

3:14:28:588 Nachm. 03/28/17 - $GPGSV,3,3,12,28,07,056,20,32,08,320,23,13,18,160,,25,03,237,*71

3:14:28:589 Nachm. 03/28/17 - $GLGSV,3,1,10,74,37,284,17,82,34,047,22,73,67,040,29,80,23,078,23*6A

3:14:28:589 Nachm. 03/28/17 - $GLGSV,3,2,10,65,17,336,16,83,33,115,27,81,04,007,22,71,25,223,30*61

3:14:28:590 Nachm. 03/28/17 - $GLGSV,3,3,10,72,40,285,15,84,,,*52

3:14:28:591 Nachm. 03/28/17 - $GPGGA,131424.0,5208.369259,N,01138.679663,E,1,08,0.7,59.5,M,45.0,M,,*67

3:14:28:598 Nachm. 03/28/17 - $GNGNS,131424.0,5208.369259,N,01138.679663,E,AA,15,0.7,59.5,45.0,,*5F

3:14:28:599 Nachm. 03/28/17 - $GPVTG,3.2,T,2.8,M,0.0,N,0.0,K,A*28

3:14:28:606 Nachm. 03/28/17 - $GPRMC,131424.0,A,5208.369259,N,01138.679663,E,0.0,3.2,280317,0.4,E,A*03

3:14:28:607 Nachm. 03/28/17 - $GPGSA,A,2,10,12,15,17,18,19,24,28,,,,,1.1,0.7,0.8*31

3:14:28:608 Nachm. 03/28/17 - $GNGSA,A,2,10,12,15,17,18,19,24,28,,,,,1.1,0.7,0.8*2F

3:14:28:608 Nachm. 03/28/17 - $GNGSA,A,2,65,71,72,73,74,82,83,,,,,,1.1,0.7,0.8*24

3:14:29:585 Nachm. 03/28/17 - $GPGSV,3,1,12,01,05,016,20,10,17,295,27,12,45,232,19,15,41,192,31*75

3:14:29:586 Nachm. 03/28/17 - $GPGSV,3,2,12,17,40,066,29,18,13,268,16,19,45,098,21,24,73,286,30*74

3:14:29:590 Nachm. 03/28/17 - $GPGSV,3,3,12,28,07,056,19,32,08,320,23,13,18,160,,25,03,237,*7B

3:14:29:596 Nachm. 03/28/17 - $GLGSV,3,1,10,74,37,284,21,82,34,047,26,73,67,040,29,80,23,078,23*6B

3:14:29:597 Nachm. 03/28/17 - $GLGSV,3,2,10,65,17,336,16,83,33,115,27,81,04,007,21,71,25,223,28*6B

3:14:29:598 Nachm. 03/28/17 - $GLGSV,3,3,10,72,40,285,15,84,,,*52

3:14:29:599 Nachm. 03/28/17 - $GPGGA,131425.0,5208.369265,N,01138.679686,E,1,08,0.7,59.5,M,45.0,M,,*62

3:14:29:600 Nachm. 03/28/17 - $GNGNS,131425.0,5208.369265,N,01138.679686,E,AA,15,0.7,59.5,45.0,,*5A

3:14:29:600 Nachm. 03/28/17 - $GPVTG,3.2,T,2.8,M,0.0,N,0.0,K,A*28

3:14:29:606 Nachm. 03/28/17 - $GPRMC,131425.0,A,5208.369265,N,01138.679686,E,0.0,3.2,280317,0.4,E,A*06

3:14:29:607 Nachm. 03/28/17 - $GPGSA,A,2,10,12,15,17,18,19,24,28,,,,,1.1,0.7,0.8*31

3:14:29:607 Nachm. 03/28/17 - $GNGSA,A,2,10,12,15,17,18,19,24,28,,,,,1.1,0.7,0.8*2F

3:14:29:607 Nachm. 03/28/17 - $GNGSA,A,2,65,71,72,73,74,82,83,,,,,,1.1,0.7,0.8*24

3:14:30:587 Nachm. 03/28/17 - $GPGSV,3,1,12,01,05,016,19,10,17,295,27,12,45,232,19,15,41,192,27*78

3:14:30:588 Nachm. 03/28/17 - $GPGSV,3,2,12,17,40,066,32,18,13,268,16,19,45,098,24,24,73,286,23*79

3:14:30:589 Nachm. 03/28/17 - $GPGSV,3,3,12,28,07,056,17,32,08,320,23,13,18,160,,25,03,237,*75

3:14:30:601 Nachm. 03/28/17 - $GLGSV,3,1,10,74,37,284,19,82,34,047,29,73,67,040,18,80,23,078,22*6C

3:14:30:601 Nachm. 03/28/17 - $GLGSV,3,2,10,65,17,336,13,83,33,115,27,81,04,007,21,71,25,223,22*64

3:14:30:602 Nachm. 03/28/17 - $GLGSV,3,3,10,72,40,285,15,84,,,*52

3:14:30:603 Nachm. 03/28/17 - $GPGGA,131426.0,5208.369271,N,01138.679707,E,1,08,0.7,59.4,M,45.0,M,,*6D

3:14:30:603 Nachm. 03/28/17 - $GNGNS,131426.0,5208.369271,N,01138.679707,E,AA,15,0.7,59.4,45.0,,*55

3:14:30:604 Nachm. 03/28/17 - $GPVTG,3.2,T,2.8,M,0.0,N,0.0,K,A*28

3:14:30:605 Nachm. 03/28/17 - $GPRMC,131426.0,A,5208.369271,N,01138.679707,E,0.0,3.2,280317,0.4,E,A*08

3:14:30:606 Nachm. 03/28/17 - $GPGSA,A,2,10,12,15,17,18,19,24,28,,,,,1.1,0.7,0.8*31

3:14:30:606 Nachm. 03/28/17 - $GNGSA,A,2,10,12,15,17,18,19,24,28,,,,,1.1,0.7,0.8*2F

3:14:30:607 Nachm. 03/28/17 - $GNGSA,A,2,65,71,72,73,74,82,83,,,,,,1.1,0.7,0.8*24

3:14:31:583 Nachm. 03/28/17 - $GPGSV,3,1,12,01,05,016,17,10,17,295,25,12,45,232,23,15,41,192,31*7A

3:14:31:583 Nachm. 03/28/17 - $GPGSV,3,2,12,17,40,066,26,18,13,268,16,19,45,098,23,24,73,286,29*71

3:14:31:584 Nachm. 03/28/17 - $GPGSV,3,3,12,28,07,056,17,32,08,320,23,13,18,160,,25,03,237,*75

3:14:31:586 Nachm. 03/28/17 - $GLGSV,3,1,10,74,37,284,17,82,34,047,22,73,67,040,29,80,23,078,25*6C

3:14:31:587 Nachm. 03/28/17 - $GLGSV,3,2,10,65,17,336,13,83,33,115,28,81,04,007,20,71,25,223,30*69

3:14:31:587 Nachm. 03/28/17 - $GLGSV,3,3,10,72,40,285,15,84,,,*52

3:14:31:588 Nachm. 03/28/17 - $GPGGA,131427.0,5208.369286,N,01138.679713,E,1,08,0.7,59.4,M,45.0,M,,*61

3:14:31:592 Nachm. 03/28/17 - $GNGNS,131427.0,5208.369286,N,01138.679713,E,AA,15,0.7,59.4,45.0,,*59

3:14:31:594 Nachm. 03/28/17 - $GPVTG,3.2,T,2.8,M,0.0,N,0.0,K,A*28

3:14:31:594 Nachm. 03/28/17 - $GPRMC,131427.0,A,5208.369286,N,01138.679713,E,0.0,3.2,280317,0.4,E,A*04

3:14:31:595 Nachm. 03/28/17 - $GPGSA,A,2,10,12,15,17,18,19,24,28,,,,,1.1,0.7,0.8*31

3:14:31:595 Nachm. 03/28/17 - $GNGSA,A,2,10,12,15,17,18,19,24,28,,,,,1.1,0.7,0.8*2F

3:14:31:595 Nachm. 03/28/17 - $GNGSA,A,2,65,71,72,73,74,82,83,,,,,,1.1,0.7,0.8*24

3:14:32:585 Nachm. 03/28/17 - $GPGSV,3,1,12,01,05,016,18,10,17,295,24,12,45,232,26,15,41,192,31*71

3:14:32:586 Nachm. 03/28/17 - $GPGSV,3,2,12,17,40,066,24,18,13,268,16,19,45,098,21,24,73,286,29*71

3:14:32:587 Nachm. 03/28/17 - $GPGSV,3,3,12,28,07,056,18,32,08,320,23,13,18,160,,25,03,237,*7A

3:14:32:599 Nachm. 03/28/17 - $GLGSV,3,1,10,74,37,284,16,82,34,047,22,73,67,040,29,80,23,078,25*6D

3:14:32:600 Nachm. 03/28/17 - $GLGSV,3,2,10,65,17,336,15,83,33,115,27,81,04,007,20,71,25,223,30*60

3:14:32:601 Nachm. 03/28/17 - $GLGSV,3,3,10,72,40,285,15,84,,,*52

3:14:32:601 Nachm. 03/28/17 - $GPGGA,131428.0,5208.369300,N,01138.679719,E,1,08,0.7,59.4,M,45.0,M,,*6B

3:14:32:601 Nachm. 03/28/17 - $GNGNS,131428.0,5208.369300,N,01138.679719,E,AA,15,0.7,59.4,45.0,,*53

3:14:32:601 Nachm. 03/28/17 - $GPVTG,3.2,T,2.8,M,0.0,N,0.0,K,A*28

3:14:32:601 Nachm. 03/28/17 - $GPRMC,131428.0,A,5208.369300,N,01138.679719,E,0.0,3.2,280317,0.4,E,A*0E

3:14:32:602 Nachm. 03/28/17 - $GPGSA,A,2,10,12,15,17,18,19,24,28,,,,,1.1,0.7,0.8*31

3:14:32:604 Nachm. 03/28/17 - $GNGSA,A,2,10,12,15,17,18,19,24,28,,,,,1.1,0.7,0.8*2F

3:14:32:604 Nachm. 03/28/17 - $GNGSA,A,2,65,71,72,73,74,82,83,,,,,,1.1,0.7,0.8*24

3:14:33:584 Nachm. 03/28/17 - $GPGSV,3,1,12,01,05,016,18,10,17,295,26,12,45,232,28,15,41,192,30*7C

3:14:33:588 Nachm. 03/28/17 - $GPGSV,3,2,12,17,40,066,27,18,13,268,16,19,45,098,19,24,73,286,29*79

3:14:33:590 Nachm. 03/28/17 - $GPGSV,3,3,12,28,07,056,18,32,08,320,24,13,18,160,,25,03,237,*7D

3:14:33:591 Nachm. 03/28/17 - $GLGSV,3,1,10,74,37,284,18,82,34,047,21,73,67,040,29,80,23,078,25*60

3:14:33:600 Nachm. 03/28/17 - $GLGSV,3,2,10,65,17,336,15,83,33,115,27,81,04,007,21,71,25,223,31*60

3:14:33:602 Nachm. 03/28/17 - $GLGSV,3,3,10,72,40,285,15,84,,,*52

3:14:33:603 Nachm. 03/28/17 - $GPGGA,131429.0,5208.369315,N,01138.679719,E,1,08,0.7,59.5,M,45.0,M,,*6F

3:14:33:603 Nachm. 03/28/17 - $GNGNS,131429.0,5208.369315,N,01138.679719,E,AA,15,0.7,59.5,45.0,,*57

3:14:33:604 Nachm. 03/28/17 - $GPVTG,3.2,T,2.8,M,0.0,N,0.0,K,A*28

3:14:33:604 Nachm. 03/28/17 - $GPRMC,131429.0,A,5208.369315,N,01138.679719,E,0.0,3.2,280317,0.4,E,A*0B

3:14:33:604 Nachm. 03/28/17 - $GPGSA,A,2,10,12,15,17,18,19,24,28,,,,,1.1,0.7,0.8*31

3:14:33:604 Nachm. 03/28/17 - $GNGSA,A,2,10,12,15,17,18,19,24,28,,,,,1.1,0.7,0.8*2F

3:14:33:605 Nachm. 03/28/17 - $GNGSA,A,2,65,71,72,73,74,82,83,,,,,,1.1,0.7,0.8*24

3:14:34:583 Nachm. 03/28/17 - $GPGSV,3,1,12,01,05,016,17,10,17,295,25,12,45,232,29,15,41,192,28*78

3:14:34:584 Nachm. 03/28/17 - $GPGSV,3,2,12,17,40,066,28,18,13,268,16,19,45,098,21,24,73,286,28*7C

3:14:34:585 Nachm. 03/28/17 - $GPGSV,3,3,12,28,07,056,18,32,08,320,26,13,18,160,,25,03,237,*7F

3:14:34:590 Nachm. 03/28/17 - $GLGSV,3,1,10,74,37,284,18,82,34,047,21,73,67,040,28,80,23,078,25*61

3:14:34:590 Nachm. 03/28/17 - $GLGSV,3,2,10,65,17,336,14,83,33,115,27,81,04,007,21,71,25,223,31*61

3:14:34:590 Nachm. 03/28/17 - $GLGSV,3,3,10,72,40,285,15,84,,,*52

3:14:34:591 Nachm. 03/28/17 - $GPGGA,131430.0,5208.369333,N,01138.679725,E,1,08,0.7,59.5,M,45.0,M,,*6C

3:14:34:594 Nachm. 03/28/17 - $GNGNS,131430.0,5208.369333,N,01138.679725,E,AA,15,0.7,59.5,45.0,,*54

3:14:34:594 Nachm. 03/28/17 - $GPVTG,3.2,T,2.8,M,0.0,N,0.0,K,A*28

3:14:34:594 Nachm. 03/28/17 - $GPRMC,131430.0,A,5208.369333,N,01138.679725,E,0.0,3.2,280317,0.4,E,A*08

3:14:34:595 Nachm. 03/28/17 - $GPGSA,A,2,10,12,15,17,18,19,24,28,,,,,1.1,0.7,0.8*31

3:14:34:596 Nachm. 03/28/17 - $GNGSA,A,2,10,12,15,17,18,19,24,28,,,,,1.1,0.7,0.8*2F

3:14:34:597 Nachm. 03/28/17 - $GNGSA,A,2,65,71,72,73,74,82,83,,,,,,1.1,0.7,0.8*24

3:14:35:583 Nachm. 03/28/17 - $GPGSV,3,1,12,01,05,016,16,10,17,295,25,12,45,232,29,15,41,192,28*79

3:14:35:584 Nachm. 03/28/17 - $GPGSV,3,2,12,17,40,066,28,18,13,268,16,19,45,098,19,24,73,286,28*77

3:14:35:584 Nachm. 03/28/17 - $GPGSV,3,3,12,28,07,056,15,32,08,320,26,13,18,160,,25,03,237,*72

3:14:35:589 Nachm. 03/28/17 - $GLGSV,3,1,10,74,37,284,16,82,34,047,21,73,67,040,28,80,23,078,25*6F

3:14:35:590 Nachm. 03/28/17 - $GLGSV,3,2,10,65,17,336,14,83,33,115,26,81,04,007,21,71,25,223,31*60

3:14:35:591 Nachm. 03/28/17 - $GLGSV,3,3,10,72,40,285,15,84,,,*52

3:14:35:592 Nachm. 03/28/17 - $GPGGA,131431.0,5208.369346,N,01138.679729,E,1,08,0.7,59.5,M,45.0,M,,*63

3:14:35:602 Nachm. 03/28/17 - $GNGNS,131431.0,5208.369346,N,01138.679729,E,AA,14,0.7,59.5,45.0,,*5A

3:14:35:603 Nachm. 03/28/17 - $GPVTG,3.2,T,2.8,M,0.0,N,0.0,K,A*28

3:14:35:604 Nachm. 03/28/17 - $GPRMC,131431.0,A,5208.369346,N,01138.679729,E,0.0,3.2,280317,0.4,E,A*07

3:14:35:604 Nachm. 03/28/17 - $GPGSA,A,2,10,12,15,17,18,19,24,28,,,,,1.1,0.7,0.8*31

3:14:35:605 Nachm. 03/28/17 - $GNGSA,A,2,10,12,15,17,18,19,24,28,,,,,1.1,0.7,0.8*2F

3:14:35:605 Nachm. 03/28/17 - $GNGSA,A,2,65,71,73,74,82,83,,,,,,,1.1,0.7,0.8*21

3:14:36:584 Nachm. 03/28/17 - $GPGSV,3,1,12,01,05,016,16,10,17,295,24,12,45,232,30,15,41,192,26*7E

3:14:36:585 Nachm. 03/28/17 - $GPGSV,3,2,12,17,40,066,30,18,13,268,16,19,45,098,24,24,73,286,27*7F

3:14:36:585 Nachm. 03/28/17 - $GPGSV,3,3,12,28,07,056,15,32,08,320,25,13,18,160,,25,03,237,*71

3:14:36:586 Nachm. 03/28/17 - $GLGSV,3,1,10,74,37,284,16,82,34,047,22,73,67,040,27,80,23,078,26*60

3:14:36:591 Nachm. 03/28/17 - $GLGSV,3,2,10,65,17,336,14,83,33,115,28,81,04,007,21,71,25,223,31*6E

3:14:36:591 Nachm. 03/28/17 - $GLGSV,3,3,10,72,40,285,15,84,,,*52

3:14:36:596 Nachm. 03/28/17 - $GPGGA,131432.0,5208.369360,N,01138.679732,E,1,08,0.7,59.4,M,45.0,M,,*6F

3:14:36:600 Nachm. 03/28/17 - $GNGNS,131432.0,5208.369360,N,01138.679732,E,AA,14,0.7,59.4,45.0,,*56

3:14:36:602 Nachm. 03/28/17 - $GPVTG,3.2,T,2.8,M,0.0,N,0.0,K,A*28

3:14:36:602 Nachm. 03/28/17 - $GPRMC,131432.0,A,5208.369360,N,01138.679732,E,0.0,3.2,280317,0.4,E,A*0A

3:14:36:607 Nachm. 03/28/17 - $GPGSA,A,2,10,12,15,17,18,19,24,28,,,,,1.1,0.7,0.8*31

3:14:36:607 Nachm. 03/28/17 - $GNGSA,A,2,10,12,15,17,18,19,24,28,,,,,1.1,0.7,0.8*2F

3:14:36:607 Nachm. 03/28/17 - $GNGSA,A,2,65,71,73,74,82,83,,,,,,,1.1,0.7,0.8*21

3:14:37:582 Nachm. 03/28/17 - $GPGSV,3,1,12,01,05,016,16,10,17,295,24,12,45,232,30,15,41,192,26*7E

3:14:37:591 Nachm. 03/28/17 - $GPGSV,3,2,12,17,40,066,29,18,13,268,16,19,45,098,22,24,73,286,27*71

3:14:37:592 Nachm. 03/28/17 - $GPGSV,3,3,12,28,07,056,15,32,08,320,25,13,18,160,,25,03,237,*71

3:14:37:593 Nachm. 03/28/17 - $GLGSV,3,1,10,74,37,284,15,82,34,047,21,73,67,040,28,80,23,078,26*6F

3:14:37:600 Nachm. 03/28/17 - $GLGSV,3,2,10,65,17,336,15,83,33,115,27,81,04,007,21,71,25,223,31*60

3:14:37:608 Nachm. 03/28/17 - $GLGSV,3,3,10,72,40,285,15,84,,,*52

3:14:37:610 Nachm. 03/28/17 - $GPGGA,131433.0,5208.369375,N,01138.679733,E,1,08,0.7,59.5,M,45.0,M,,*6A

3:14:37:612 Nachm. 03/28/17 - $GNGNS,131433.0,5208.369375,N,01138.679733,E,AA,14,0.7,59.5,45.0,,*53

3:14:37:614 Nachm. 03/28/17 - $GPVTG,3.2,T,2.8,M,0.0,N,0.0,K,A*28

3:14:37:616 Nachm. 03/28/17 - $GPRMC,131433.0,A,5208.369375,N,01138.679733,E,0.0,3.2,280317,0.4,E,A*0E

3:14:37:620 Nachm. 03/28/17 - $GPGSA,A,2,10,12,15,17,18,19,24,28,,,,,1.1,0.7,0.8*31

3:14:37:621 Nachm. 03/28/17 - $GNGSA,A,2,10,12,15,17,18,19,24,28,,,,,1.1,0.7,0.8*2F

3:14:37:622 Nachm. 03/28/17 - $GNGSA,A,2,65,71,73,74,82,83,,,,,,,1.1,0.7,0.8*21

3:14:38:583 Nachm. 03/28/17 - $GPGSV,3,1,12,01,05,016,14,10,17,295,25,12,45,232,30,15,41,192,28*73

3:14:38:586 Nachm. 03/28/17 - $GPGSV,3,2,12,17,40,066,28,18,13,268,16,19,45,098,19,24,73,286,28*77

3:14:38:589 Nachm. 03/28/17 - $GPGSV,3,3,12,28,07,056,13,32,08,320,25,13,18,160,,25,03,237,*77

3:14:38:590 Nachm. 03/28/17 - $GLGSV,3,1,10,74,37,284,15,82,34,047,21,73,67,040,29,80,23,078,26*6E

3:14:38:591 Nachm. 03/28/17 - $GLGSV,3,2,10,65,17,336,15,83,33,115,27,81,04,007,21,71,25,223,31*60

3:14:38:593 Nachm. 03/28/17 - $GLGSV,3,3,10,72,40,285,10,84,,,*57

3:14:38:598 Nachm. 03/28/17 - $GPGGA,131434.0,5208.369386,N,01138.679734,E,1,08,0.7,59.5,M,45.0,M,,*66

3:14:38:600 Nachm. 03/28/17 - $GNGNS,131434.0,5208.369386,N,01138.679734,E,AA,15,0.7,59.5,45.0,,*5E

3:14:38:603 Nachm. 03/28/17 - $GPVTG,3.2,T,2.8,M,0.0,N,0.0,K,A*28

3:14:38:604 Nachm. 03/28/17 - $GPRMC,131434.0,A,5208.369386,N,01138.679734,E,0.0,3.2,280317,0.4,E,A*02

3:14:38:604 Nachm. 03/28/17 - $GPGSA,A,2,10,12,15,17,18,19,24,28,,,,,1.1,0.7,0.8*31

3:14:38:605 Nachm. 03/28/17 - $GNGSA,A,2,10,12,15,17,18,19,24,28,,,,,1.1,0.7,0.8*2F

3:14:38:605 Nachm. 03/28/17 - $GNGSA,A,2,65,71,72,73,74,82,83,,,,,,1.1,0.7,0.8*24

3:14:39:582 Nachm. 03/28/17 - $GPGSV,3,1,12,01,05,016,14,10,17,295,26,12,45,232,25,15,41,192,26*7A

3:14:39:582 Nachm. 03/28/17 - $GPGSV,3,2,12,17,40,066,32,18,13,268,20,19,45,098,28,24,73,286,20*73

3:14:39:582 Nachm. 03/28/17 - $GPGSV,3,3,12,28,07,056,19,32,08,320,25,13,18,160,,25,03,237,*7D

3:14:39:587 Nachm. 03/28/17 - $GLGSV,3,1,10,74,37,284,17,82,34,047,28,73,67,040,20,80,23,078,25*6F

3:14:39:587 Nachm. 03/28/17 - $GLGSV,3,2,10,65,17,336,16,83,33,115,28,81,04,007,19,71,25,223,26*61

3:14:39:587 Nachm. 03/28/17 - $GLGSV,3,3,10,72,40,285,10,84,,,*57

3:14:39:588 Nachm. 03/28/17 - $GPGGA,131435.0,5208.369389,N,01138.679742,E,1,08,0.7,59.4,M,45.0,M,,*68

3:14:39:588 Nachm. 03/28/17 - $GNGNS,131435.0,5208.369389,N,01138.679742,E,AA,15,0.7,59.4,45.0,,*50

3:14:39:588 Nachm. 03/28/17 - $GPVTG,3.2,T,2.8,M,0.0,N,0.0,K,A*28

3:14:39:588 Nachm. 03/28/17 - $GPRMC,131435.0,A,5208.369389,N,01138.679742,E,0.0,3.2,280317,0.4,E,A*0D

3:14:39:588 Nachm. 03/28/17 - $GPGSA,A,2,10,12,15,17,18,19,24,28,,,,,1.1,0.7,0.8*31

3:14:39:589 Nachm. 03/28/17 - $GNGSA,A,2,10,12,15,17,18,19,24,28,,,,,1.1,0.7,0.8*2F

3:14:39:593 Nachm. 03/28/17 - $GNGSA,A,2,65,71,72,73,74,82,83,,,,,,1.1,0.7,0.8*24

3:14:40:584 Nachm. 03/28/17 - $GPGSV,3,1,12,01,05,016,14,10,17,295,26,12,45,232,25,15,41,192,25*79

3:14:40:585 Nachm. 03/28/17 - $GPGSV,3,2,12,17,40,066,32,18,13,268,19,19,45,098,28,24,73,286,20*79

3:14:40:587 Nachm. 03/28/17 - $GPGSV,3,3,12,28,07,056,19,32,08,320,26,13,18,160,,25,03,237,*7E

3:14:40:588 Nachm. 03/28/17 - $GLGSV,3,1,10,74,37,284,18,82,34,047,29,73,67,040,20,80,23,078,23*67

3:14:40:591 Nachm. 03/28/17 - $GLGSV,3,2,10,65,17,336,16,83,33,115,28,81,04,007,18,71,25,223,24*62

3:14:40:592 Nachm. 03/28/17 - $GLGSV,3,3,10,72,40,285,16,84,,,*51

3:14:40:593 Nachm. 03/28/17 - $GPGGA,131436.0,5208.369400,N,01138.679751,E,1,08,0.7,59.4,M,45.0,M,,*6F

3:14:40:600 Nachm. 03/28/17 - $GNGNS,131436.0,5208.369400,N,01138.679751,E,AA,15,0.7,59.4,45.0,,*57

3:14:40:601 Nachm. 03/28/17 - $GPVTG,3.2,T,2.8,M,0.0,N,0.0,K,A*28

3:14:40:602 Nachm. 03/28/17 - $GPRMC,131436.0,A,5208.369400,N,01138.679751,E,0.0,3.2,280317,0.4,E,A*0A

3:14:40:602 Nachm. 03/28/17 - $GPGSA,A,2,10,12,15,17,18,19,24,28,,,,,1.1,0.7,0.8*31

3:14:40:603 Nachm. 03/28/17 - $GNGSA,A,2,10,12,15,17,18,19,24,28,,,,,1.1,0.7,0.8*2F

3:14:40:603 Nachm. 03/28/17 - $GNGSA,A,2,65,71,72,73,74,82,83,,,,,,1.1,0.7,0.8*24

3:14:41:583 Nachm. 03/28/17 - $GPGSV,3,1,12,01,05,016,14,10,17,295,26,12,45,232,26,15,41,192,25*7A

3:14:41:586 Nachm. 03/28/17 - $GPGSV,3,2,12,17,40,066,32,18,13,268,19,19,45,098,27,24,73,286,20*76

3:14:41:587 Nachm. 03/28/17 - $GPGSV,3,3,12,28,07,056,15,32,08,320,24,13,18,160,,25,03,237,*70

3:14:41:587 Nachm. 03/28/17 - $GLGSV,3,1,10,74,37,284,25,82,34,047,28,73,67,040,19,80,23,078,17*65

3:14:41:587 Nachm. 03/28/17 - $GLGSV,3,2,10,65,17,336,16,83,33,115,28,81,04,007,18,71,25,223,24*62

3:14:41:588 Nachm. 03/28/17 - $GLGSV,3,3,10,72,40,285,19,84,,,*5E

3:14:41:588 Nachm. 03/28/17 - $GPGGA,131437.0,5208.369411,N,01138.679762,E,1,08,0.7,59.4,M,45.0,M,,*6E

3:14:41:588 Nachm. 03/28/17 - $GNGNS,131437.0,5208.369411,N,01138.679762,E,AA,15,0.7,59.4,45.0,,*56

3:14:41:589 Nachm. 03/28/17 - $GPVTG,3.2,T,2.8,M,0.0,N,0.0,K,A*28

3:14:41:589 Nachm. 03/28/17 - $GPRMC,131437.0,A,5208.369411,N,01138.679762,E,0.0,3.2,280317,0.4,E,A*0B

3:14:41:589 Nachm. 03/28/17 - $GPGSA,A,2,10,12,15,17,18,19,24,28,,,,,1.1,0.7,0.8*31

3:14:41:589 Nachm. 03/28/17 - $GNGSA,A,2,10,12,15,17,18,19,24,28,,,,,1.1,0.7,0.8*2F

3:14:41:595 Nachm. 03/28/17 - $GNGSA,A,2,65,71,72,73,74,82,83,,,,,,1.1,0.7,0.8*24


