3:12:08:583 Nachm. 03/28/17 - $GPGSV,3,1,12,01,05,018,16,10,17,296,26,12,43,232,13,17,40,067,16*7D

3:12:08:585 Nachm. 03/28/17 - $GPGSV,3,2,12,19,45,098,17,24,73,286,32,32,07,320,30,13,19,160,*73

3:12:08:585 Nachm. 03/28/17 - $GPGSV,3,3,12,15,42,192,,18,13,268,,25,03,237,,28,07,056,*79

3:12:08:585 Nachm. 03/28/17 - $GLGSV,3,1,09,74,37,284,25,82,34,049,16,73,68,037,27,65,16,337,31*6D

3:12:08:593 Nachm. 03/28/17 - $GLGSV,3,2,09,81,04,007,29,72,40,286,28,80,23,078,,83,32,116,*61

3:12:08:593 Nachm. 03/28/17 - $GLGSV,3,3,09,71,26,224,*5A

3:12:08:593 Nachm. 03/28/17 - $GPGGA,131204.0,5208.341395,N,01138.678595,E,1,04,1.4,70.4,M,45.0,M,,*67

3:12:08:594 Nachm. 03/28/17 - $GNGNS,131204.0,5208.341395,N,01138.678595,E,AA,08,1.4,70.4,45.0,,*5F

3:12:08:597 Nachm. 03/28/17 - $GPVTG,94.0,T,93.6,M,0.7,N,1.3,K,A*27

3:12:08:597 Nachm. 03/28/17 - $GPRMC,131204.0,A,5208.341395,N,01138.678595,E,0.7,94.0,280317,0.4,E,A*3C

3:12:08:598 Nachm. 03/28/17 - $GPGSA,A,2,10,12,17,24,,,,,,,,,1.7,1.4,0.9*3B

3:12:08:598 Nachm. 03/28/17 - $GNGSA,A,2,10,12,17,24,,,,,,,,,1.7,1.4,0.9*25

3:12:08:600 Nachm. 03/28/17 - $GNGSA,A,2,65,72,73,74,,,,,,,,,1.7,1.4,0.9*26

3:12:09:581 Nachm. 03/28/17 - $GPGSV,3,1,12,01,05,018,16,10,17,296,24,12,43,232,14,17,40,067,16*78

3:12:09:582 Nachm. 03/28/17 - $GPGSV,3,2,12,19,45,098,17,24,73,286,28,32,07,320,23,13,19,160,*7A

3:12:09:583 Nachm. 03/28/17 - $GPGSV,3,3,12,15,42,192,,18,13,268,,25,03,237,,28,07,056,*79

3:12:09:583 Nachm. 03/28/17 - $GLGSV,3,1,09,74,37,284,26,82,34,049,16,73,68,037,24,65,16,337,28*65

3:12:09:583 Nachm. 03/28/17 - $GLGSV,3,2,09,81,04,007,29,72,40,286,25,80,23,078,,83,32,116,*6C

3:12:09:591 Nachm. 03/28/17 - $GLGSV,3,3,09,71,26,224,*5A

3:12:09:592 Nachm. 03/28/17 - $GPGGA,131205.0,5208.339405,N,01138.676801,E,1,04,1.4,66.1,M,45.0,M,,*6B

3:12:09:593 Nachm. 03/28/17 - $GNGNS,131205.0,5208.339405,N,01138.676801,E,AA,08,1.4,66.1,45.0,,*53

3:12:09:593 Nachm. 03/28/17 - $GPVTG,94.0,T,93.6,M,0.0,N,0.0,K,A*22

3:12:09:594 Nachm. 03/28/17 - $GPRMC,131205.0,A,5208.339405,N,01138.676801,E,0.0,94.0,280317,0.4,E,A*35

3:12:09:594 Nachm. 03/28/17 - $GPGSA,A,2,10,12,17,24,,,,,,,,,1.7,1.4,0.9*3B

3:12:09:594 Nachm. 03/28/17 - $GNGSA,A,2,10,12,17,24,,,,,,,,,1.7,1.4,0.9*25

3:12:09:595 Nachm. 03/28/17 - $GNGSA,A,2,65,72,73,74,,,,,,,,,1.7,1.4,0.9*26

3:12:10:583 Nachm. 03/28/17 - $GPGSV,3,1,12,01,05,018,17,10,17,296,26,12,43,232,14,17,40,067,15*78

3:12:10:586 Nachm. 03/28/17 - $GPGSV,3,2,12,19,45,098,17,24,73,286,28,32,07,320,24,13,19,160,*7D

3:12:10:589 Nachm. 03/28/17 - $GPGSV,3,3,12,15,42,192,,18,13,268,,25,03,237,,28,07,056,*79

3:12:10:593 Nachm. 03/28/17 - $GLGSV,3,1,09,74,37,284,28,82,34,049,16,73,68,037,25,65,16,337,30*63

3:12:10:596 Nachm. 03/28/17 - $GLGSV,3,2,09,81,04,007,30,72,40,286,20,80,23,078,,83,32,116,*61

3:12:10:598 Nachm. 03/28/17 - $GLGSV,3,3,09,71,26,224,*5A

3:12:10:599 Nachm. 03/28/17 - $GPGGA,131206.0,5208.339233,N,01138.677060,E,1,04,1.4,61.7,M,45.0,M,,*64

3:12:10:609 Nachm. 03/28/17 - $GNGNS,131206.0,5208.339233,N,01138.677060,E,AA,08,1.4,61.7,45.0,,*5C

3:12:10:609 Nachm. 03/28/17 - $GPVTG,94.0,T,93.6,M,0.4,N,0.8,K,A*2E

3:12:10:610 Nachm. 03/28/17 - $GPRMC,131206.0,A,5208.339233,N,01138.677060,E,0.4,94.0,280317,0.4,E,A*3F

3:12:10:610 Nachm. 03/28/17 - $GPGSA,A,2,10,12,17,24,,,,,,,,,1.7,1.4,0.9*3B

3:12:10:611 Nachm. 03/28/17 - $GNGSA,A,2,10,12,17,24,,,,,,,,,1.7,1.4,0.9*25

3:12:10:612 Nachm. 03/28/17 - $GNGSA,A,2,65,72,73,74,,,,,,,,,1.7,1.4,0.9*26

3:12:11:582 Nachm. 03/28/17 - $GPGSV,3,1,12,01,05,018,17,10,17,296,26,12,43,232,14,17,40,067,15*78

3:12:11:582 Nachm. 03/28/17 - $GPGSV,3,2,12,19,45,098,17,24,73,286,27,32,07,320,25,13,19,160,*73

3:12:11:584 Nachm. 03/28/17 - $GPGSV,3,3,12,15,42,192,,18,13,268,,25,03,237,,28,07,056,*79

3:12:11:586 Nachm. 03/28/17 - $GLGSV,3,1,09,74,37,284,27,82,34,049,16,73,68,037,24,65,16,337,28*64

3:12:11:586 Nachm. 03/28/17 - $GLGSV,3,2,09,81,04,007,27,72,40,286,22,80,23,078,,83,32,116,*65

3:12:11:591 Nachm. 03/28/17 - $GLGSV,3,3,09,71,26,224,*5A

3:12:11:594 Nachm. 03/28/17 - $GPGGA,131207.0,5208.337724,N,01138.676969,E,1,04,1.4,58.5,M,45.0,M,,*61

3:12:11:594 Nachm. 03/28/17 - $GNGNS,131207.0,5208.337724,N,01138.676969,E,AA,08,1.4,58.5,45.0,,*59

3:12:11:594 Nachm. 03/28/17 - $GPVTG,94.0,T,93.6,M,0.0,N,0.0,K,A*22

3:12:11:594 Nachm. 03/28/17 - $GPRMC,131207.0,A,5208.337724,N,01138.676969,E,0.0,94.0,280317,0.4,E,A*36

3:12:11:595 Nachm. 03/28/17 - $GPGSA,A,2,10,12,17,24,,,,,,,,,1.7,1.4,0.9*3B

3:12:11:596 Nachm. 03/28/17 - $GNGSA,A,2,10,12,17,24,,,,,,,,,1.7,1.4,0.9*25

3:12:11:596 Nachm. 03/28/17 - $GNGSA,A,2,65,72,73,74,,,,,,,,,1.7,1.4,0.9*26

3:12:12:582 Nachm. 03/28/17 - $GPGSV,3,1,12,01,05,018,18,10,17,296,22,12,43,232,14,17,40,067,15*73

3:12:12:583 Nachm. 03/28/17 - $GPGSV,3,2,12,19,45,098,17,24,73,286,26,32,07,320,25,13,19,160,*72

3:12:12:584 Nachm. 03/28/17 - $GPGSV,3,3,12,15,42,192,,18,13,268,,25,03,237,,28,07,056,*79

3:12:12:584 Nachm. 03/28/17 - $GLGSV,3,1,09,74,37,284,26,82,34,049,11,73,68,037,24,65,16,337,31*6A

3:12:12:584 Nachm. 03/28/17 - $GLGSV,3,2,09,81,04,007,30,72,40,286,23,80,23,078,,83,32,116,*62

3:12:12:584 Nachm. 03/28/17 - $GLGSV,3,3,09,71,26,224,*5A

3:12:12:585 Nachm. 03/28/17 - $GPGGA,131208.0,5208.338514,N,01138.676958,E,1,04,1.4,58.7,M,45.0,M,,*60

3:12:12:590 Nachm. 03/28/17 - $GNGNS,131208.0,5208.338514,N,01138.676958,E,AA,09,1.4,58.7,45.0,,*59

3:12:12:591 Nachm. 03/28/17 - $GPVTG,94.0,T,93.6,M,0.0,N,0.0,K,A*22

3:12:12:591 Nachm. 03/28/17 - $GPRMC,131208.0,A,5208.338514,N,01138.676958,E,0.0,94.0,280317,0.4,E,A*35

3:12:12:592 Nachm. 03/28/17 - $GPGSA,A,2,10,12,17,24,,,,,,,,,1.6,1.4,0.9*3A

3:12:12:592 Nachm. 03/28/17 - $GNGSA,A,2,10,12,17,24,,,,,,,,,1.6,1.4,0.9*24

3:12:12:593 Nachm. 03/28/17 - $GNGSA,A,2,65,72,73,74,82,,,,,,,,1.6,1.4,0.9*2D

3:12:13:582 Nachm. 03/28/17 - $GPGSV,3,1,12,01,05,018,21,10,17,296,18,12,43,232,17,17,40,067,15*73

3:12:13:583 Nachm. 03/28/17 - $GPGSV,3,2,12,19,45,098,17,24,73,286,27,32,07,320,18,13,19,160,*7D

3:12:13:583 Nachm. 03/28/17 - $GPGSV,3,3,12,15,42,192,,18,13,268,,25,03,237,,28,07,056,*79

3:12:13:585 Nachm. 03/28/17 - $GLGSV,3,1,09,74,37,284,27,82,34,049,11,73,68,037,25,65,16,337,29*63

3:12:13:585 Nachm. 03/28/17 - $GLGSV,3,2,09,81,04,007,31,72,40,286,18,80,23,078,,83,32,116,*6B

3:12:13:586 Nachm. 03/28/17 - $GLGSV,3,3,09,71,26,224,*5A

3:12:13:586 Nachm. 03/28/17 - $GPGGA,131209.0,5208.339577,N,01138.677267,E,1,04,1.4,60.4,M,45.0,M,,*6B

3:12:13:588 Nachm. 03/28/17 - $GNGNS,131209.0,5208.339577,N,01138.677267,E,AA,09,1.4,60.4,45.0,,*52

3:12:13:595 Nachm. 03/28/17 - $GPVTG,94.0,T,93.6,M,0.0,N,0.0,K,A*22

3:12:13:595 Nachm. 03/28/17 - $GPRMC,131209.0,A,5208.339577,N,01138.677267,E,0.0,94.0,280317,0.4,E,A*36

3:12:13:595 Nachm. 03/28/17 - $GPGSA,A,2,10,12,17,24,,,,,,,,,1.6,1.4,0.9*3A

3:12:13:596 Nachm. 03/28/17 - $GNGSA,A,2,10,12,17,24,,,,,,,,,1.6,1.4,0.9*24

3:12:13:596 Nachm. 03/28/17 - $GNGSA,A,2,65,72,73,74,82,,,,,,,,1.6,1.4,0.9*2D

3:12:14:585 Nachm. 03/28/17 - $GPGSV,3,1,12,01,05,018,22,10,17,296,21,12,43,232,19,17,40,067,15*74

3:12:14:596 Nachm. 03/28/17 - $GPGSV,3,2,12,19,45,098,17,24,73,286,26,32,07,320,25,13,19,160,*72

3:12:14:599 Nachm. 03/28/17 - $GPGSV,3,3,12,15,42,192,,18,13,268,,25,03,237,,28,07,056,*79

3:12:14:605 Nachm. 03/28/17 - $GLGSV,3,1,09,74,37,284,28,82,34,049,11,73,68,037,26,65,16,337,27*61

3:12:14:606 Nachm. 03/28/17 - $GLGSV,3,2,09,81,04,007,31,72,40,286,26,80,23,078,,83,32,116,*66

3:12:14:607 Nachm. 03/28/17 - $GLGSV,3,3,09,71,26,224,*5A

3:12:14:608 Nachm. 03/28/17 - $GPGGA,131210.0,5208.340386,N,01138.677636,E,1,04,1.4,60.9,M,45.0,M,,*68

3:12:14:613 Nachm. 03/28/17 - $GNGNS,131210.0,5208.340386,N,01138.677636,E,AA,09,1.4,60.9,45.0,,*51

3:12:14:616 Nachm. 03/28/17 - $GPVTG,94.0,T,93.6,M,0.0,N,0.0,K,A*22

3:12:14:619 Nachm. 03/28/17 - $GPRMC,131210.0,A,5208.340386,N,01138.677636,E,0.0,94.0,280317,0.4,E,A*38

3:12:14:619 Nachm. 03/28/17 - $GPGSA,A,2,10,12,17,24,,,,,,,,,1.6,1.4,0.9*3A

3:12:14:620 Nachm. 03/28/17 - $GNGSA,A,2,10,12,17,24,,,,,,,,,1.6,1.4,0.9*24

3:12:14:622 Nachm. 03/28/17 - $GNGSA,A,2,65,72,73,74,82,,,,,,,,1.6,1.4,0.9*2D

3:12:15:582 Nachm. 03/28/17 - $GPGSV,3,1,12,01,05,018,22,10,17,296,25,12,43,232,19,17,40,067,15*70

3:12:15:583 Nachm. 03/28/17 - $GPGSV,3,2,12,19,45,098,17,24,73,286,26,32,07,320,27,13,19,160,*70

3:12:15:583 Nachm. 03/28/17 - $GPGSV,3,3,12,15,42,192,,18,13,268,,25,03,237,,28,07,056,*79

3:12:15:583 Nachm. 03/28/17 - $GLGSV,3,1,09,74,37,284,28,82,34,049,11,73,68,037,27,65,16,337,23*64

3:12:15:583 Nachm. 03/28/17 - $GLGSV,3,2,09,81,04,007,30,72,40,286,28,80,23,078,,83,32,116,*69

3:12:15:583 Nachm. 03/28/17 - $GLGSV,3,3,09,71,26,224,*5A

3:12:15:584 Nachm. 03/28/17 - $GPGGA,131211.0,5208.341876,N,01138.678462,E,1,04,1.4,61.6,M,45.0,M,,*6E

3:12:15:591 Nachm. 03/28/17 - $GNGNS,131211.0,5208.341876,N,01138.678462,E,AA,09,1.4,61.6,45.0,,*57

3:12:15:592 Nachm. 03/28/17 - $GPVTG,94.0,T,93.6,M,0.0,N,0.0,K,A*22

3:12:15:592 Nachm. 03/28/17 - $GPRMC,131211.0,A,5208.341876,N,01138.678462,E,0.0,94.0,280317,0.4,E,A*30

3:12:15:593 Nachm. 03/28/17 - $GPGSA,A,2,10,12,17,24,,,,,,,,,1.6,1.4,0.9*3A

3:12:15:594 Nachm. 03/28/17 - $GNGSA,A,2,10,12,17,24,,,,,,,,,1.6,1.4,0.9*24

3:12:15:594 Nachm. 03/28/17 - $GNGSA,A,2,65,72,73,74,82,,,,,,,,1.6,1.4,0.9*2D

3:12:16:583 Nachm. 03/28/17 - $GPGSV,3,1,12,01,05,018,23,10,17,296,25,12,43,232,19,17,40,067,15*71

3:12:16:584 Nachm. 03/28/17 - $GPGSV,3,2,12,19,45,098,17,24,73,286,26,32,07,320,26,13,19,160,*71

3:12:16:592 Nachm. 03/28/17 - $GPGSV,3,3,12,15,42,192,,18,13,268,,25,03,237,,28,07,056,*79

3:12:16:601 Nachm. 03/28/17 - $GLGSV,3,1,09,74,37,284,29,82,34,049,11,73,68,037,27,65,16,337,24*62

3:12:16:608 Nachm. 03/28/17 - $GLGSV,3,2,09,81,04,007,31,72,40,286,28,80,23,078,,83,32,116,*68

3:12:16:609 Nachm. 03/28/17 - $GLGSV,3,3,09,71,26,224,*5A

3:12:16:609 Nachm. 03/28/17 - $GPGGA,131212.0,5208.342117,N,01138.679854,E,1,04,1.4,60.6,M,45.0,M,,*69

3:12:16:610 Nachm. 03/28/17 - $GNGNS,131212.0,5208.342117,N,01138.679854,E,AA,09,1.4,60.6,45.0,,*50

3:12:16:611 Nachm. 03/28/17 - $GPVTG,94.0,T,93.6,M,0.0,N,0.0,K,A*22

3:12:16:611 Nachm. 03/28/17 - $GPRMC,131212.0,A,5208.342117,N,01138.679854,E,0.0,94.0,280317,0.4,E,A*36

3:12:16:612 Nachm. 03/28/17 - $GPGSA,A,2,10,12,17,24,,,,,,,,,1.6,1.4,0.9*3A

3:12:16:612 Nachm. 03/28/17 - $GNGSA,A,2,10,12,17,24,,,,,,,,,1.6,1.4,0.9*24

3:12:16:613 Nachm. 03/28/17 - $GNGSA,A,2,65,72,73,74,82,,,,,,,,1.6,1.4,0.9*2D

3:12:17:584 Nachm. 03/28/17 - $GPGSV,3,1,12,01,05,018,21,10,17,296,20,12,43,232,19,17,40,067,15*76

3:12:17:585 Nachm. 03/28/17 - $GPGSV,3,2,12,19,45,098,17,24,73,286,27,32,07,320,26,13,19,160,*70

3:12:17:585 Nachm. 03/28/17 - $GPGSV,3,3,12,15,42,192,,18,13,268,,25,03,237,,28,07,056,*79

3:12:17:593 Nachm. 03/28/17 - $GLGSV,3,1,09,74,37,284,25,82,34,049,11,73,68,037,24,65,16,337,28*61

3:12:17:594 Nachm. 03/28/17 - $GLGSV,3,2,09,81,04,007,29,72,40,286,18,80,23,078,,83,32,116,*62

3:12:17:595 Nachm. 03/28/17 - $GLGSV,3,3,09,71,26,224,*5A

3:12:17:596 Nachm. 03/28/17 - $GPGGA,131213.0,5208.342615,N,01138.679972,E,1,04,1.4,60.9,M,45.0,M,,*67

3:12:17:601 Nachm. 03/28/17 - $GNGNS,131213.0,5208.342615,N,01138.679972,E,AA,09,1.4,60.9,45.0,,*5E

3:12:17:602 Nachm. 03/28/17 - $GPVTG,94.0,T,93.6,M,0.0,N,0.0,K,A*22

3:12:17:603 Nachm. 03/28/17 - $GPRMC,131213.0,A,5208.342615,N,01138.679972,E,0.0,94.0,280317,0.4,E,A*37

3:12:17:605 Nachm. 03/28/17 - $GPGSA,A,2,10,12,17,24,,,,,,,,,1.6,1.4,0.9*3A

3:12:17:605 Nachm. 03/28/17 - $GNGSA,A,2,10,12,17,24,,,,,,,,,1.6,1.4,0.9*24

3:12:17:606 Nachm. 03/28/17 - $GNGSA,A,2,65,72,73,74,82,,,,,,,,1.6,1.4,0.9*2D

3:12:18:582 Nachm. 03/28/17 - $GPGSV,3,1,12,01,05,018,20,10,17,296,17,12,43,232,19,17,40,067,13*75

3:12:18:584 Nachm. 03/28/17 - $GPGSV,3,2,12,19,45,098,17,24,73,286,28,32,07,320,21,13,19,160,*78

3:12:18:585 Nachm. 03/28/17 - $GPGSV,3,3,12,15,42,192,,18,13,268,,25,03,237,,28,07,056,*79

3:12:18:585 Nachm. 03/28/17 - $GLGSV,3,1,09,74,37,284,28,82,34,049,11,73,68,037,24,65,16,337,26*62

3:12:18:585 Nachm. 03/28/17 - $GLGSV,3,2,09,81,04,007,30,72,40,286,18,80,23,078,,83,32,116,*6A

3:12:18:585 Nachm. 03/28/17 - $GLGSV,3,3,09,71,26,224,*5A

3:12:18:586 Nachm. 03/28/17 - $GPGGA,131214.0,5208.342756,N,01138.679760,E,1,04,1.4,61.2,M,45.0,M,,*61

3:12:18:588 Nachm. 03/28/17 - $GNGNS,131214.0,5208.342756,N,01138.679760,E,AA,09,1.4,61.2,45.0,,*58

3:12:18:588 Nachm. 03/28/17 - $GPVTG,94.0,T,93.6,M,0.0,N,0.0,K,A*22

3:12:18:588 Nachm. 03/28/17 - $GPRMC,131214.0,A,5208.342756,N,01138.679760,E,0.0,94.0,280317,0.4,E,A*3B

3:12:18:588 Nachm. 03/28/17 - $GPGSA,A,2,10,12,17,24,,,,,,,,,1.6,1.4,0.9*3A

3:12:18:589 Nachm. 03/28/17 - $GNGSA,A,2,10,12,17,24,,,,,,,,,1.6,1.4,0.9*24

3:12:18:589 Nachm. 03/28/17 - $GNGSA,A,2,65,72,73,74,82,,,,,,,,1.6,1.4,0.9*2D

3:12:19:582 Nachm. 03/28/17 - $GPGSV,3,1,12,01,05,018,20,10,17,296,18,12,43,232,16,17,40,067,13*75

3:12:19:585 Nachm. 03/28/17 - $GPGSV,3,2,12,19,45,098,17,24,73,286,28,32,07,320,25,13,19,160,*7C

3:12:19:586 Nachm. 03/28/17 - $GPGSV,3,3,12,15,42,192,,18,13,268,,25,03,237,,28,07,056,*79

3:12:19:587 Nachm. 03/28/17 - $GLGSV,3,1,09,74,37,284,28,82,34,049,11,73,68,037,22,65,16,337,28*6A

3:12:19:588 Nachm. 03/28/17 - $GLGSV,3,2,09,81,04,007,31,72,40,286,17,80,23,078,,83,32,116,*64

3:12:19:588 Nachm. 03/28/17 - $GLGSV,3,3,09,71,26,224,*5A

3:12:19:589 Nachm. 03/28/17 - $GPGGA,131215.0,5208.342844,N,01138.679244,E,1,04,1.4,61.5,M,45.0,M,,*68

3:12:19:595 Nachm. 03/28/17 - $GNGNS,131215.0,5208.342844,N,01138.679244,E,AA,08,1.4,61.5,45.0,,*50

3:12:19:609 Nachm. 03/28/17 - $GPVTG,94.0,T,93.6,M,0.0,N,0.0,K,A*22

3:12:19:610 Nachm. 03/28/17 - $GPRMC,131215.0,A,5208.342844,N,01138.679244,E,0.0,94.0,280317,0.4,E,A*35

3:12:19:611 Nachm. 03/28/17 - $GPGSA,A,2,10,12,17,24,,,,,,,,,1.7,1.4,0.9*3B

3:12:19:612 Nachm. 03/28/17 - $GNGSA,A,2,10,12,17,24,,,,,,,,,1.7,1.4,0.9*25

3:12:19:614 Nachm. 03/28/17 - $GNGSA,A,2,65,72,73,74,,,,,,,,,1.7,1.4,0.9*26

3:12:20:583 Nachm. 03/28/17 - $GPGSV,3,1,12,01,05,018,18,10,17,296,19,12,43,232,16,17,40,067,13*7F

3:12:20:584 Nachm. 03/28/17 - $GPGSV,3,2,12,19,45,098,17,24,73,286,28,32,07,320,24,13,19,160,*7D

3:12:20:588 Nachm. 03/28/17 - $GPGSV,3,3,12,15,42,192,,18,13,268,,25,03,237,,28,07,056,*79

3:12:20:603 Nachm. 03/28/17 - $GLGSV,3,1,09,74,37,284,28,82,34,049,11,73,68,037,22,65,16,337,26*64

3:12:20:606 Nachm. 03/28/17 - $GLGSV,3,2,09,81,04,007,30,72,40,286,22,80,23,078,,83,32,116,*63

3:12:20:607 Nachm. 03/28/17 - $GLGSV,3,3,09,71,26,224,*5A

3:12:20:608 Nachm. 03/28/17 - $GPGGA,131216.0,5208.343460,N,01138.679910,E,1,04,1.4,61.6,M,45.0,M,,*69

3:12:20:609 Nachm. 03/28/17 - $GNGNS,131216.0,5208.343460,N,01138.679910,E,AA,08,1.4,61.6,45.0,,*51

3:12:20:609 Nachm. 03/28/17 - $GPVTG,94.0,T,93.6,M,0.0,N,0.0,K,A*22

3:12:20:610 Nachm. 03/28/17 - $GPRMC,131216.0,A,5208.343460,N,01138.679910,E,0.0,94.0,280317,0.4,E,A*37

3:12:20:610 Nachm. 03/28/17 - $GPGSA,A,2,10,12,17,24,,,,,,,,,1.7,1.4,0.9*3B

3:12:20:613 Nachm. 03/28/17 - $GNGSA,A,2,10,12,17,24,,,,,,,,,1.7,1.4,0.9*25

3:12:20:614 Nachm. 03/28/17 - $GNGSA,A,2,65,72,73,74,,,,,,,,,1.7,1.4,0.9*26

3:12:21:583 Nachm. 03/28/17 - $GPGSV,3,1,12,01,05,018,20,10,17,296,19,12,43,232,16,17,40,067,13*74

3:12:21:584 Nachm. 03/28/17 - $GPGSV,3,2,12,19,45,098,17,24,73,286,29,32,07,320,24,13,19,160,*7C

3:12:21:585 Nachm. 03/28/17 - $GPGSV,3,3,12,15,42,192,,18,13,268,,25,03,237,,28,07,056,*79

3:12:21:590 Nachm. 03/28/17 - $GLGSV,3,1,09,74,37,284,29,82,34,049,11,73,68,037,21,65,16,337,25*65

3:12:21:593 Nachm. 03/28/17 - $GLGSV,3,2,09,81,04,007,29,72,40,286,22,80,23,078,,83,32,116,*6B

3:12:21:610 Nachm. 03/28/17 - $GLGSV,3,3,09,71,26,224,*5A

3:12:21:611 Nachm. 03/28/17 - $GPGGA,131217.0,5208.343691,N,01138.680089,E,1,04,1.4,61.1,M,45.0,M,,*6C

3:12:21:619 Nachm. 03/28/17 - $GNGNS,131217.0,5208.343691,N,01138.680089,E,AA,09,1.4,61.1,45.0,,*55

3:12:21:619 Nachm. 03/28/17 - $GPVTG,94.0,T,93.6,M,0.0,N,0.0,K,A*22

3:12:21:620 Nachm. 03/28/17 - $GPRMC,131217.0,A,5208.343691,N,01138.680089,E,0.0,94.0,280317,0.4,E,A*35

3:12:21:620 Nachm. 03/28/17 - $GPGSA,A,2,10,12,17,24,,,,,,,,,1.6,1.4,0.9*3A

3:12:21:620 Nachm. 03/28/17 - $GNGSA,A,2,10,12,17,24,,,,,,,,,1.6,1.4,0.9*24

3:12:21:620 Nachm. 03/28/17 - $GNGSA,A,2,65,72,73,74,82,,,,,,,,1.6,1.4,0.9*2D

3:12:22:582 Nachm. 03/28/17 - $GPGSV,3,1,12,01,05,018,20,10,17,296,27,12,43,232,16,17,40,067,13*79

3:12:22:582 Nachm. 03/28/17 - $GPGSV,3,2,12,19,45,098,17,24,73,286,28,32,07,320,23,13,19,160,*7A

3:12:22:583 Nachm. 03/28/17 - $GPGSV,3,3,12,15,42,192,,18,13,268,,25,03,237,,28,07,056,*79

3:12:22:584 Nachm. 03/28/17 - $GLGSV,3,1,09,74,37,284,26,82,34,049,11,73,68,037,20,65,16,337,26*68

3:12:22:586 Nachm. 03/28/17 - $GLGSV,3,2,09,81,04,007,29,72,40,286,23,80,23,078,,83,32,116,*6A

3:12:22:587 Nachm. 03/28/17 - $GLGSV,3,3,09,71,26,224,*5A

3:12:22:587 Nachm. 03/28/17 - $GPGGA,131218.0,5208.343624,N,01138.680222,E,1,04,1.4,60.9,M,45.0,M,,*67

3:12:22:588 Nachm. 03/28/17 - $GNGNS,131218.0,5208.343624,N,01138.680222,E,AA,09,1.4,60.9,45.0,,*5E

3:12:22:590 Nachm. 03/28/17 - $GPVTG,94.0,T,93.6,M,0.0,N,0.0,K,A*22

3:12:22:590 Nachm. 03/28/17 - $GPRMC,131218.0,A,5208.343624,N,01138.680222,E,0.0,94.0,280317,0.4,E,A*37

3:12:22:591 Nachm. 03/28/17 - $GPGSA,A,2,10,12,17,24,,,,,,,,,1.6,1.4,0.9*3A

3:12:22:591 Nachm. 03/28/17 - $GNGSA,A,2,10,12,17,24,,,,,,,,,1.6,1.4,0.9*24

3:12:22:591 Nachm. 03/28/17 - $GNGSA,A,2,65,72,73,74,82,,,,,,,,1.6,1.4,0.9*2D

3:12:23:584 Nachm. 03/28/17 - $GPGSV,3,1,12,01,05,018,20,10,17,296,28,12,43,232,16,17,40,067,13*76

3:12:23:585 Nachm. 03/28/17 - $GPGSV,3,2,12,19,45,098,17,24,73,286,23,32,07,320,24,13,19,160,*76

3:12:23:585 Nachm. 03/28/17 - $GPGSV,3,3,12,15,42,192,,18,13,268,,25,03,237,,28,07,056,*79

3:12:23:586 Nachm. 03/28/17 - $GLGSV,3,1,09,74,37,284,26,82,34,049,11,73,68,037,21,65,16,337,27*68

3:12:23:589 Nachm. 03/28/17 - $GLGSV,3,2,09,81,04,007,30,72,40,286,21,80,23,078,,83,32,116,*60

3:12:23:591 Nachm. 03/28/17 - $GLGSV,3,3,09,71,26,224,*5A

3:12:23:592 Nachm. 03/28/17 - $GPGGA,131219.0,5208.343630,N,01138.680204,E,1,04,1.4,60.9,M,45.0,M,,*67

3:12:23:604 Nachm. 03/28/17 - $GNGNS,131219.0,5208.343630,N,01138.680204,E,AA,09,1.4,60.9,45.0,,*5E

3:12:23:606 Nachm. 03/28/17 - $GPVTG,94.0,T,93.6,M,0.0,N,0.0,K,A*22

3:12:23:620 Nachm. 03/28/17 - $GPRMC,131219.0,A,5208.343630,N,01138.680204,E,0.0,94.0,280317,0.4,E,A*37

3:12:23:620 Nachm. 03/28/17 - $GPGSA,A,2,10,12,17,24,,,,,,,,,1.6,1.4,0.9*3A

3:12:23:621 Nachm. 03/28/17 - $GNGSA,A,2,10,12,17,24,,,,,,,,,1.6,1.4,0.9*24

3:12:23:621 Nachm. 03/28/17 - $GNGSA,A,2,65,72,73,74,82,,,,,,,,1.6,1.4,0.9*2D

3:12:24:584 Nachm. 03/28/17 - $GPGSV,3,1,12,01,05,018,18,10,17,296,29,12,43,232,16,17,40,067,13*7C

3:12:24:584 Nachm. 03/28/17 - $GPGSV,3,2,12,19,45,098,17,24,73,286,22,32,07,320,26,13,19,160,*75

3:12:24:585 Nachm. 03/28/17 - $GPGSV,3,3,12,15,42,192,,18,13,268,,25,03,237,,28,07,056,*79

3:12:24:586 Nachm. 03/28/17 - $GLGSV,3,1,09,74,37,284,23,82,34,049,14,73,68,037,20,65,16,337,28*66

3:12:24:587 Nachm. 03/28/17 - $GLGSV,3,2,09,81,04,007,29,72,40,286,24,80,23,078,,83,32,116,*6D

3:12:24:587 Nachm. 03/28/17 - $GLGSV,3,3,09,71,26,224,*5A

3:12:24:588 Nachm. 03/28/17 - $GPGGA,131220.0,5208.343800,N,01138.679928,E,1,04,1.4,61.4,M,45.0,M,,*6F

3:12:24:595 Nachm. 03/28/17 - $GNGNS,131220.0,5208.343800,N,01138.679928,E,AA,09,1.4,61.4,45.0,,*56

3:12:24:595 Nachm. 03/28/17 - $GPVTG,94.0,T,93.6,M,0.0,N,0.0,K,A*22

3:12:24:596 Nachm. 03/28/17 - $GPRMC,131220.0,A,5208.343800,N,01138.679928,E,0.0,94.0,280317,0.4,E,A*33

3:12:24:596 Nachm. 03/28/17 - $GPGSA,A,2,10,12,17,24,,,,,,,,,1.6,1.4,0.9*3A

3:12:24:597 Nachm. 03/28/17 - $GNGSA,A,2,10,12,17,24,,,,,,,,,1.6,1.4,0.9*24

3:12:24:597 Nachm. 03/28/17 - $GNGSA,A,2,65,72,73,74,82,,,,,,,,1.6,1.4,0.9*2D

3:12:25:583 Nachm. 03/28/17 - $GPGSV,3,1,12,01,05,018,18,10,17,296,30,12,43,232,16,17,40,067,13*74

3:12:25:585 Nachm. 03/28/17 - $GPGSV,3,2,12,19,45,098,10,24,73,286,23,32,07,320,25,13,19,160,*70

3:12:25:597 Nachm. 03/28/17 - $GPGSV,3,3,12,15,42,192,,18,13,268,,25,03,237,,28,07,056,*79

3:12:25:599 Nachm. 03/28/17 - $GLGSV,3,1,09,74,37,284,25,82,34,049,14,73,68,037,23,65,16,337,30*6A

3:12:25:608 Nachm. 03/28/17 - $GLGSV,3,2,09,81,04,007,30,72,40,286,24,80,23,078,,83,32,116,*65

3:12:25:609 Nachm. 03/28/17 - $GLGSV,3,3,09,71,26,224,*5A

3:12:25:610 Nachm. 03/28/17 - $GPGGA,131221.0,5208.343864,N,01138.679877,E,1,04,1.3,61.5,M,45.0,M,,*61

3:12:25:610 Nachm. 03/28/17 - $GNGNS,131221.0,5208.343864,N,01138.679877,E,AA,09,1.3,61.5,45.0,,*58

3:12:25:611 Nachm. 03/28/17 - $GPVTG,94.0,T,93.6,M,0.0,N,0.0,K,A*22

3:12:25:611 Nachm. 03/28/17 - $GPRMC,131221.0,A,5208.343864,N,01138.679877,E,0.0,94.0,280317,0.4,E,A*3B

3:12:25:612 Nachm. 03/28/17 - $GPGSA,A,2,10,12,19,24,,,,,,,,,1.6,1.3,0.9*33

3:12:25:612 Nachm. 03/28/17 - $GNGSA,A,2,10,12,19,24,,,,,,,,,1.6,1.3,0.9*2D

3:12:25:613 Nachm. 03/28/17 - $GNGSA,A,2,65,72,73,74,82,,,,,,,,1.6,1.3,0.9*2A

3:12:26:584 Nachm. 03/28/17 - $GPGSV,3,1,12,01,05,018,17,10,17,296,29,12,43,232,16,17,40,067,13*73

3:12:26:585 Nachm. 03/28/17 - $GPGSV,3,2,12,19,45,098,10,24,73,286,24,32,07,320,24,13,19,160,*76

3:12:26:597 Nachm. 03/28/17 - $GPGSV,3,3,12,15,42,192,,18,13,268,,25,03,237,,28,07,056,*79

3:12:26:599 Nachm. 03/28/17 - $GLGSV,3,1,09,74,37,284,25,82,34,049,14,73,68,037,23,65,16,337,30*6A

3:12:26:605 Nachm. 03/28/17 - $GLGSV,3,2,09,81,04,007,31,72,40,286,24,80,23,078,,83,32,116,*64

3:12:26:605 Nachm. 03/28/17 - $GLGSV,3,3,09,71,26,224,*5A

3:12:26:606 Nachm. 03/28/17 - $GPGGA,131222.0,5208.343870,N,01138.679877,E,1,03,1.6,61.6,M,45.0,M,,*66

3:12:26:612 Nachm. 03/28/17 - $GNGNS,131222.0,5208.343870,N,01138.679877,E,AA,08,1.6,61.6,45.0,,*59

3:12:26:613 Nachm. 03/28/17 - $GPVTG,94.0,T,93.6,M,0.0,N,0.0,K,A*22

3:12:26:613 Nachm. 03/28/17 - $GPRMC,131222.0,A,5208.343870,N,01138.679877,E,0.0,94.0,280317,0.4,E,A*3D

3:12:26:617 Nachm. 03/28/17 - $GPGSA,A,2,10,19,24,,,,,,,,,,1.9,1.6,0.9*3A

3:12:26:618 Nachm. 03/28/17 - $GNGSA,A,2,10,19,24,,,,,,,,,,1.9,1.6,0.9*24

3:12:26:618 Nachm. 03/28/17 - $GNGSA,A,2,65,72,73,74,82,,,,,,,,1.9,1.6,0.9*20

3:12:27:583 Nachm. 03/28/17 - $GPGSV,3,1,12,01,05,018,17,10,17,296,29,12,43,232,16,17,40,067,13*73

3:12:27:586 Nachm. 03/28/17 - $GPGSV,3,2,12,19,45,098,16,24,73,286,27,32,07,320,17,13,19,160,*73

3:12:27:593 Nachm. 03/28/17 - $GPGSV,3,3,12,15,42,192,,18,13,268,,25,03,237,,28,07,056,*79

3:12:27:594 Nachm. 03/28/17 - $GLGSV,3,1,09,74,37,284,26,82,34,049,13,73,68,037,25,65,16,337,29*60

3:12:27:597 Nachm. 03/28/17 - $GLGSV,3,2,09,81,04,007,31,72,40,286,26,80,23,078,,83,32,116,*66

3:12:27:599 Nachm. 03/28/17 - $GLGSV,3,3,09,71,26,224,*5A

3:12:27:600 Nachm. 03/28/17 - $GPGGA,131223.0,5208.344148,N,01138.679581,E,1,03,1.6,62.2,M,45.0,M,,*61

3:12:27:608 Nachm. 03/28/17 - $GNGNS,131223.0,5208.344148,N,01138.679581,E,AA,08,1.6,62.2,45.0,,*5E

3:12:27:610 Nachm. 03/28/17 - $GPVTG,94.0,T,93.6,M,0.0,N,0.0,K,A*22

3:12:27:611 Nachm. 03/28/17 - $GPRMC,131223.0,A,5208.344148,N,01138.679581,E,0.0,94.0,280317,0.4,E,A*3D

3:12:27:611 Nachm. 03/28/17 - $GPGSA,A,2,10,19,24,,,,,,,,,,1.9,1.6,0.9*3A

3:12:27:612 Nachm. 03/28/17 - $GNGSA,A,2,10,19,24,,,,,,,,,,1.9,1.6,0.9*24

3:12:27:612 Nachm. 03/28/17 - $GNGSA,A,2,65,72,73,74,82,,,,,,,,1.9,1.6,0.9*20

3:12:28:582 Nachm. 03/28/17 - $GPGSV,3,1,12,01,05,018,16,10,17,296,28,12,43,232,16,17,40,067,13*73

3:12:28:585 Nachm. 03/28/17 - $GPGSV,3,2,12,19,45,098,16,24,73,286,27,32,07,320,19,13,19,160,*7D

3:12:28:586 Nachm. 03/28/17 - $GPGSV,3,3,12,15,42,192,,18,13,268,,25,03,237,,28,07,056,*79

3:12:28:598 Nachm. 03/28/17 - $GLGSV,3,1,09,74,37,284,25,82,34,049,13,73,68,037,25,65,16,337,29*63

3:12:28:599 Nachm. 03/28/17 - $GLGSV,3,2,09,81,04,007,31,72,40,286,22,80,23,078,,83,32,116,*62

3:12:28:600 Nachm. 03/28/17 - $GLGSV,3,3,09,71,26,224,*5A

3:12:28:601 Nachm. 03/28/17 - $GPGGA,131224.0,5208.344150,N,01138.679582,E,1,03,1.6,62.2,M,45.0,M,,*6C

3:12:28:602 Nachm. 03/28/17 - $GNGNS,131224.0,5208.344150,N,01138.679582,E,AA,08,1.6,62.2,45.0,,*53

3:12:28:603 Nachm. 03/28/17 - $GPVTG,94.0,T,93.6,M,0.0,N,0.0,K,A*22

3:12:28:605 Nachm. 03/28/17 - $GPRMC,131224.0,A,5208.344150,N,01138.679582,E,0.0,94.0,280317,0.4,E,A*30

3:12:28:606 Nachm. 03/28/17 - $GPGSA,A,2,10,19,24,,,,,,,,,,1.9,1.6,0.9*3A

3:12:28:611 Nachm. 03/28/17 - $GNGSA,A,2,10,19,24,,,,,,,,,,1.9,1.6,0.9*24

3:12:28:611 Nachm. 03/28/17 - $GNGSA,A,2,65,72,73,74,82,,,,,,,,1.9,1.6,0.9*20

3:12:29:583 Nachm. 03/28/17 - $GPGSV,3,1,12,01,05,018,16,10,17,296,29,12,43,232,16,17,40,067,13*72

3:12:29:586 Nachm. 03/28/17 - $GPGSV,3,2,12,19,45,098,17,24,73,286,28,32,07,320,20,13,19,160,*79

3:12:29:587 Nachm. 03/28/17 - $GPGSV,3,3,12,15,42,192,,18,13,268,,25,03,237,,28,07,056,*79

3:12:29:589 Nachm. 03/28/17 - $GLGSV,3,1,09,74,37,284,26,82,34,049,14,73,68,037,23,65,16,337,29*61

3:12:29:591 Nachm. 03/28/17 - $GLGSV,3,2,09,81,04,007,30,72,40,286,21,80,23,078,,83,32,116,*60

3:12:29:597 Nachm. 03/28/17 - $GLGSV,3,3,09,71,26,224,*5A

3:12:29:608 Nachm. 03/28/17 - $GPGGA,131225.0,5208.344294,N,01138.679466,E,1,03,1.6,62.5,M,45.0,M,,*6A

3:12:29:610 Nachm. 03/28/17 - $GNGNS,131225.0,5208.344294,N,01138.679466,E,AA,08,1.6,62.5,45.0,,*55

3:12:29:612 Nachm. 03/28/17 - $GPVTG,94.0,T,93.6,M,0.0,N,0.0,K,A*22

3:12:29:613 Nachm. 03/28/17 - $GPRMC,131225.0,A,5208.344294,N,01138.679466,E,0.0,94.0,280317,0.4,E,A*31

3:12:29:613 Nachm. 03/28/17 - $GPGSA,A,2,10,19,24,,,,,,,,,,1.9,1.6,0.9*3A

3:12:29:614 Nachm. 03/28/17 - $GNGSA,A,2,10,19,24,,,,,,,,,,1.9,1.6,0.9*24

3:12:29:615 Nachm. 03/28/17 - $GNGSA,A,2,65,72,73,74,82,,,,,,,,1.9,1.6,0.9*20

3:12:30:583 Nachm. 03/28/17 - $GPGSV,3,1,12,01,05,018,18,10,17,296,28,12,43,232,16,17,40,067,13*7D

3:12:30:584 Nachm. 03/28/17 - $GPGSV,3,2,12,19,45,098,17,24,73,286,28,32,07,320,21,13,19,160,*78

3:12:30:585 Nachm. 03/28/17 - $GPGSV,3,3,12,15,42,192,,18,13,268,,25,03,237,,28,07,056,*79

3:12:30:585 Nachm. 03/28/17 - $GLGSV,3,1,09,74,37,284,25,82,34,049,14,73,68,037,22,65,16,337,30*6B

3:12:30:588 Nachm. 03/28/17 - $GLGSV,3,2,09,81,04,007,31,72,40,286,21,80,23,078,,83,32,116,*61

3:12:30:589 Nachm. 03/28/17 - $GLGSV,3,3,09,71,26,224,*5A

3:12:30:590 Nachm. 03/28/17 - $GPGGA,131226.0,5208.344296,N,01138.679466,E,1,03,1.6,62.5,M,45.0,M,,*6B

3:12:30:598 Nachm. 03/28/17 - $GNGNS,131226.0,5208.344296,N,01138.679466,E,AA,08,1.6,62.5,45.0,,*54

3:12:30:599 Nachm. 03/28/17 - $GPVTG,94.0,T,93.6,M,0.0,N,0.0,K,A*22

3:12:30:600 Nachm. 03/28/17 - $GPRMC,131226.0,A,5208.344296,N,01138.679466,E,0.0,94.0,280317,0.4,E,A*30

3:12:30:601 Nachm. 03/28/17 - $GPGSA,A,2,10,19,24,,,,,,,,,,1.9,1.6,0.9*3A

3:12:30:607 Nachm. 03/28/17 - $GNGSA,A,2,10,19,24,,,,,,,,,,1.9,1.6,0.9*24

3:12:30:608 Nachm. 03/28/17 - $GNGSA,A,2,65,72,73,74,82,,,,,,,,1.9,1.6,0.9*20

3:12:31:584 Nachm. 03/28/17 - $GPGSV,3,1,12,01,05,018,18,10,17,296,27,12,43,232,12,17,40,067,13*76

3:12:31:587 Nachm. 03/28/17 - $GPGSV,3,2,12,19,45,098,15,24,73,286,27,32,07,320,21,13,19,160,*75

3:12:31:587 Nachm. 03/28/17 - $GPGSV,3,3,12,15,42,192,,18,13,268,,25,03,237,,28,07,056,*79

3:12:31:588 Nachm. 03/28/17 - $GLGSV,3,1,09,74,37,284,24,82,34,049,14,73,68,037,22,65,16,337,30*6A

3:12:31:588 Nachm. 03/28/17 - $GLGSV,3,2,09,81,04,007,31,72,40,286,19,80,23,078,,83,32,116,*6A

3:12:31:606 Nachm. 03/28/17 - $GLGSV,3,3,09,71,26,224,*5A

3:12:31:607 Nachm. 03/28/17 - $GPGGA,131227.0,5208.344597,N,01138.679171,E,1,04,1.3,63.2,M,45.0,M,,*6B

3:12:31:609 Nachm. 03/28/17 - $GNGNS,131227.0,5208.344597,N,01138.679171,E,AA,09,1.3,63.2,45.0,,*52

3:12:31:609 Nachm. 03/28/17 - $GPVTG,94.0,T,93.6,M,0.0,N,0.0,K,A*22

3:12:31:609 Nachm. 03/28/17 - $GPRMC,131227.0,A,5208.344597,N,01138.679171,E,0.0,94.0,280317,0.4,E,A*34

3:12:31:609 Nachm. 03/28/17 - $GPGSA,A,2,10,12,19,24,,,,,,,,,1.6,1.3,0.9*33

3:12:31:610 Nachm. 03/28/17 - $GNGSA,A,2,10,12,19,24,,,,,,,,,1.6,1.3,0.9*2D

3:12:31:610 Nachm. 03/28/17 - $GNGSA,A,2,65,72,73,74,82,,,,,,,,1.6,1.3,0.9*2A

3:12:32:584 Nachm. 03/28/17 - $GPGSV,3,1,12,01,05,018,19,10,17,296,27,12,43,232,12,17,40,067,13*77

3:12:32:585 Nachm. 03/28/17 - $GPGSV,3,2,12,19,45,098,15,24,73,286,27,32,07,320,21,13,19,160,*75

3:12:32:585 Nachm. 03/28/17 - $GPGSV,3,3,12,15,42,192,,18,13,268,,25,03,237,,28,07,056,*79

3:12:32:592 Nachm. 03/28/17 - $GLGSV,3,1,09,74,37,284,22,82,34,049,14,73,68,037,22,65,16,337,31*6D

3:12:32:592 Nachm. 03/28/17 - $GLGSV,3,2,09,81,04,007,31,72,40,286,19,80,23,078,,83,32,116,*6A

3:12:32:593 Nachm. 03/28/17 - $GLGSV,3,3,09,71,26,224,*5A

3:12:32:600 Nachm. 03/28/17 - $GPGGA,131228.0,5208.344608,N,01138.679165,E,1,04,1.3,63.2,M,45.0,M,,*64

3:12:32:607 Nachm. 03/28/17 - $GNGNS,131228.0,5208.344608,N,01138.679165,E,AA,09,1.3,63.2,45.0,,*5D

3:12:32:608 Nachm. 03/28/17 - $GPVTG,94.0,T,93.6,M,0.0,N,0.0,K,A*22

3:12:32:608 Nachm. 03/28/17 - $GPRMC,131228.0,A,5208.344608,N,01138.679165,E,0.0,94.0,280317,0.4,E,A*3B

3:12:32:608 Nachm. 03/28/17 - $GPGSA,A,2,10,12,19,24,,,,,,,,,1.6,1.3,0.9*33

3:12:32:608 Nachm. 03/28/17 - $GNGSA,A,2,10,12,19,24,,,,,,,,,1.6,1.3,0.9*2D

3:12:32:608 Nachm. 03/28/17 - $GNGSA,A,2,65,72,73,74,82,,,,,,,,1.6,1.3,0.9*2A

3:12:33:583 Nachm. 03/28/17 - $GPGSV,3,1,12,01,05,018,19,10,17,296,27,12,43,232,12,17,40,067,13*77

3:12:33:583 Nachm. 03/28/17 - $GPGSV,3,2,12,19,45,098,15,24,73,286,27,32,07,320,21,13,19,160,*75

3:12:33:583 Nachm. 03/28/17 - $GPGSV,3,3,12,15,42,192,,18,13,268,,25,03,237,,28,07,056,*79

3:12:33:584 Nachm. 03/28/17 - $GLGSV,3,1,09,74,37,284,23,82,34,049,14,73,68,037,21,65,16,337,30*6E

3:12:33:584 Nachm. 03/28/17 - $GLGSV,3,2,09,81,04,007,31,72,40,286,16,80,23,078,,83,32,116,*65

3:12:33:584 Nachm. 03/28/17 - $GLGSV,3,3,09,71,26,224,*5A

3:12:33:585 Nachm. 03/28/17 - $GPGGA,131229.0,5208.344622,N,01138.679144,E,1,04,1.3,63.2,M,45.0,M,,*6E

3:12:33:588 Nachm. 03/28/17 - $GNGNS,131229.0,5208.344622,N,01138.679144,E,AA,09,1.3,63.2,45.0,,*57

3:12:33:597 Nachm. 03/28/17 - $GPVTG,94.0,T,93.6,M,0.0,N,0.0,K,A*22

3:12:33:598 Nachm. 03/28/17 - $GPRMC,131229.0,A,5208.344622,N,01138.679144,E,0.0,94.0,280317,0.4,E,A*31

3:12:33:600 Nachm. 03/28/17 - $GPGSA,A,2,10,12,19,24,,,,,,,,,1.6,1.3,0.9*33

3:12:33:600 Nachm. 03/28/17 - $GNGSA,A,2,10,12,19,24,,,,,,,,,1.6,1.3,0.9*2D

3:12:33:601 Nachm. 03/28/17 - $GNGSA,A,2,65,72,73,74,82,,,,,,,,1.6,1.3,0.9*2A

3:12:34:583 Nachm. 03/28/17 - $GPGSV,3,1,12,01,05,018,19,10,17,296,26,12,43,232,12,17,40,067,13*76

3:12:34:584 Nachm. 03/28/17 - $GPGSV,3,2,12,19,45,098,15,24,73,286,28,32,07,320,19,13,19,160,*71

3:12:34:586 Nachm. 03/28/17 - $GPGSV,3,3,12,15,42,192,,18,13,268,,25,03,237,,28,07,056,*79

3:12:34:586 Nachm. 03/28/17 - $GLGSV,3,1,09,74,37,284,25,82,34,049,14,73,68,037,21,65,16,337,30*68

3:12:34:586 Nachm. 03/28/17 - $GLGSV,3,2,09,81,04,007,31,72,40,286,20,80,23,078,,83,32,116,*60

3:12:34:588 Nachm. 03/28/17 - $GLGSV,3,3,09,71,26,224,*5A

3:12:34:588 Nachm. 03/28/17 - $GPGGA,131230.0,5208.344646,N,01138.679122,E,1,04,1.3,63.3,M,45.0,M,,*65

3:12:34:590 Nachm. 03/28/17 - $GNGNS,131230.0,5208.344646,N,01138.679122,E,AA,09,1.3,63.3,45.0,,*5C

3:12:34:590 Nachm. 03/28/17 - $GPVTG,94.0,T,93.6,M,0.0,N,0.0,K,A*22

3:12:34:591 Nachm. 03/28/17 - $GPRMC,131230.0,A,5208.344646,N,01138.679122,E,0.0,94.0,280317,0.4,E,A*3B

3:12:34:592 Nachm. 03/28/17 - $GPGSA,A,2,10,12,19,24,,,,,,,,,1.6,1.3,0.9*33

3:12:34:592 Nachm. 03/28/17 - $GNGSA,A,2,10,12,19,24,,,,,,,,,1.6,1.3,0.9*2D

3:12:34:592 Nachm. 03/28/17 - $GNGSA,A,2,65,72,73,74,82,,,,,,,,1.6,1.3,0.9*2A

3:12:35:583 Nachm. 03/28/17 - $GPGSV,3,1,12,01,05,018,19,10,17,296,26,12,43,232,15,17,40,067,13*71

3:12:35:585 Nachm. 03/28/17 - $GPGSV,3,2,12,19,45,098,14,24,73,286,28,32,07,320,21,13,19,160,*7B

3:12:35:586 Nachm. 03/28/17 - $GPGSV,3,3,12,15,42,192,,18,13,268,,25,03,237,,28,07,056,*79

3:12:35:587 Nachm. 03/28/17 - $GLGSV,3,1,09,74,37,284,24,82,34,049,14,73,68,037,20,65,16,337,29*60

3:12:35:587 Nachm. 03/28/17 - $GLGSV,3,2,09,81,04,007,31,72,40,286,19,80,23,078,,83,32,116,*6A

3:12:35:588 Nachm. 03/28/17 - $GLGSV,3,3,09,71,26,224,*5A

3:12:35:588 Nachm. 03/28/17 - $GPGGA,131231.0,5208.344876,N,01138.678930,E,1,04,1.3,63.8,M,45.0,M,,*68

3:12:35:591 Nachm. 03/28/17 - $GNGNS,131231.0,5208.344876,N,01138.678930,E,AA,09,1.3,63.8,45.0,,*51

3:12:35:593 Nachm. 03/28/17 - $GPVTG,94.0,T,93.6,M,0.0,N,0.0,K,A*22

3:12:35:593 Nachm. 03/28/17 - $GPRMC,131231.0,A,5208.344876,N,01138.678930,E,0.0,94.0,280317,0.4,E,A*3D

3:12:35:593 Nachm. 03/28/17 - $GPGSA,A,2,10,12,19,24,,,,,,,,,1.6,1.3,0.9*33

3:12:35:594 Nachm. 03/28/17 - $GNGSA,A,2,10,12,19,24,,,,,,,,,1.6,1.3,0.9*2D

3:12:35:594 Nachm. 03/28/17 - $GNGSA,A,2,65,72,73,74,82,,,,,,,,1.6,1.3,0.9*2A

3:12:36:582 Nachm. 03/28/17 - $GPGSV,3,1,12,01,05,018,19,10,17,296,27,12,43,232,15,17,40,067,13*70

3:12:36:588 Nachm. 03/28/17 - $GPGSV,3,2,12,19,45,098,14,24,73,286,27,32,07,320,18,13,19,160,*7E

3:12:36:589 Nachm. 03/28/17 - $GPGSV,3,3,12,15,42,192,,18,13,268,,25,03,237,,28,07,056,*79

3:12:36:589 Nachm. 03/28/17 - $GLGSV,3,1,09,74,37,284,24,82,34,049,14,73,68,037,22,65,16,337,31*6B

3:12:36:595 Nachm. 03/28/17 - $GLGSV,3,2,09,81,04,007,31,72,40,286,18,80,23,078,,83,32,116,*6B

3:12:36:595 Nachm. 03/28/17 - $GLGSV,3,3,09,71,26,224,*5A

3:12:36:596 Nachm. 03/28/17 - $GPGGA,131232.0,5208.344897,N,01138.678903,E,1,04,1.4,63.8,M,45.0,M,,*63

3:12:36:601 Nachm. 03/28/17 - $GNGNS,131232.0,5208.344897,N,01138.678903,E,AA,08,1.4,63.8,45.0,,*5B

3:12:36:602 Nachm. 03/28/17 - $GPVTG,94.0,T,93.6,M,0.0,N,0.0,K,A*22

3:12:36:602 Nachm. 03/28/17 - $GPRMC,131232.0,A,5208.344897,N,01138.678903,E,0.0,94.0,280317,0.4,E,A*31

3:12:36:602 Nachm. 03/28/17 - $GPGSA,A,2,10,12,19,24,,,,,,,,,1.7,1.4,0.9*35

3:12:36:602 Nachm. 03/28/17 - $GNGSA,A,2,10,12,19,24,,,,,,,,,1.7,1.4,0.9*2B

3:12:36:605 Nachm. 03/28/17 - $GNGSA,A,2,65,72,73,74,,,,,,,,,1.7,1.4,0.9*26

3:12:37:582 Nachm. 03/28/17 - $GPGSV,3,1,12,01,05,018,19,10,17,296,27,12,43,232,15,17,40,067,13*70

3:12:37:583 Nachm. 03/28/17 - $GPGSV,3,2,12,19,45,098,14,24,73,286,27,32,07,320,18,13,19,160,*7E

3:12:37:583 Nachm. 03/28/17 - $GPGSV,3,3,12,15,42,192,,18,13,268,,25,03,237,,28,07,056,*79

3:12:37:585 Nachm. 03/28/17 - $GLGSV,3,1,09,74,37,284,24,82,34,049,14,73,68,037,18,65,16,337,30*63

3:12:37:588 Nachm. 03/28/17 - $GLGSV,3,2,09,81,04,007,31,72,40,286,17,80,23,078,,83,32,116,*64

3:12:37:589 Nachm. 03/28/17 - $GLGSV,3,3,09,71,26,224,*5A

3:12:37:589 Nachm. 03/28/17 - $GPGGA,131233.0,5208.344918,N,01138.678897,E,1,04,1.4,63.8,M,45.0,M,,*68

3:12:37:595 Nachm. 03/28/17 - $GNGNS,131233.0,5208.344918,N,01138.678897,E,AA,08,1.4,63.8,45.0,,*50

3:12:37:603 Nachm. 03/28/17 - $GPVTG,94.0,T,93.6,M,0.0,N,0.0,K,A*22

3:12:37:603 Nachm. 03/28/17 - $GPRMC,131233.0,A,5208.344918,N,01138.678897,E,0.0,94.0,280317,0.4,E,A*3A

3:12:37:609 Nachm. 03/28/17 - $GPGSA,A,2,10,12,19,24,,,,,,,,,1.7,1.4,0.9*35

3:12:37:610 Nachm. 03/28/17 - $GNGSA,A,2,10,12,19,24,,,,,,,,,1.7,1.4,0.9*2B

3:12:37:610 Nachm. 03/28/17 - $GNGSA,A,2,65,72,73,74,,,,,,,,,1.7,1.4,0.9*26

3:12:38:583 Nachm. 03/28/17 - $GPGSV,3,1,12,01,05,018,18,10,17,296,27,12,43,232,15,17,40,067,13*71

3:12:38:585 Nachm. 03/28/17 - $GPGSV,3,2,12,19,45,098,14,24,73,286,27,32,07,320,20,13,19,160,*75

3:12:38:585 Nachm. 03/28/17 - $GPGSV,3,3,12,15,42,192,,18,13,268,,25,03,237,,28,07,056,*79

3:12:38:589 Nachm. 03/28/17 - $GLGSV,3,1,09,74,37,284,24,82,34,049,14,73,68,037,20,65,16,337,30*68

3:12:38:592 Nachm. 03/28/17 - $GLGSV,3,2,09,81,04,007,31,72,40,286,16,80,23,078,,83,32,116,*65

3:12:38:593 Nachm. 03/28/17 - $GLGSV,3,3,09,71,26,224,*5A

3:12:38:594 Nachm. 03/28/17 - $GPGGA,131234.0,5208.344954,N,01138.678867,E,1,04,1.4,63.9,M,45.0,M,,*69

3:12:38:599 Nachm. 03/28/17 - $GNGNS,131234.0,5208.344954,N,01138.678867,E,AA,08,1.4,63.9,45.0,,*51

3:12:38:601 Nachm. 03/28/17 - $GPVTG,94.0,T,93.6,M,0.0,N,0.0,K,A*22

3:12:38:601 Nachm. 03/28/17 - $GPRMC,131234.0,A,5208.344954,N,01138.678867,E,0.0,94.0,280317,0.4,E,A*3A

3:12:38:602 Nachm. 03/28/17 - $GPGSA,A,2,10,12,19,24,,,,,,,,,1.7,1.4,0.9*35

3:12:38:603 Nachm. 03/28/17 - $GNGSA,A,2,10,12,19,24,,,,,,,,,1.7,1.4,0.9*2B

3:12:38:606 Nachm. 03/28/17 - $GNGSA,A,2,65,72,73,74,,,,,,,,,1.7,1.4,0.9*26

3:12:39:583 Nachm. 03/28/17 - $GPGSV,3,1,12,01,05,018,18,10,17,296,26,12,43,232,15,17,40,067,13*70

3:12:39:583 Nachm. 03/28/17 - $GPGSV,3,2,12,19,45,098,14,24,73,286,27,32,07,320,20,13,19,160,*75

3:12:39:584 Nachm. 03/28/17 - $GPGSV,3,3,12,15,42,192,,18,13,268,,25,03,237,,28,07,056,*79

3:12:39:585 Nachm. 03/28/17 - $GLGSV,3,1,09,74,37,284,24,82,34,049,14,73,68,037,16,65,16,337,30*6D

3:12:39:586 Nachm. 03/28/17 - $GLGSV,3,2,09,81,04,007,31,72,40,286,18,80,23,078,,83,32,116,*6B

3:12:39:586 Nachm. 03/28/17 - $GLGSV,3,3,09,71,26,224,*5A

3:12:39:586 Nachm. 03/28/17 - $GPGGA,131235.0,5208.345232,N,01138.678557,E,1,04,1.4,64.5,M,45.0,M,,*67

3:12:39:589 Nachm. 03/28/17 - $GNGNS,131235.0,5208.345232,N,01138.678557,E,AA,08,1.4,64.5,45.0,,*5F

3:12:39:589 Nachm. 03/28/17 - $GPVTG,94.0,T,93.6,M,0.0,N,0.0,K,A*22

3:12:39:590 Nachm. 03/28/17 - $GPRMC,131235.0,A,5208.345232,N,01138.678557,E,0.0,94.0,280317,0.4,E,A*3F

3:12:39:591 Nachm. 03/28/17 - $GPGSA,A,2,10,12,19,24,,,,,,,,,1.7,1.4,0.9*35

3:12:39:591 Nachm. 03/28/17 - $GNGSA,A,2,10,12,19,24,,,,,,,,,1.7,1.4,0.9*2B

3:12:39:591 Nachm. 03/28/17 - $GNGSA,A,2,65,72,73,74,,,,,,,,,1.7,1.4,0.9*26

3:12:40:582 Nachm. 03/28/17 - $GPGSV,3,1,12,01,05,018,19,10,17,296,26,12,43,232,15,19,45,098,14*7D

3:12:40:584 Nachm. 03/28/17 - $GPGSV,3,2,12,24,73,286,28,32,07,320,19,13,19,160,,15,42,192,*75

3:12:40:588 Nachm. 03/28/17 - $GPGSV,3,3,12,17,40,067,,18,13,268,,25,03,237,,28,07,056,*72

3:12:40:600 Nachm. 03/28/17 - $GLGSV,3,1,09,74,37,284,24,82,34,049,14,73,68,037,19,65,16,337,29*6A

3:12:40:600 Nachm. 03/28/17 - $GLGSV,3,2,09,81,04,007,32,72,40,286,19,80,23,078,,83,32,116,*69

3:12:40:604 Nachm. 03/28/17 - $GLGSV,3,3,09,71,26,224,*5A

3:12:40:605 Nachm. 03/28/17 - $GPGGA,131236.0,5208.345290,N,01138.678509,E,1,04,1.4,64.7,M,45.0,M,,*65

3:12:40:606 Nachm. 03/28/17 - $GNGNS,131236.0,5208.345290,N,01138.678509,E,AA,08,1.4,64.7,45.0,,*5D

3:12:40:617 Nachm. 03/28/17 - $GPVTG,94.0,T,93.6,M,0.0,N,0.0,K,A*22

3:12:40:617 Nachm. 03/28/17 - $GPRMC,131236.0,A,5208.345290,N,01138.678509,E,0.0,94.0,280317,0.4,E,A*3F

3:12:40:618 Nachm. 03/28/17 - $GPGSA,A,2,10,12,19,24,,,,,,,,,1.7,1.4,0.9*35

3:12:40:618 Nachm. 03/28/17 - $GNGSA,A,2,10,12,19,24,,,,,,,,,1.7,1.4,0.9*2B

3:12:40:619 Nachm. 03/28/17 - $GNGSA,A,2,65,72,73,74,,,,,,,,,1.7,1.4,0.9*26

3:12:41:583 Nachm. 03/28/17 - $GPGSV,3,1,12,01,05,018,19,10,17,296,27,12,43,232,15,19,45,098,15*7D

3:12:41:583 Nachm. 03/28/17 - $GPGSV,3,2,12,24,73,286,28,32,07,320,18,13,19,160,,15,42,192,*74

3:12:41:584 Nachm. 03/28/17 - $GPGSV,3,3,12,17,40,067,,18,13,268,,25,03,237,,28,07,056,*72

3:12:41:586 Nachm. 03/28/17 - $GLGSV,3,1,09,74,37,284,26,82,34,049,7,73,68,037,21,65,16,337,29*51

3:12:41:587 Nachm. 03/28/17 - $GLGSV,3,2,09,81,04,007,31,72,40,286,22,80,23,078,,83,32,116,*62

3:12:41:587 Nachm. 03/28/17 - $GLGSV,3,3,09,71,26,224,*5A

3:12:41:587 Nachm. 03/28/17 - $GPGGA,131237.0,5208.345604,N,01138.678184,E,1,04,1.3,65.4,M,45.0,M,,*69

3:12:41:590 Nachm. 03/28/17 - $GNGNS,131237.0,5208.345604,N,01138.678184,E,AA,09,1.3,65.4,45.0,,*50

3:12:41:590 Nachm. 03/28/17 - $GPVTG,94.0,T,93.6,M,0.0,N,0.0,K,A*22

3:12:41:590 Nachm. 03/28/17 - $GPRMC,131237.0,A,5208.345604,N,01138.678184,E,0.0,94.0,280317,0.4,E,A*36

3:12:41:604 Nachm. 03/28/17 - $GPGSA,A,2,10,12,19,24,,,,,,,,,1.6,1.3,0.9*33

3:12:41:605 Nachm. 03/28/17 - $GNGSA,A,2,10,12,19,24,,,,,,,,,1.6,1.3,0.9*2D

3:12:41:605 Nachm. 03/28/17 - $GNGSA,A,2,65,72,73,74,82,,,,,,,,1.6,1.3,0.9*2A

3:12:42:582 Nachm. 03/28/17 - $GPGSV,3,1,12,01,05,018,19,10,17,296,26,12,43,232,15,17,40,067,17*75

3:12:42:583 Nachm. 03/28/17 - $GPGSV,3,2,12,19,45,098,15,24,73,286,28,32,07,320,17,13,19,160,*7F

3:12:42:583 Nachm. 03/28/17 - $GPGSV,3,3,12,15,42,192,,18,13,268,,25,03,237,,28,07,056,*79

3:12:42:589 Nachm. 03/28/17 - $GLGSV,3,1,09,74,37,284,27,82,34,049,7,73,68,037,23,65,16,337,29*52

3:12:42:590 Nachm. 03/28/17 - $GLGSV,3,2,09,81,04,007,30,72,40,286,22,80,23,078,,83,32,116,*63

3:12:42:590 Nachm. 03/28/17 - $GLGSV,3,3,09,71,26,224,*5A

3:12:42:591 Nachm. 03/28/17 - $GPGGA,131238.0,5208.345636,N,01138.678256,E,1,05,1.2,65.3,M,45.0,M,,*6C

3:12:42:591 Nachm. 03/28/17 - $GNGNS,131238.0,5208.345636,N,01138.678256,E,AA,11,1.2,65.3,45.0,,*5D

3:12:42:592 Nachm. 03/28/17 - $GPVTG,94.0,T,93.6,M,0.0,N,0.0,K,A*22

3:12:42:592 Nachm. 03/28/17 - $GPRMC,131238.0,A,5208.345636,N,01138.678256,E,0.0,94.0,280317,0.4,E,A*34

3:12:42:593 Nachm. 03/28/17 - $GPGSA,A,2,10,12,17,19,24,,,,,,,,1.5,1.2,0.9*37

3:12:42:593 Nachm. 03/28/17 - $GNGSA,A,2,10,12,17,19,24,,,,,,,,1.5,1.2,0.9*29

3:12:42:594 Nachm. 03/28/17 - $GNGSA,A,2,65,72,73,74,81,82,,,,,,,1.5,1.2,0.9*21

3:12:43:582 Nachm. 03/28/17 - $GPGSV,3,1,12,01,05,018,16,10,17,296,27,12,43,232,15,17,40,067,16*7A

3:12:43:584 Nachm. 03/28/17 - $GPGSV,3,2,12,19,45,098,15,24,73,286,29,32,07,320,16,13,19,160,*7F

3:12:43:584 Nachm. 03/28/17 - $GPGSV,3,3,12,15,42,192,,18,13,268,,25,03,237,,28,07,056,*79

3:12:43:584 Nachm. 03/28/17 - $GLGSV,3,1,09,74,37,284,27,82,34,049,7,73,68,037,24,65,16,337,29*55

3:12:43:584 Nachm. 03/28/17 - $GLGSV,3,2,09,81,04,007,31,72,40,286,23,80,23,078,,83,32,116,*63

3:12:43:585 Nachm. 03/28/17 - $GLGSV,3,3,09,71,26,224,*5A

3:12:43:585 Nachm. 03/28/17 - $GPGGA,131239.0,5208.345668,N,01138.678194,E,1,05,1.2,65.4,M,45.0,M,,*6C

3:12:43:594 Nachm. 03/28/17 - $GNGNS,131239.0,5208.345668,N,01138.678194,E,AA,11,1.2,65.4,45.0,,*5D

3:12:43:598 Nachm. 03/28/17 - $GPVTG,94.0,T,93.6,M,0.0,N,0.0,K,A*22

3:12:43:599 Nachm. 03/28/17 - $GPRMC,131239.0,A,5208.345668,N,01138.678194,E,0.0,94.0,280317,0.4,E,A*33

3:12:43:601 Nachm. 03/28/17 - $GPGSA,A,2,10,12,17,19,24,,,,,,,,1.5,1.2,0.9*37

3:12:43:602 Nachm. 03/28/17 - $GNGSA,A,2,10,12,17,19,24,,,,,,,,1.5,1.2,0.9*29

3:12:43:603 Nachm. 03/28/17 - $GNGSA,A,2,65,72,73,74,81,82,,,,,,,1.5,1.2,0.9*21

3:12:44:583 Nachm. 03/28/17 - $GPGSV,3,1,12,01,05,018,16,10,17,296,27,12,43,232,15,17,40,067,16*7A

3:12:44:584 Nachm. 03/28/17 - $GPGSV,3,2,12,19,45,098,14,24,73,286,29,32,07,320,18,13,19,160,*70

3:12:44:593 Nachm. 03/28/17 - $GPGSV,3,3,12,15,42,192,,18,13,268,,25,03,237,,28,07,056,*79

3:12:44:594 Nachm. 03/28/17 - $GLGSV,3,1,09,74,37,284,27,82,34,049,7,73,68,037,25,65,16,337,30*5C

3:12:44:596 Nachm. 03/28/17 - $GLGSV,3,2,09,81,04,007,30,72,40,286,23,80,23,078,,83,32,116,*62

3:12:44:597 Nachm. 03/28/17 - $GLGSV,3,3,09,71,26,224,*5A

3:12:44:599 Nachm. 03/28/17 - $GPGGA,131240.0,5208.345897,N,01138.677898,E,1,05,1.2,66.0,M,45.0,M,,*61

3:12:44:610 Nachm. 03/28/17 - $GNGNS,131240.0,5208.345897,N,01138.677898,E,AA,11,1.2,66.0,45.0,,*50

3:12:44:611 Nachm. 03/28/17 - $GPVTG,94.0,T,93.6,M,0.0,N,0.0,K,A*22

3:12:44:612 Nachm. 03/28/17 - $GPRMC,131240.0,A,5208.345897,N,01138.677898,E,0.0,94.0,280317,0.4,E,A*39

3:12:44:612 Nachm. 03/28/17 - $GPGSA,A,2,10,12,17,19,24,,,,,,,,1.5,1.2,0.9*37

3:12:44:613 Nachm. 03/28/17 - $GNGSA,A,2,10,12,17,19,24,,,,,,,,1.5,1.2,0.9*29

3:12:44:613 Nachm. 03/28/17 - $GNGSA,A,2,65,72,73,74,81,82,,,,,,,1.5,1.2,0.9*21

3:12:45:581 Nachm. 03/28/17 - $GPGSV,3,1,12,01,05,018,16,10,17,296,25,12,43,232,13,17,40,067,15*7D

3:12:45:582 Nachm. 03/28/17 - $GPGSV,3,2,12,19,45,098,14,24,73,286,28,32,07,320,19,13,19,160,*70

3:12:45:584 Nachm. 03/28/17 - $GPGSV,3,3,12,15,42,192,,18,13,268,,25,03,237,,28,07,056,*79

3:12:45:584 Nachm. 03/28/17 - $GLGSV,3,1,09,74,37,284,28,82,34,049,7,73,68,037,25,65,16,337,29*5B

3:12:45:584 Nachm. 03/28/17 - $GLGSV,3,2,09,81,04,007,30,72,40,286,22,80,23,078,,83,32,116,*63

3:12:45:585 Nachm. 03/28/17 - $GLGSV,3,3,09,71,26,224,*5A

3:12:45:585 Nachm. 03/28/17 - $GPGGA,131241.0,5208.345902,N,01138.677874,E,1,05,1.2,66.0,M,45.0,M,,*6F

3:12:45:593 Nachm. 03/28/17 - $GNGNS,131241.0,5208.345902,N,01138.677874,E,AA,11,1.2,66.0,45.0,,*5E

3:12:45:593 Nachm. 03/28/17 - $GPVTG,94.0,T,93.6,M,0.0,N,0.0,K,A*22

3:12:45:593 Nachm. 03/28/17 - $GPRMC,131241.0,A,5208.345902,N,01138.677874,E,0.0,94.0,280317,0.4,E,A*37

3:12:45:594 Nachm. 03/28/17 - $GPGSA,A,2,10,12,17,19,24,,,,,,,,1.5,1.2,0.9*37

3:12:45:594 Nachm. 03/28/17 - $GNGSA,A,2,10,12,17,19,24,,,,,,,,1.5,1.2,0.9*29

3:12:45:594 Nachm. 03/28/17 - $GNGSA,A,2,65,72,73,74,81,82,,,,,,,1.5,1.2,0.9*21

3:12:46:581 Nachm. 03/28/17 - $GPGSV,3,1,12,01,05,018,16,10,17,296,25,12,43,232,13,17,40,067,15*7D

3:12:46:582 Nachm. 03/28/17 - $GPGSV,3,2,12,19,45,098,14,24,73,286,28,32,07,320,19,13,19,160,*70

3:12:46:582 Nachm. 03/28/17 - $GPGSV,3,3,12,15,42,192,,18,13,268,,25,03,237,,28,07,056,*79

3:12:46:583 Nachm. 03/28/17 - $GLGSV,3,1,09,74,37,284,26,82,34,049,7,73,68,037,22,65,16,337,29*52

3:12:46:587 Nachm. 03/28/17 - $GLGSV,3,2,09,81,04,007,30,72,40,286,19,80,23,078,,83,32,116,*6B

3:12:46:588 Nachm. 03/28/17 - $GLGSV,3,3,09,71,26,224,*5A

3:12:46:589 Nachm. 03/28/17 - $GPGGA,131242.0,5208.345918,N,01138.677895,E,1,05,1.2,66.0,M,45.0,M,,*68

3:12:46:594 Nachm. 03/28/17 - $GNGNS,131242.0,5208.345918,N,01138.677895,E,AA,11,1.2,66.0,45.0,,*59

3:12:46:598 Nachm. 03/28/17 - $GPVTG,94.0,T,93.6,M,0.0,N,0.0,K,A*22

3:12:46:598 Nachm. 03/28/17 - $GPRMC,131242.0,A,5208.345918,N,01138.677895,E,0.0,94.0,280317,0.4,E,A*30

3:12:46:599 Nachm. 03/28/17 - $GPGSA,A,2,10,12,17,19,24,,,,,,,,1.5,1.2,0.9*37

3:12:46:599 Nachm. 03/28/17 - $GNGSA,A,2,10,12,17,19,24,,,,,,,,1.5,1.2,0.9*29

3:12:46:600 Nachm. 03/28/17 - $GNGSA,A,2,65,72,73,74,81,82,,,,,,,1.5,1.2,0.9*21

3:12:47:582 Nachm. 03/28/17 - $GPGSV,3,1,12,01,05,018,16,10,17,296,24,12,43,232,13,17,40,067,14*7D

3:12:47:583 Nachm. 03/28/17 - $GPGSV,3,2,12,19,45,098,14,24,73,286,28,32,07,320,19,13,19,160,*70

3:12:47:583 Nachm. 03/28/17 - $GPGSV,3,3,12,15,42,192,,18,13,268,,25,03,237,,28,07,056,*79

3:12:47:584 Nachm. 03/28/17 - $GLGSV,3,1,09,74,37,284,27,82,34,049,7,73,68,037,23,65,16,337,29*52

3:12:47:584 Nachm. 03/28/17 - $GLGSV,3,2,09,81,04,007,30,72,40,286,20,80,23,078,,83,32,116,*61

3:12:47:584 Nachm. 03/28/17 - $GLGSV,3,3,09,71,26,224,*5A

3:12:47:584 Nachm. 03/28/17 - $GPGGA,131243.0,5208.345937,N,01138.677864,E,1,05,1.2,66.0,M,45.0,M,,*6A

3:12:47:588 Nachm. 03/28/17 - $GNGNS,131243.0,5208.345937,N,01138.677864,E,AA,11,1.2,66.0,45.0,,*5B

3:12:47:589 Nachm. 03/28/17 - $GPVTG,94.0,T,93.6,M,0.0,N,0.0,K,A*22

3:12:47:589 Nachm. 03/28/17 - $GPRMC,131243.0,A,5208.345937,N,01138.677864,E,0.0,94.0,280317,0.4,E,A*32

3:12:47:589 Nachm. 03/28/17 - $GPGSA,A,2,10,12,17,19,24,,,,,,,,1.5,1.2,0.9*37

3:12:47:589 Nachm. 03/28/17 - $GNGSA,A,2,10,12,17,19,24,,,,,,,,1.5,1.2,0.9*29

3:12:47:590 Nachm. 03/28/17 - $GNGSA,A,2,65,72,73,74,81,82,,,,,,,1.5,1.2,0.9*21

3:12:48:581 Nachm. 03/28/17 - $GPGSV,3,1,12,01,05,018,16,10,17,296,24,12,43,232,13,17,40,067,14*7D

3:12:48:582 Nachm. 03/28/17 - $GPGSV,3,2,12,19,45,098,14,24,73,286,28,32,07,320,16,13,19,160,*7F

3:12:48:582 Nachm. 03/28/17 - $GPGSV,3,3,12,15,42,192,,18,13,268,,25,03,237,,28,07,056,*79

3:12:48:584 Nachm. 03/28/17 - $GLGSV,3,1,09,74,37,284,27,82,34,049,7,73,68,037,22,65,16,337,29*53

3:12:48:584 Nachm. 03/28/17 - $GLGSV,3,2,09,81,04,007,30,72,40,286,21,80,23,078,,83,32,116,*60

3:12:48:584 Nachm. 03/28/17 - $GLGSV,3,3,09,71,26,224,*5A

3:12:48:584 Nachm. 03/28/17 - $GPGGA,131244.0,5208.345927,N,01138.677863,E,1,05,1.2,66.0,M,45.0,M,,*6B

3:12:48:587 Nachm. 03/28/17 - $GNGNS,131244.0,5208.345927,N,01138.677863,E,AA,10,1.2,66.0,45.0,,*5B

3:12:48:588 Nachm. 03/28/17 - $GPVTG,94.0,T,93.6,M,0.0,N,0.0,K,A*22

3:12:48:589 Nachm. 03/28/17 - $GPRMC,131244.0,A,5208.345927,N,01138.677863,E,0.0,94.0,280317,0.4,E,A*33

3:12:48:589 Nachm. 03/28/17 - $GPGSA,A,2,10,12,17,19,24,,,,,,,,1.5,1.2,0.9*37

3:12:48:589 Nachm. 03/28/17 - $GNGSA,A,2,10,12,17,19,24,,,,,,,,1.5,1.2,0.9*29

3:12:48:590 Nachm. 03/28/17 - $GNGSA,A,2,65,72,73,74,81,,,,,,,,1.5,1.2,0.9*2B

3:12:49:582 Nachm. 03/28/17 - $GPGSV,3,1,12,01,05,018,16,10,17,296,24,12,43,232,15,17,40,067,13*7C

3:12:49:583 Nachm. 03/28/17 - $GPGSV,3,2,12,19,45,098,14,24,73,286,28,32,07,320,18,13,19,160,*71

3:12:49:584 Nachm. 03/28/17 - $GPGSV,3,3,12,15,42,192,,18,13,268,,25,03,237,,28,07,056,*79

3:12:49:586 Nachm. 03/28/17 - $GLGSV,3,1,09,74,37,284,28,82,34,049,7,73,68,037,24,65,16,337,28*5B

3:12:49:586 Nachm. 03/28/17 - $GLGSV,3,2,09,81,04,007,30,72,40,286,21,80,23,078,,83,32,116,*60

3:12:49:586 Nachm. 03/28/17 - $GLGSV,3,3,09,71,26,224,*5A

3:12:49:586 Nachm. 03/28/17 - $GPGGA,131245.0,5208.345958,N,01138.677850,E,1,05,1.2,66.0,M,45.0,M,,*62

3:12:49:590 Nachm. 03/28/17 - $GNGNS,131245.0,5208.345958,N,01138.677850,E,AA,10,1.2,66.0,45.0,,*52

3:12:49:594 Nachm. 03/28/17 - $GPVTG,94.0,T,93.6,M,0.0,N,0.0,K,A*22

3:12:49:595 Nachm. 03/28/17 - $GPRMC,131245.0,A,5208.345958,N,01138.677850,E,0.0,94.0,280317,0.4,E,A*3A

3:12:49:595 Nachm. 03/28/17 - $GPGSA,A,2,10,12,17,19,24,,,,,,,,1.5,1.2,0.9*37

3:12:49:596 Nachm. 03/28/17 - $GNGSA,A,2,10,12,17,19,24,,,,,,,,1.5,1.2,0.9*29

3:12:49:596 Nachm. 03/28/17 - $GNGSA,A,2,65,72,73,74,81,,,,,,,,1.5,1.2,0.9*2B

3:12:50:582 Nachm. 03/28/17 - $GPGSV,3,1,12,01,05,018,16,10,17,296,24,12,43,232,15,17,40,067,13*7C

3:12:50:583 Nachm. 03/28/17 - $GPGSV,3,2,12,19,45,098,14,24,73,286,26,32,07,320,20,13,19,160,*74

3:12:50:584 Nachm. 03/28/17 - $GPGSV,3,3,12,15,42,192,,18,13,268,,25,03,237,,28,07,056,*79

3:12:50:589 Nachm. 03/28/17 - $GLGSV,3,1,09,74,37,284,27,82,34,049,7,73,68,037,22,65,16,337,28*52

3:12:50:590 Nachm. 03/28/17 - $GLGSV,3,2,09,81,04,007,29,72,40,286,22,80,23,078,,83,32,116,*6B

3:12:50:591 Nachm. 03/28/17 - $GLGSV,3,3,09,71,26,224,*5A

3:12:50:591 Nachm. 03/28/17 - $GPGGA,131246.0,5208.345985,N,01138.677800,E,1,05,1.2,66.1,M,45.0,M,,*65

3:12:50:592 Nachm. 03/28/17 - $GNGNS,131246.0,5208.345985,N,01138.677800,E,AA,10,1.2,66.1,45.0,,*55

3:12:50:592 Nachm. 03/28/17 - $GPVTG,94.0,T,93.6,M,0.0,N,0.0,K,A*22

3:12:50:593 Nachm. 03/28/17 - $GPRMC,131246.0,A,5208.345985,N,01138.677800,E,0.0,94.0,280317,0.4,E,A*3C

3:12:50:593 Nachm. 03/28/17 - $GPGSA,A,2,10,12,17,19,24,,,,,,,,1.5,1.2,0.9*37

3:12:50:594 Nachm. 03/28/17 - $GNGSA,A,2,10,12,17,19,24,,,,,,,,1.5,1.2,0.9*29

3:12:50:594 Nachm. 03/28/17 - $GNGSA,A,2,65,72,73,74,81,,,,,,,,1.5,1.2,0.9*2B

3:12:51:583 Nachm. 03/28/17 - $GPGSV,3,1,12,01,05,018,13,10,17,296,26,12,43,232,15,17,40,067,13*7B

3:12:51:584 Nachm. 03/28/17 - $GPGSV,3,2,12,19,45,098,14,24,73,286,25,32,07,320,23,13,19,160,*74

3:12:51:585 Nachm. 03/28/17 - $GPGSV,3,3,12,15,42,192,,18,13,268,,25,03,237,,28,07,056,*79

3:12:51:585 Nachm. 03/28/17 - $GLGSV,3,1,09,74,37,284,29,82,34,049,7,73,68,037,24,65,16,337,30*53

3:12:51:585 Nachm. 03/28/17 - $GLGSV,3,2,09,81,04,007,29,72,40,286,23,80,23,078,,83,32,116,*6A

3:12:51:585 Nachm. 03/28/17 - $GLGSV,3,3,09,71,26,224,*5A

3:12:51:585 Nachm. 03/28/17 - $GPGGA,131247.0,5208.346030,N,01138.677711,E,1,04,1.3,66.3,M,45.0,M,,*6D

3:12:51:590 Nachm. 03/28/17 - $GNGNS,131247.0,5208.346030,N,01138.677711,E,AA,09,1.3,66.3,45.0,,*54

3:12:51:590 Nachm. 03/28/17 - $GPVTG,94.0,T,93.6,M,0.0,N,0.0,K,A*22

3:12:51:591 Nachm. 03/28/17 - $GPRMC,131247.0,A,5208.346030,N,01138.677711,E,0.0,94.0,280317,0.4,E,A*36

3:12:51:592 Nachm. 03/28/17 - $GPGSA,A,2,10,12,17,24,,,,,,,,,1.6,1.3,0.9*3D

3:12:51:592 Nachm. 03/28/17 - $GNGSA,A,2,10,12,17,24,,,,,,,,,1.6,1.3,0.9*23

3:12:51:593 Nachm. 03/28/17 - $GNGSA,A,2,65,72,73,74,81,,,,,,,,1.6,1.3,0.9*29

3:12:52:587 Nachm. 03/28/17 - $GPGSV,3,1,12,01,05,018,13,10,17,296,28,12,43,232,15,15,42,192,14*79

3:12:52:587 Nachm. 03/28/17 - $GPGSV,3,2,12,17,40,067,13,19,45,098,14,24,73,286,26,32,07,320,29*71

3:12:52:588 Nachm. 03/28/17 - $GPGSV,3,3,12,13,19,160,,18,13,268,,25,03,237,,28,07,056,*7C

3:12:52:592 Nachm. 03/28/17 - $GLGSV,3,1,09,74,37,284,27,82,34,049,7,73,68,037,26,65,16,337,26*58

3:12:52:594 Nachm. 03/28/17 - $GLGSV,3,2,09,81,04,007,27,72,40,286,27,80,23,078,,83,32,116,*60

3:12:52:596 Nachm. 03/28/17 - $GLGSV,3,3,09,71,26,224,*5A

3:12:52:598 Nachm. 03/28/17 - $GPGGA,131248.0,5208.346030,N,01138.677724,E,1,05,1.1,66.3,M,45.0,M,,*67

3:12:52:599 Nachm. 03/28/17 - $GNGNS,131248.0,5208.346030,N,01138.677724,E,AA,10,1.1,66.3,45.0,,*57

3:12:52:604 Nachm. 03/28/17 - $GPVTG,94.0,T,93.6,M,0.0,N,0.0,K,A*22

3:12:52:605 Nachm. 03/28/17 - $GPRMC,131248.0,A,5208.346030,N,01138.677724,E,0.0,94.0,280317,0.4,E,A*3F

3:12:52:606 Nachm. 03/28/17 - $GPGSA,A,2,10,12,15,17,24,,,,,,,,1.4,1.1,0.9*39

3:12:52:606 Nachm. 03/28/17 - $GNGSA,A,2,10,12,15,17,24,,,,,,,,1.4,1.1,0.9*27

3:12:52:613 Nachm. 03/28/17 - $GNGSA,A,2,65,72,73,74,81,,,,,,,,1.4,1.1,0.9*29

3:12:53:584 Nachm. 03/28/17 - $GPGSV,3,1,12,01,05,018,16,10,17,296,18,12,43,232,15,15,42,192,15*7E

3:12:53:586 Nachm. 03/28/17 - $GPGSV,3,2,12,17,40,067,13,19,45,098,14,24,73,286,24,32,07,320,30*7B

3:12:53:591 Nachm. 03/28/17 - $GPGSV,3,3,12,13,19,160,,18,13,268,,25,03,237,,28,07,056,*7C

3:12:53:592 Nachm. 03/28/17 - $GLGSV,3,1,09,74,37,284,26,82,34,049,7,73,68,037,28,65,16,337,26*57

3:12:53:595 Nachm. 03/28/17 - $GLGSV,3,2,09,81,04,007,25,72,40,286,20,80,23,078,,83,32,116,*65

3:12:53:596 Nachm. 03/28/17 - $GLGSV,3,3,09,71,26,224,*5A

3:12:53:602 Nachm. 03/28/17 - $GPGGA,131249.0,5208.346035,N,01138.677728,E,1,05,1.1,66.3,M,45.0,M,,*6F

3:12:53:608 Nachm. 03/28/17 - $GNGNS,131249.0,5208.346035,N,01138.677728,E,AA,10,1.1,66.3,45.0,,*5F

3:12:53:609 Nachm. 03/28/17 - $GPVTG,94.0,T,93.6,M,0.0,N,0.0,K,A*22

3:12:53:609 Nachm. 03/28/17 - $GPRMC,131249.0,A,5208.346035,N,01138.677728,E,0.0,94.0,280317,0.4,E,A*37

3:12:53:609 Nachm. 03/28/17 - $GPGSA,A,2,10,12,15,17,24,,,,,,,,1.4,1.1,0.9*39

3:12:53:610 Nachm. 03/28/17 - $GNGSA,A,2,10,12,15,17,24,,,,,,,,1.4,1.1,0.9*27

3:12:53:610 Nachm. 03/28/17 - $GNGSA,A,2,65,72,73,74,81,,,,,,,,1.4,1.1,0.9*29


