2:52:16:587 Nachm. 03/28/17 - $GPGSV,3,1,11,01,05,025,18,10,18,305,17,12,34,227,14,13,28,158,17*7D

2:52:16:589 Nachm. 03/28/17 - $GPGSV,3,2,11,15,50,198,19,17,41,078,23,18,17,277,24,19,41,111,20*79

2:52:16:589 Nachm. 03/28/17 - $GPGSV,3,3,11,24,63,285,28,28,15,053,18,32,00,322,*4C

2:52:16:590 Nachm. 03/28/17 - $GLGSV,1,1,03,,,,15,71,36,230,13,65,09,343,*6C

2:52:16:590 Nachm. 03/28/17 - $GPGGA,125212.0,5208.411269,N,01138.470760,E,1,09,0.9,60.0,M,45.0,M,,*63

2:52:16:590 Nachm. 03/28/17 - $GNGNS,125212.0,5208.411269,N,01138.470760,E,AA,10,0.9,60.0,45.0,,*5F

2:52:16:592 Nachm. 03/28/17 - $GPVTG,132.5,T,132.1,M,0.0,N,0.0,K,A*27

2:52:16:592 Nachm. 03/28/17 - $GPRMC,125212.0,A,5208.411269,N,01138.470760,E,0.0,132.5,280317,0.4,E,A*03

2:52:16:595 Nachm. 03/28/17 - $GPGSA,A,2,10,12,13,15,17,18,19,24,28,,,,1.2,0.9,0.9*3F

2:52:16:596 Nachm. 03/28/17 - $GNGSA,A,2,10,12,13,15,17,18,19,24,28,,,,1.2,0.9,0.9*21

2:52:16:596 Nachm. 03/28/17 - $GNGSA,A,2,71,,,,,,,,,,,,1.2,0.9,0.9*28

2:52:17:588 Nachm. 03/28/17 - $GPGSV,3,1,11,01,05,025,13,10,18,305,19,12,34,227,14,13,28,158,18*77

2:52:17:589 Nachm. 03/28/17 - $GPGSV,3,2,11,15,50,198,22,17,41,078,28,18,17,277,20,19,41,111,21*7F

2:52:17:594 Nachm. 03/28/17 - $GPGSV,3,3,11,24,63,285,32,28,15,053,19,32,00,322,*46

2:52:17:596 Nachm. 03/28/17 - $GLGSV,1,1,03,,,,17,71,36,230,13,65,09,343,*6E

2:52:17:603 Nachm. 03/28/17 - $GPGGA,125213.0,5208.410645,N,01138.470779,E,1,09,0.9,59.2,M,45.0,M,,*69

2:52:17:607 Nachm. 03/28/17 - $GNGNS,125213.0,5208.410645,N,01138.470779,E,AA,10,0.9,59.2,45.0,,*55

2:52:17:609 Nachm. 03/28/17 - $GPVTG,132.5,T,132.1,M,0.0,N,0.0,K,A*27

2:52:17:610 Nachm. 03/28/17 - $GPRMC,125213.0,A,5208.410645,N,01138.470779,E,0.0,132.5,280317,0.4,E,A*01

2:52:17:611 Nachm. 03/28/17 - $GPGSA,A,2,10,12,13,15,17,18,19,24,28,,,,1.2,0.9,0.9*3F

2:52:17:614 Nachm. 03/28/17 - $GNGSA,A,2,10,12,13,15,17,18,19,24,28,,,,1.2,0.9,0.9*21

2:52:17:615 Nachm. 03/28/17 - $GNGSA,A,2,71,,,,,,,,,,,,1.2,0.9,0.9*28

2:52:18:586 Nachm. 03/28/17 - $GPGSV,3,1,11,01,05,025,13,10,18,305,19,12,34,227,14,13,28,158,20*7C

2:52:18:586 Nachm. 03/28/17 - $GPGSV,3,2,11,15,50,198,23,17,41,078,26,18,17,277,24,19,41,111,20*75

2:52:18:587 Nachm. 03/28/17 - $GPGSV,3,3,11,24,63,285,32,28,15,053,20,32,00,322,*4C

2:52:18:591 Nachm. 03/28/17 - $GLGSV,1,1,03,,,,23,71,36,230,13,65,09,343,*69

2:52:18:592 Nachm. 03/28/17 - $GPGGA,125214.0,5208.410034,N,01138.470899,E,1,09,0.9,58.6,M,45.0,M,,*6A

2:52:18:592 Nachm. 03/28/17 - $GNGNS,125214.0,5208.410034,N,01138.470899,E,AA,10,0.9,58.6,45.0,,*56

2:52:18:592 Nachm. 03/28/17 - $GPVTG,132.5,T,132.1,M,0.0,N,0.0,K,A*27

2:52:18:593 Nachm. 03/28/17 - $GPRMC,125214.0,A,5208.410034,N,01138.470899,E,0.0,132.5,280317,0.4,E,A*07

2:52:18:593 Nachm. 03/28/17 - $GPGSA,A,2,10,12,13,15,17,18,19,24,28,,,,1.2,0.9,0.9*3F

2:52:18:594 Nachm. 03/28/17 - $GNGSA,A,2,10,12,13,15,17,18,19,24,28,,,,1.2,0.9,0.9*21

2:52:18:594 Nachm. 03/28/17 - $GNGSA,A,2,71,,,,,,,,,,,,1.2,0.9,0.9*28

2:52:19:588 Nachm. 03/28/17 - $GPGSV,3,1,11,01,05,025,21,10,18,305,19,12,34,227,14,13,28,158,20*7D

2:52:19:589 Nachm. 03/28/17 - $GPGSV,3,2,11,15,50,198,20,17,41,078,24,18,17,277,28,19,41,111,18*73

2:52:19:590 Nachm. 03/28/17 - $GPGSV,3,3,11,24,63,285,31,28,15,053,18,32,00,322,*44

2:52:19:595 Nachm. 03/28/17 - $GLGSV,1,1,03,,,,23,71,36,230,13,65,09,343,*69

2:52:19:599 Nachm. 03/28/17 - $GPGGA,125215.0,5208.410042,N,01138.470890,E,1,09,0.9,58.5,M,45.0,M,,*60

2:52:19:600 Nachm. 03/28/17 - $GNGNS,125215.0,5208.410042,N,01138.470890,E,AA,10,0.9,58.5,45.0,,*5C

2:52:19:600 Nachm. 03/28/17 - $GPVTG,132.5,T,132.1,M,0.0,N,0.0,K,A*27

2:52:19:601 Nachm. 03/28/17 - $GPRMC,125215.0,A,5208.410042,N,01138.470890,E,0.0,132.5,280317,0.4,E,A*0E

2:52:19:601 Nachm. 03/28/17 - $GPGSA,A,2,10,12,13,15,17,18,19,24,28,,,,1.2,0.9,0.9*3F

2:52:19:602 Nachm. 03/28/17 - $GNGSA,A,2,10,12,13,15,17,18,19,24,28,,,,1.2,0.9,0.9*21

2:52:19:605 Nachm. 03/28/17 - $GNGSA,A,2,71,,,,,,,,,,,,1.2,0.9,0.9*28

2:52:20:588 Nachm. 03/28/17 - $GPGSV,3,1,11,01,05,025,21,10,18,305,19,12,34,227,14,13,28,158,16*78

2:52:20:588 Nachm. 03/28/17 - $GPGSV,3,2,11,15,50,198,20,17,41,078,28,18,17,277,28,19,41,111,22*76

2:52:20:589 Nachm. 03/28/17 - $GPGSV,3,3,11,24,63,285,30,28,15,053,18,32,00,322,*45

2:52:20:612 Nachm. 03/28/17 - $GLGSV,1,1,03,,,,21,71,36,230,13,65,09,343,*6B

2:52:20:613 Nachm. 03/28/17 - $GPGGA,125216.0,5208.410205,N,01138.470821,E,1,09,0.9,58.7,M,45.0,M,,*6A

2:52:20:613 Nachm. 03/28/17 - $GNGNS,125216.0,5208.410205,N,01138.470821,E,AA,10,0.9,58.7,45.0,,*56

2:52:20:618 Nachm. 03/28/17 - $GPVTG,132.5,T,132.1,M,0.0,N,0.0,K,A*27

2:52:20:620 Nachm. 03/28/17 - $GPRMC,125216.0,A,5208.410205,N,01138.470821,E,0.0,132.5,280317,0.4,E,A*06

2:52:20:621 Nachm. 03/28/17 - $GPGSA,A,2,10,12,13,15,17,18,19,24,28,,,,1.2,0.9,0.9*3F

2:52:20:622 Nachm. 03/28/17 - $GNGSA,A,2,10,12,13,15,17,18,19,24,28,,,,1.2,0.9,0.9*21

2:52:20:625 Nachm. 03/28/17 - $GNGSA,A,2,71,,,,,,,,,,,,1.2,0.9,0.9*28

2:52:21:585 Nachm. 03/28/17 - $GPGSV,3,1,11,01,05,025,19,10,18,305,19,12,34,227,14,13,28,158,17*72

2:52:21:586 Nachm. 03/28/17 - $GPGSV,3,2,11,15,50,198,16,17,41,078,28,18,17,277,28,19,41,111,21*70

2:52:21:586 Nachm. 03/28/17 - $GPGSV,3,3,11,24,63,285,29,28,15,053,18,32,00,322,*4D

2:52:21:587 Nachm. 03/28/17 - $GLGSV,1,1,03,,,,20,71,36,230,13,65,09,343,*6A

2:52:21:589 Nachm. 03/28/17 - $GPGGA,125217.0,5208.410051,N,01138.470891,E,1,09,0.9,58.5,M,45.0,M,,*61

2:52:21:589 Nachm. 03/28/17 - $GNGNS,125217.0,5208.410051,N,01138.470891,E,AA,10,0.9,58.5,45.0,,*5D

2:52:21:591 Nachm. 03/28/17 - $GPVTG,132.5,T,132.1,M,0.0,N,0.0,K,A*27

2:52:21:592 Nachm. 03/28/17 - $GPRMC,125217.0,A,5208.410051,N,01138.470891,E,0.0,132.5,280317,0.4,E,A*0F

2:52:21:596 Nachm. 03/28/17 - $GPGSA,A,2,10,12,13,15,17,18,19,24,28,,,,1.2,0.9,0.9*3F

2:52:21:596 Nachm. 03/28/17 - $GNGSA,A,2,10,12,13,15,17,18,19,24,28,,,,1.2,0.9,0.9*21

2:52:21:597 Nachm. 03/28/17 - $GNGSA,A,2,71,,,,,,,,,,,,1.2,0.9,0.9*28

2:52:22:587 Nachm. 03/28/17 - $GPGSV,3,1,11,01,05,025,20,10,18,305,19,12,34,227,14,13,28,158,19*76

2:52:22:589 Nachm. 03/28/17 - $GPGSV,3,2,11,15,50,198,19,17,41,078,28,18,17,277,27,19,41,111,23*72

2:52:22:595 Nachm. 03/28/17 - $GPGSV,3,3,11,24,63,285,29,28,15,053,16,32,00,322,*43

2:52:22:602 Nachm. 03/28/17 - $GLGSV,1,1,03,,,,21,71,36,230,13,65,09,343,*6B

2:52:22:609 Nachm. 03/28/17 - $GPGGA,125218.0,5208.410128,N,01138.470849,E,1,09,0.9,58.6,M,45.0,M,,*67

2:52:22:609 Nachm. 03/28/17 - $GNGNS,125218.0,5208.410128,N,01138.470849,E,AA,10,0.9,58.6,45.0,,*5B

2:52:22:610 Nachm. 03/28/17 - $GPVTG,132.5,T,132.1,M,0.0,N,0.0,K,A*27

2:52:22:610 Nachm. 03/28/17 - $GPRMC,125218.0,A,5208.410128,N,01138.470849,E,0.0,132.5,280317,0.4,E,A*0A

2:52:22:614 Nachm. 03/28/17 - $GPGSA,A,2,10,12,13,15,17,18,19,24,28,,,,1.2,0.9,0.9*3F

2:52:22:618 Nachm. 03/28/17 - $GNGSA,A,2,10,12,13,15,17,18,19,24,28,,,,1.2,0.9,0.9*21

2:52:22:618 Nachm. 03/28/17 - $GNGSA,A,2,71,,,,,,,,,,,,1.2,0.9,0.9*28

2:52:23:589 Nachm. 03/28/17 - $GPGSV,3,1,11,01,05,025,17,10,18,305,16,12,34,227,20,13,28,158,21*71

2:52:23:591 Nachm. 03/28/17 - $GPGSV,3,2,11,15,50,198,16,17,41,078,28,18,17,277,29,19,41,111,23*73

2:52:23:592 Nachm. 03/28/17 - $GPGSV,3,3,11,24,63,285,29,28,15,053,16,32,00,322,*43

2:52:23:595 Nachm. 03/28/17 - $GLGSV,1,1,04,,,,29,,,,18,71,36,230,13,65,09,343,*6D

2:52:23:610 Nachm. 03/28/17 - $GPGGA,125219.0,5208.410260,N,01138.470815,E,1,09,0.9,58.8,M,45.0,M,,*6E

2:52:23:613 Nachm. 03/28/17 - $GNGNS,125219.0,5208.410260,N,01138.470815,E,AA,10,0.9,58.8,45.0,,*52

2:52:23:615 Nachm. 03/28/17 - $GPVTG,132.5,T,132.1,M,0.0,N,0.0,K,A*27

2:52:23:615 Nachm. 03/28/17 - $GPRMC,125219.0,A,5208.410260,N,01138.470815,E,0.0,132.5,280317,0.4,E,A*0D

2:52:23:616 Nachm. 03/28/17 - $GPGSA,A,2,10,12,13,15,17,18,19,24,28,,,,1.2,0.9,0.9*3F

2:52:23:616 Nachm. 03/28/17 - $GNGSA,A,2,10,12,13,15,17,18,19,24,28,,,,1.2,0.9,0.9*21

2:52:23:616 Nachm. 03/28/17 - $GNGSA,A,2,71,,,,,,,,,,,,1.2,0.9,0.9*28

2:52:24:586 Nachm. 03/28/17 - $GPGSV,3,1,11,01,05,025,19,10,18,305,20,12,34,227,18,13,28,158,18*7B

2:52:24:587 Nachm. 03/28/17 - $GPGSV,3,2,11,15,50,198,18,17,41,078,29,18,17,277,29,19,41,111,24*7B

2:52:24:588 Nachm. 03/28/17 - $GPGSV,3,3,11,24,63,285,30,28,15,053,16,32,00,322,*4B

2:52:24:589 Nachm. 03/28/17 - $GLGSV,1,1,04,,,,30,,,,19,71,36,230,18,65,09,343,*6F

2:52:24:593 Nachm. 03/28/17 - $GPGGA,125220.0,5208.410356,N,01138.470881,E,1,09,0.9,58.9,M,45.0,M,,*6C

2:52:24:593 Nachm. 03/28/17 - $GNGNS,125220.0,5208.410356,N,01138.470881,E,AA,10,0.9,58.9,45.0,,*50

2:52:24:594 Nachm. 03/28/17 - $GPVTG,132.5,T,132.1,M,0.0,N,0.0,K,A*27

2:52:24:595 Nachm. 03/28/17 - $GPRMC,125220.0,A,5208.410356,N,01138.470881,E,0.0,132.5,280317,0.4,E,A*0E

2:52:24:595 Nachm. 03/28/17 - $GPGSA,A,2,10,12,13,15,17,18,19,24,28,,,,1.2,0.9,0.9*3F

2:52:24:595 Nachm. 03/28/17 - $GNGSA,A,2,10,12,13,15,17,18,19,24,28,,,,1.2,0.9,0.9*21

2:52:24:595 Nachm. 03/28/17 - $GNGSA,A,2,71,,,,,,,,,,,,1.2,0.9,0.9*28

2:52:25:588 Nachm. 03/28/17 - $GPGSV,3,1,11,01,05,025,17,10,18,305,20,12,34,227,19,13,28,158,18*74

2:52:25:589 Nachm. 03/28/17 - $GPGSV,3,2,11,15,50,198,20,17,41,078,29,18,17,277,29,19,41,111,24*70

2:52:25:589 Nachm. 03/28/17 - $GPGSV,3,3,11,24,63,285,29,28,15,053,15,32,00,322,*40

2:52:25:599 Nachm. 03/28/17 - $GLGSV,1,1,04,,,,30,,,,19,71,36,230,18,65,09,343,*6F

2:52:25:600 Nachm. 03/28/17 - $GPGGA,125221.0,5208.410359,N,01138.470829,E,1,09,0.9,59.0,M,45.0,M,,*68

2:52:25:610 Nachm. 03/28/17 - $GNGNS,125221.0,5208.410359,N,01138.470829,E,AA,10,0.9,59.0,45.0,,*54

2:52:25:610 Nachm. 03/28/17 - $GPVTG,132.5,T,132.1,M,0.0,N,0.0,K,A*27

2:52:25:611 Nachm. 03/28/17 - $GPRMC,125221.0,A,5208.410359,N,01138.470829,E,0.0,132.5,280317,0.4,E,A*02

2:52:25:611 Nachm. 03/28/17 - $GPGSA,A,2,10,12,13,15,17,18,19,24,28,,,,1.2,0.9,0.9*3F

2:52:25:612 Nachm. 03/28/17 - $GNGSA,A,2,10,12,13,15,17,18,19,24,28,,,,1.2,0.9,0.9*21

2:52:25:612 Nachm. 03/28/17 - $GNGSA,A,2,71,,,,,,,,,,,,1.2,0.9,0.9*28

2:52:26:586 Nachm. 03/28/17 - $GPGSV,3,1,11,01,05,025,17,10,18,305,21,12,34,227,20,13,28,158,20*74

2:52:26:591 Nachm. 03/28/17 - $GPGSV,3,2,11,15,50,198,21,17,41,078,29,18,17,277,28,19,41,111,24*70

2:52:26:594 Nachm. 03/28/17 - $GPGSV,3,3,11,24,63,285,30,28,15,053,15,32,00,322,*48

2:52:26:595 Nachm. 03/28/17 - $GLGSV,1,1,04,,,,30,,,,19,71,36,230,18,65,09,343,*6F

2:52:26:614 Nachm. 03/28/17 - $GPGGA,125222.0,5208.410401,N,01138.470847,E,1,09,0.9,59.1,M,45.0,M,,*68

2:52:26:616 Nachm. 03/28/17 - $GNGNS,125222.0,5208.410401,N,01138.470847,E,AA,10,0.9,59.1,45.0,,*54

2:52:26:616 Nachm. 03/28/17 - $GPVTG,132.5,T,132.1,M,0.0,N,0.0,K,A*27

2:52:26:616 Nachm. 03/28/17 - $GPRMC,125222.0,A,5208.410401,N,01138.470847,E,0.0,132.5,280317,0.4,E,A*03

2:52:26:617 Nachm. 03/28/17 - $GPGSA,A,2,10,12,13,15,17,18,19,24,28,,,,1.2,0.9,0.9*3F

2:52:26:617 Nachm. 03/28/17 - $GNGSA,A,2,10,12,13,15,17,18,19,24,28,,,,1.2,0.9,0.9*21

2:52:26:618 Nachm. 03/28/17 - $GNGSA,A,2,71,,,,,,,,,,,,1.2,0.9,0.9*28

2:52:27:586 Nachm. 03/28/17 - $GPGSV,3,1,11,01,05,025,17,10,18,305,21,12,34,227,18,13,28,158,18*74

2:52:27:586 Nachm. 03/28/17 - $GPGSV,3,2,11,15,50,198,20,17,41,078,29,18,17,277,28,19,41,111,24*71

2:52:27:587 Nachm. 03/28/17 - $GPGSV,3,3,11,24,63,285,30,28,15,053,15,32,00,322,*48

2:52:27:596 Nachm. 03/28/17 - $GLGSV,1,1,04,,,,30,,,,20,71,36,230,18,65,09,343,*65

2:52:27:597 Nachm. 03/28/17 - $GPGGA,125223.0,5208.410465,N,01138.470881,E,1,09,0.9,59.2,M,45.0,M,,*62

2:52:27:598 Nachm. 03/28/17 - $GNGNS,125223.0,5208.410465,N,01138.470881,E,AA,10,0.9,59.2,45.0,,*5E

2:52:27:598 Nachm. 03/28/17 - $GPVTG,132.5,T,132.1,M,0.0,N,0.0,K,A*27

2:52:27:599 Nachm. 03/28/17 - $GPRMC,125223.0,A,5208.410465,N,01138.470881,E,0.0,132.5,280317,0.4,E,A*0A

2:52:27:599 Nachm. 03/28/17 - $GPGSA,A,2,10,12,13,15,17,18,19,24,28,,,,1.2,0.9,0.9*3F

2:52:27:599 Nachm. 03/28/17 - $GNGSA,A,2,10,12,13,15,17,18,19,24,28,,,,1.2,0.9,0.9*21

2:52:27:600 Nachm. 03/28/17 - $GNGSA,A,2,71,,,,,,,,,,,,1.2,0.9,0.9*28

2:52:28:587 Nachm. 03/28/17 - $GPGSV,3,1,11,01,05,025,18,10,18,305,21,12,34,227,19,13,28,158,18*7A

2:52:28:588 Nachm. 03/28/17 - $GPGSV,3,2,11,15,50,198,21,17,41,078,29,18,17,277,28,19,41,111,24*70

2:52:28:597 Nachm. 03/28/17 - $GPGSV,3,3,11,24,63,285,30,28,15,053,14,32,00,322,*49

2:52:28:603 Nachm. 03/28/17 - $GLGSV,1,1,04,,,,29,,,,19,71,36,230,18,65,09,343,*67

2:52:28:603 Nachm. 03/28/17 - $GPGGA,125224.0,5208.410550,N,01138.470941,E,1,09,0.9,59.3,M,45.0,M,,*6E

2:52:28:608 Nachm. 03/28/17 - $GNGNS,125224.0,5208.410550,N,01138.470941,E,AA,10,0.9,59.3,45.0,,*52

2:52:28:609 Nachm. 03/28/17 - $GPVTG,132.5,T,132.1,M,0.0,N,0.0,K,A*27

2:52:28:609 Nachm. 03/28/17 - $GPRMC,125224.0,A,5208.410550,N,01138.470941,E,0.0,132.5,280317,0.4,E,A*07

2:52:28:611 Nachm. 03/28/17 - $GPGSA,A,2,10,12,13,15,17,18,19,24,28,,,,1.2,0.9,0.9*3F

2:52:28:612 Nachm. 03/28/17 - $GNGSA,A,2,10,12,13,15,17,18,19,24,28,,,,1.2,0.9,0.9*21

2:52:28:612 Nachm. 03/28/17 - $GNGSA,A,2,71,,,,,,,,,,,,1.2,0.9,0.9*28

2:52:29:588 Nachm. 03/28/17 - $GPGSV,3,1,11,01,05,025,20,10,18,305,21,12,34,227,19,13,28,158,18*71

2:52:29:589 Nachm. 03/28/17 - $GPGSV,3,2,11,15,50,198,22,17,41,078,29,18,17,277,28,19,41,111,24*73

2:52:29:592 Nachm. 03/28/17 - $GPGSV,3,3,11,24,63,285,30,28,15,053,14,32,00,322,*49

2:52:29:601 Nachm. 03/28/17 - $GLGSV,1,1,04,,,,29,,,,20,71,36,230,18,65,09,343,*6D

2:52:29:612 Nachm. 03/28/17 - $GPGGA,125225.0,5208.410599,N,01138.470967,E,1,09,0.9,59.4,M,45.0,M,,*69

2:52:29:612 Nachm. 03/28/17 - $GNGNS,125225.0,5208.410599,N,01138.470967,E,AA,10,0.9,59.4,45.0,,*55

2:52:29:617 Nachm. 03/28/17 - $GPVTG,132.5,T,132.1,M,0.0,N,0.0,K,A*27

2:52:29:617 Nachm. 03/28/17 - $GPRMC,125225.0,A,5208.410599,N,01138.470967,E,0.0,132.5,280317,0.4,E,A*07

2:52:29:617 Nachm. 03/28/17 - $GPGSA,A,2,10,12,13,15,17,18,19,24,28,,,,1.2,0.9,0.9*3F

2:52:29:617 Nachm. 03/28/17 - $GNGSA,A,2,10,12,13,15,17,18,19,24,28,,,,1.2,0.9,0.9*21

2:52:29:618 Nachm. 03/28/17 - $GNGSA,A,2,71,,,,,,,,,,,,1.2,0.9,0.9*28

2:52:30:587 Nachm. 03/28/17 - $GPGSV,3,1,11,01,05,025,23,10,18,305,23,12,34,227,17,13,28,158,17*71

2:52:30:587 Nachm. 03/28/17 - $GPGSV,3,2,11,15,50,198,23,17,41,078,29,18,17,277,28,19,41,111,24*72

2:52:30:591 Nachm. 03/28/17 - $GPGSV,3,3,11,24,63,285,30,28,15,053,14,32,00,322,*49

2:52:30:591 Nachm. 03/28/17 - $GLGSV,1,1,04,,,,30,,,,22,71,36,230,18,65,09,343,*67

2:52:30:592 Nachm. 03/28/17 - $GPGGA,125226.0,5208.410655,N,01138.470992,E,1,09,0.9,59.5,M,45.0,M,,*62

2:52:30:598 Nachm. 03/28/17 - $GNGNS,125226.0,5208.410655,N,01138.470992,E,AA,10,0.9,59.5,45.0,,*5E

2:52:30:598 Nachm. 03/28/17 - $GPVTG,132.5,T,132.1,M,0.0,N,0.0,K,A*27

2:52:30:598 Nachm. 03/28/17 - $GPRMC,125226.0,A,5208.410655,N,01138.470992,E,0.0,132.5,280317,0.4,E,A*0D

2:52:30:599 Nachm. 03/28/17 - $GPGSA,A,2,10,12,13,15,17,18,19,24,28,,,,1.2,0.9,0.9*3F

2:52:30:599 Nachm. 03/28/17 - $GNGSA,A,2,10,12,13,15,17,18,19,24,28,,,,1.2,0.9,0.9*21

2:52:30:599 Nachm. 03/28/17 - $GNGSA,A,2,71,,,,,,,,,,,,1.2,0.9,0.9*28

2:52:31:587 Nachm. 03/28/17 - $GPGSV,3,1,11,01,05,025,23,10,18,305,22,12,34,227,17,13,28,158,18*7F

2:52:31:593 Nachm. 03/28/17 - $GPGSV,3,2,11,15,50,198,25,17,41,078,30,18,17,277,27,19,41,111,24*73

2:52:31:593 Nachm. 03/28/17 - $GPGSV,3,3,11,24,63,285,29,28,15,053,17,32,00,322,*42

2:52:31:596 Nachm. 03/28/17 - $GLGSV,1,1,04,,,,30,,,,25,71,36,230,15,65,09,343,*6D

2:52:31:596 Nachm. 03/28/17 - $GPGGA,125227.0,5208.410657,N,01138.470984,E,1,09,0.9,59.5,M,45.0,M,,*66

2:52:31:602 Nachm. 03/28/17 - $GNGNS,125227.0,5208.410657,N,01138.470984,E,AA,10,0.9,59.5,45.0,,*5A

2:52:31:603 Nachm. 03/28/17 - $GPVTG,132.5,T,132.1,M,0.0,N,0.0,K,A*27

2:52:31:603 Nachm. 03/28/17 - $GPRMC,125227.0,A,5208.410657,N,01138.470984,E,0.0,132.5,280317,0.4,E,A*09

2:52:31:604 Nachm. 03/28/17 - $GPGSA,A,2,10,12,13,15,17,18,19,24,28,,,,1.2,0.9,0.9*3F

2:52:31:604 Nachm. 03/28/17 - $GNGSA,A,2,10,12,13,15,17,18,19,24,28,,,,1.2,0.9,0.9*21

2:52:31:605 Nachm. 03/28/17 - $GNGSA,A,2,71,,,,,,,,,,,,1.2,0.9,0.9*28

2:52:32:588 Nachm. 03/28/17 - $GPGSV,3,1,11,01,05,025,24,10,18,305,20,12,34,227,16,13,28,158,18*7B

2:52:32:593 Nachm. 03/28/17 - $GPGSV,3,2,11,15,50,198,26,17,41,078,30,18,17,277,27,19,41,111,23*77

2:52:32:595 Nachm. 03/28/17 - $GPGSV,3,3,11,24,63,285,29,28,15,053,18,32,00,322,*4D

2:52:32:601 Nachm. 03/28/17 - $GLGSV,1,1,04,,,,30,,,,22,71,36,230,15,65,09,343,*6A

2:52:32:606 Nachm. 03/28/17 - $GPGGA,125228.0,5208.410687,N,01138.470998,E,1,09,0.9,59.6,M,45.0,M,,*6A

2:52:32:607 Nachm. 03/28/17 - $GNGNS,125228.0,5208.410687,N,01138.470998,E,AA,10,0.9,59.6,45.0,,*56

2:52:32:607 Nachm. 03/28/17 - $GPVTG,132.5,T,132.1,M,0.0,N,0.0,K,A*27

2:52:32:608 Nachm. 03/28/17 - $GPRMC,125228.0,A,5208.410687,N,01138.470998,E,0.0,132.5,280317,0.4,E,A*06

2:52:32:608 Nachm. 03/28/17 - $GPGSA,A,2,10,12,13,15,17,18,19,24,28,,,,1.2,0.9,0.9*3F

2:52:32:609 Nachm. 03/28/17 - $GNGSA,A,2,10,12,13,15,17,18,19,24,28,,,,1.2,0.9,0.9*21

2:52:32:609 Nachm. 03/28/17 - $GNGSA,A,2,71,,,,,,,,,,,,1.2,0.9,0.9*28

2:52:33:586 Nachm. 03/28/17 - $GPGSV,3,1,11,01,05,025,24,10,18,305,20,12,34,227,16,13,28,158,16*75

2:52:33:588 Nachm. 03/28/17 - $GPGSV,3,2,11,15,50,198,26,17,41,078,30,18,17,277,28,19,41,111,22*79

2:52:33:589 Nachm. 03/28/17 - $GPGSV,3,3,11,24,63,285,29,28,15,053,19,32,00,322,*4C

2:52:33:589 Nachm. 03/28/17 - $GLGSV,1,1,04,,,,30,,,,23,71,36,230,15,65,09,343,*6B

2:52:33:589 Nachm. 03/28/17 - $GPGGA,125229.0,5208.410720,N,01138.471016,E,1,09,0.9,59.6,M,45.0,M,,*69

2:52:33:592 Nachm. 03/28/17 - $GNGNS,125229.0,5208.410720,N,01138.471016,E,AA,10,0.9,59.6,45.0,,*55

2:52:33:593 Nachm. 03/28/17 - $GPVTG,132.5,T,132.1,M,0.0,N,0.0,K,A*27

2:52:33:593 Nachm. 03/28/17 - $GPRMC,125229.0,A,5208.410720,N,01138.471016,E,0.0,132.5,280317,0.4,E,A*05

2:52:33:593 Nachm. 03/28/17 - $GPGSA,A,2,10,12,13,15,17,18,19,24,28,,,,1.2,0.9,0.9*3F

2:52:33:594 Nachm. 03/28/17 - $GNGSA,A,2,10,12,13,15,17,18,19,24,28,,,,1.2,0.9,0.9*21

2:52:33:594 Nachm. 03/28/17 - $GNGSA,A,2,71,,,,,,,,,,,,1.2,0.9,0.9*28

2:52:34:589 Nachm. 03/28/17 - $GPGSV,3,1,11,01,05,025,20,10,18,305,20,12,34,227,16,13,28,158,21*75

2:52:34:590 Nachm. 03/28/17 - $GPGSV,3,2,11,15,50,198,26,17,41,078,29,18,17,277,28,19,41,111,23*70

2:52:34:591 Nachm. 03/28/17 - $GPGSV,3,3,11,24,63,285,31,28,15,053,19,32,00,322,*45

2:52:34:599 Nachm. 03/28/17 - $GLGSV,1,1,04,,,,29,,,,22,71,36,230,15,65,09,343,*62

2:52:34:601 Nachm. 03/28/17 - $GPGGA,125230.0,5208.410731,N,01138.471024,E,1,09,0.9,59.6,M,45.0,M,,*60

2:52:34:602 Nachm. 03/28/17 - $GNGNS,125230.0,5208.410731,N,01138.471024,E,AA,10,0.9,59.6,45.0,,*5C

2:52:34:603 Nachm. 03/28/17 - $GPVTG,132.5,T,132.1,M,0.0,N,0.0,K,A*27

2:52:34:608 Nachm. 03/28/17 - $GPRMC,125230.0,A,5208.410731,N,01138.471024,E,0.0,132.5,280317,0.4,E,A*0C

2:52:34:608 Nachm. 03/28/17 - $GPGSA,A,2,10,12,13,15,17,18,19,24,28,,,,1.2,0.9,0.9*3F

2:52:34:615 Nachm. 03/28/17 - $GNGSA,A,2,10,12,13,15,17,18,19,24,28,,,,1.2,0.9,0.9*21

2:52:34:616 Nachm. 03/28/17 - $GNGSA,A,2,71,,,,,,,,,,,,1.2,0.9,0.9*28

2:52:35:592 Nachm. 03/28/17 - $GPGSV,3,1,11,01,05,025,24,10,18,305,20,12,34,227,16,13,28,158,18*7B

2:52:35:593 Nachm. 03/28/17 - $GPGSV,3,2,11,15,50,198,27,17,41,078,26,18,17,277,23,19,41,111,22*74

2:52:35:595 Nachm. 03/28/17 - $GPGSV,3,3,11,24,63,285,33,28,15,053,19,32,00,322,*47

2:52:35:596 Nachm. 03/28/17 - $GLGSV,1,1,04,,,,27,,,,25,71,36,230,15,65,09,343,*6B

2:52:35:604 Nachm. 03/28/17 - $GPGGA,125231.0,5208.410749,N,01138.471029,E,1,09,0.9,59.6,M,45.0,M,,*63

2:52:35:615 Nachm. 03/28/17 - $GNGNS,125231.0,5208.410749,N,01138.471029,E,AA,10,0.9,59.6,45.0,,*5F

2:52:35:624 Nachm. 03/28/17 - $GPVTG,132.5,T,132.1,M,0.0,N,0.0,K,A*27

2:52:35:628 Nachm. 03/28/17 - $GPRMC,125231.0,A,5208.410749,N,01138.471029,E,0.0,132.5,280317,0.4,E,A*0F

2:52:35:628 Nachm. 03/28/17 - $GPGSA,A,2,10,12,13,15,17,18,19,24,28,,,,1.2,0.9,0.9*3F

2:52:35:629 Nachm. 03/28/17 - $GNGSA,A,2,10,12,13,15,17,18,19,24,28,,,,1.2,0.9,0.9*21

2:52:35:629 Nachm. 03/28/17 - $GNGSA,A,2,71,,,,,,,,,,,,1.2,0.9,0.9*28

2:52:36:585 Nachm. 03/28/17 - $GPGSV,3,1,11,01,05,025,22,10,18,305,19,12,34,227,16,13,28,158,18*77

2:52:36:587 Nachm. 03/28/17 - $GPGSV,3,2,11,15,50,198,24,17,41,078,26,18,17,277,25,19,41,111,24*77

2:52:36:588 Nachm. 03/28/17 - $GPGSV,3,3,11,24,63,285,33,28,15,053,19,32,00,322,*47

2:52:36:589 Nachm. 03/28/17 - $GLGSV,1,1,04,,,,24,,,,26,71,36,230,15,65,09,343,*6B

2:52:36:589 Nachm. 03/28/17 - $GPGGA,125232.0,5208.410757,N,01138.471033,E,1,09,0.9,59.7,M,45.0,M,,*65

2:52:36:589 Nachm. 03/28/17 - $GNGNS,125232.0,5208.410757,N,01138.471033,E,AA,10,0.9,59.7,45.0,,*59

2:52:36:591 Nachm. 03/28/17 - $GPVTG,132.5,T,132.1,M,0.0,N,0.0,K,A*27

2:52:36:591 Nachm. 03/28/17 - $GPRMC,125232.0,A,5208.410757,N,01138.471033,E,0.0,132.5,280317,0.4,E,A*08

2:52:36:592 Nachm. 03/28/17 - $GPGSA,A,2,10,12,13,15,17,18,19,24,28,,,,1.2,0.9,0.9*3F

2:52:36:592 Nachm. 03/28/17 - $GNGSA,A,2,10,12,13,15,17,18,19,24,28,,,,1.2,0.9,0.9*21

2:52:36:592 Nachm. 03/28/17 - $GNGSA,A,2,71,,,,,,,,,,,,1.2,0.9,0.9*28

2:52:37:586 Nachm. 03/28/17 - $GPGSV,3,1,11,01,05,025,19,10,18,305,23,12,34,227,16,13,28,158,18*76

2:52:37:587 Nachm. 03/28/17 - $GPGSV,3,2,11,15,50,198,21,17,41,078,26,18,17,277,25,19,41,111,24*72

2:52:37:588 Nachm. 03/28/17 - $GPGSV,3,3,11,24,63,285,33,28,15,053,14,32,00,322,*4A

2:52:37:589 Nachm. 03/28/17 - $GLGSV,1,1,04,,,,21,,,,25,71,36,230,15,65,09,343,*6D

2:52:37:590 Nachm. 03/28/17 - $GPGGA,125233.0,5208.410758,N,01138.471027,E,1,09,0.9,59.7,M,45.0,M,,*6E

2:52:37:590 Nachm. 03/28/17 - $GNGNS,125233.0,5208.410758,N,01138.471027,E,AA,10,0.9,59.7,45.0,,*52

2:52:37:590 Nachm. 03/28/17 - $GPVTG,132.5,T,132.1,M,0.0,N,0.0,K,A*27

2:52:37:591 Nachm. 03/28/17 - $GPRMC,125233.0,A,5208.410758,N,01138.471027,E,0.0,132.5,280317,0.4,E,A*03

2:52:37:595 Nachm. 03/28/17 - $GPGSA,A,2,10,12,13,15,17,18,19,24,28,,,,1.2,0.9,0.9*3F

2:52:37:595 Nachm. 03/28/17 - $GNGSA,A,2,10,12,13,15,17,18,19,24,28,,,,1.2,0.9,0.9*21

2:52:37:595 Nachm. 03/28/17 - $GNGSA,A,2,71,,,,,,,,,,,,1.2,0.9,0.9*28

2:52:38:591 Nachm. 03/28/17 - $GPGSV,3,1,11,01,05,025,19,10,18,305,21,12,34,227,16,13,28,158,15*79

2:52:38:595 Nachm. 03/28/17 - $GPGSV,3,2,11,15,50,198,25,17,41,078,27,18,17,277,26,19,41,111,24*74

2:52:38:598 Nachm. 03/28/17 - $GPGSV,3,3,11,24,63,285,33,28,15,053,19,32,00,322,*47

2:52:38:618 Nachm. 03/28/17 - $GLGSV,1,1,04,,,,25,,,,23,71,36,230,12,65,09,343,*68

2:52:38:619 Nachm. 03/28/17 - $GPGGA,125234.0,5208.410764,N,01138.471019,E,1,09,0.9,59.7,M,45.0,M,,*6B

2:52:38:619 Nachm. 03/28/17 - $GNGNS,125234.0,5208.410764,N,01138.471019,E,AA,10,0.9,59.7,45.0,,*57

2:52:38:620 Nachm. 03/28/17 - $GPVTG,132.5,T,132.1,M,0.0,N,0.0,K,A*27

2:52:38:620 Nachm. 03/28/17 - $GPRMC,125234.0,A,5208.410764,N,01138.471019,E,0.0,132.5,280317,0.4,E,A*06

2:52:38:620 Nachm. 03/28/17 - $GPGSA,A,2,10,12,13,15,17,18,19,24,28,,,,1.2,0.9,0.9*3F

2:52:38:620 Nachm. 03/28/17 - $GNGSA,A,2,10,12,13,15,17,18,19,24,28,,,,1.2,0.9,0.9*21

2:52:38:621 Nachm. 03/28/17 - $GNGSA,A,2,71,,,,,,,,,,,,1.2,0.9,0.9*28

2:52:39:586 Nachm. 03/28/17 - $GPGSV,3,1,11,01,05,025,15,10,18,305,21,12,34,227,16,13,28,158,17*77

2:52:39:589 Nachm. 03/28/17 - $GPGSV,3,2,11,15,50,198,23,17,41,078,26,18,17,277,26,19,41,111,25*72

2:52:39:589 Nachm. 03/28/17 - $GPGSV,3,3,11,24,63,285,32,28,15,053,21,32,00,322,*4D

2:52:39:589 Nachm. 03/28/17 - $GLGSV,1,1,04,,,,22,,,,24,71,36,230,12,65,09,343,*68

2:52:39:589 Nachm. 03/28/17 - $GPGGA,125235.0,5208.410758,N,01138.471014,E,1,09,0.9,59.7,M,45.0,M,,*68

2:52:39:591 Nachm. 03/28/17 - $GNGNS,125235.0,5208.410758,N,01138.471014,E,AA,10,0.9,59.7,45.0,,*54

2:52:39:591 Nachm. 03/28/17 - $GPVTG,132.5,T,132.1,M,0.0,N,0.0,K,A*27

2:52:39:591 Nachm. 03/28/17 - $GPRMC,125235.0,A,5208.410758,N,01138.471014,E,0.0,132.5,280317,0.4,E,A*05

2:52:39:591 Nachm. 03/28/17 - $GPGSA,A,2,10,12,13,15,17,18,19,24,28,,,,1.2,0.9,0.9*3F

2:52:39:591 Nachm. 03/28/17 - $GNGSA,A,2,10,12,13,15,17,18,19,24,28,,,,1.2,0.9,0.9*21

2:52:39:592 Nachm. 03/28/17 - $GNGSA,A,2,71,,,,,,,,,,,,1.2,0.9,0.9*28

2:52:40:587 Nachm. 03/28/17 - $GPGSV,3,1,11,01,05,025,17,10,18,305,21,12,34,227,16,13,28,158,19*7B

2:52:40:587 Nachm. 03/28/17 - $GPGSV,3,2,11,15,50,198,22,17,41,078,26,18,17,277,26,19,41,111,24*72

2:52:40:587 Nachm. 03/28/17 - $GPGSV,3,3,11,24,63,285,31,28,15,053,20,32,00,322,*4F

2:52:40:587 Nachm. 03/28/17 - $GLGSV,1,1,04,,,,21,,,,24,71,36,230,12,65,09,343,*6B

2:52:40:590 Nachm. 03/28/17 - $GPGGA,125236.0,5208.410754,N,01138.471013,E,1,09,0.9,59.6,M,45.0,M,,*61

2:52:40:590 Nachm. 03/28/17 - $GNGNS,125236.0,5208.410754,N,01138.471013,E,AA,10,0.9,59.6,45.0,,*5D

2:52:40:590 Nachm. 03/28/17 - $GPVTG,132.5,T,132.1,M,0.0,N,0.0,K,A*27

2:52:40:590 Nachm. 03/28/17 - $GPRMC,125236.0,A,5208.410754,N,01138.471013,E,0.0,132.5,280317,0.4,E,A*0D

2:52:40:591 Nachm. 03/28/17 - $GPGSA,A,2,10,12,13,15,17,18,19,24,28,,,,1.2,0.9,0.9*3F

2:52:40:591 Nachm. 03/28/17 - $GNGSA,A,2,10,12,13,15,17,18,19,24,28,,,,1.2,0.9,0.9*21

2:52:40:591 Nachm. 03/28/17 - $GNGSA,A,2,71,,,,,,,,,,,,1.2,0.9,0.9*28

2:52:41:590 Nachm. 03/28/17 - $GPGSV,3,1,11,01,05,025,21,10,18,305,21,12,34,227,16,13,28,158,20*74

2:52:41:591 Nachm. 03/28/17 - $GPGSV,3,2,11,15,50,198,19,17,41,078,27,18,17,277,26,19,41,111,23*7C

2:52:41:592 Nachm. 03/28/17 - $GPGSV,3,3,11,24,63,285,31,28,15,053,22,32,00,322,*4D

2:52:41:595 Nachm. 03/28/17 - $GLGSV,1,1,04,,,,21,,,,24,71,36,230,12,65,09,343,*6B

2:52:41:599 Nachm. 03/28/17 - $GPGGA,125237.0,5208.410754,N,01138.471016,E,1,09,0.9,59.6,M,45.0,M,,*65

2:52:41:605 Nachm. 03/28/17 - $GNGNS,125237.0,5208.410754,N,01138.471016,E,AA,10,0.9,59.6,45.0,,*59

2:52:41:607 Nachm. 03/28/17 - $GPVTG,132.5,T,132.1,M,0.0,N,0.0,K,A*27

2:52:41:608 Nachm. 03/28/17 - $GPRMC,125237.0,A,5208.410754,N,01138.471016,E,0.0,132.5,280317,0.4,E,A*09

2:52:41:609 Nachm. 03/28/17 - $GPGSA,A,2,10,12,13,15,17,18,19,24,28,,,,1.2,0.9,0.9*3F

2:52:41:613 Nachm. 03/28/17 - $GNGSA,A,2,10,12,13,15,17,18,19,24,28,,,,1.2,0.9,0.9*21

2:52:41:613 Nachm. 03/28/17 - $GNGSA,A,2,71,,,,,,,,,,,,1.2,0.9,0.9*28

2:52:42:586 Nachm. 03/28/17 - $GPGSV,3,1,11,01,05,025,20,10,18,305,21,12,34,227,16,13,28,158,19*7F

2:52:42:587 Nachm. 03/28/17 - $GPGSV,3,2,11,15,50,198,18,17,41,078,26,18,17,277,25,19,41,111,24*78

2:52:42:587 Nachm. 03/28/17 - $GPGSV,3,3,11,24,63,285,31,28,15,053,21,32,00,322,*4E

2:52:42:591 Nachm. 03/28/17 - $GLGSV,1,1,04,,,,20,,,,24,71,36,230,12,65,09,343,*6A

2:52:42:592 Nachm. 03/28/17 - $GPGGA,125238.0,5208.410749,N,01138.471006,E,1,09,0.9,59.6,M,45.0,M,,*67

2:52:42:592 Nachm. 03/28/17 - $GNGNS,125238.0,5208.410749,N,01138.471006,E,AA,10,0.9,59.6,45.0,,*5B

2:52:42:593 Nachm. 03/28/17 - $GPVTG,132.5,T,132.1,M,0.0,N,0.0,K,A*27

2:52:42:593 Nachm. 03/28/17 - $GPRMC,125238.0,A,5208.410749,N,01138.471006,E,0.0,132.5,280317,0.4,E,A*0B

2:52:42:596 Nachm. 03/28/17 - $GPGSA,A,2,10,12,13,15,17,18,19,24,28,,,,1.2,0.9,0.9*3F

2:52:42:599 Nachm. 03/28/17 - $GNGSA,A,2,10,12,13,15,17,18,19,24,28,,,,1.2,0.9,0.9*21

2:52:42:601 Nachm. 03/28/17 - $GNGSA,A,2,71,,,,,,,,,,,,1.2,0.9,0.9*28

2:52:43:586 Nachm. 03/28/17 - $GPGSV,3,1,11,01,05,025,21,10,18,305,21,12,34,227,14,13,28,158,20*76

2:52:43:588 Nachm. 03/28/17 - $GPGSV,3,2,11,15,50,198,18,17,41,078,27,18,17,277,26,19,41,111,24*7A

2:52:43:588 Nachm. 03/28/17 - $GPGSV,3,3,11,24,63,285,32,28,15,053,21,32,00,322,*4D

2:52:43:588 Nachm. 03/28/17 - $GLGSV,1,1,04,,,,19,82,35,060,25,71,36,230,12,65,09,343,*5B

2:52:43:589 Nachm. 03/28/17 - $GPGGA,125239.0,5208.410772,N,01138.471073,E,1,09,0.8,59.6,M,45.0,M,,*6D

2:52:43:592 Nachm. 03/28/17 - $GNGNS,125239.0,5208.410772,N,01138.471073,E,AA,11,0.8,59.6,45.0,,*50

2:52:43:597 Nachm. 03/28/17 - $GPVTG,132.5,T,132.1,M,0.0,N,0.0,K,A*27

2:52:43:598 Nachm. 03/28/17 - $GPRMC,125239.0,A,5208.410772,N,01138.471073,E,0.0,132.5,280317,0.4,E,A*00

2:52:43:599 Nachm. 03/28/17 - $GPGSA,A,2,10,12,13,15,17,18,19,24,28,,,,1.2,0.8,0.9*3E

2:52:43:599 Nachm. 03/28/17 - $GNGSA,A,2,10,12,13,15,17,18,19,24,28,,,,1.2,0.8,0.9*20

2:52:43:600 Nachm. 03/28/17 - $GNGSA,A,2,71,82,,,,,,,,,,,1.2,0.8,0.9*23

2:52:44:586 Nachm. 03/28/17 - $GPGSV,3,1,11,01,05,025,20,10,18,305,20,12,34,227,14,13,28,158,19*7C

2:52:44:587 Nachm. 03/28/17 - $GPGSV,3,2,11,15,50,198,15,17,41,078,27,18,17,277,25,19,41,111,24*74

2:52:44:587 Nachm. 03/28/17 - $GPGSV,3,3,11,24,63,285,31,28,15,053,21,32,00,322,*4E

2:52:44:596 Nachm. 03/28/17 - $GLGSV,1,1,04,,,,20,82,35,060,25,71,36,230,12,65,09,343,*51

2:52:44:600 Nachm. 03/28/17 - $GPGGA,125240.0,5208.410762,N,01138.471041,E,1,09,0.8,59.6,M,45.0,M,,*63

2:52:44:600 Nachm. 03/28/17 - $GNGNS,125240.0,5208.410762,N,01138.471041,E,AA,11,0.8,59.6,45.0,,*5E

2:52:44:600 Nachm. 03/28/17 - $GPVTG,132.5,T,132.1,M,0.0,N,0.0,K,A*27

2:52:44:601 Nachm. 03/28/17 - $GPRMC,125240.0,A,5208.410762,N,01138.471041,E,0.0,132.5,280317,0.4,E,A*0E

2:52:44:601 Nachm. 03/28/17 - $GPGSA,A,2,10,12,13,15,17,18,19,24,28,,,,1.2,0.8,0.9*3E

2:52:44:607 Nachm. 03/28/17 - $GNGSA,A,2,10,12,13,15,17,18,19,24,28,,,,1.2,0.8,0.9*20

2:52:44:607 Nachm. 03/28/17 - $GNGSA,A,2,71,82,,,,,,,,,,,1.2,0.8,0.9*23

2:52:45:585 Nachm. 03/28/17 - $GPGSV,3,1,11,01,05,025,21,10,18,305,22,12,34,227,16,13,28,158,19*7D

2:52:45:586 Nachm. 03/28/17 - $GPGSV,3,2,11,15,50,198,15,17,41,078,27,18,17,277,25,19,41,111,23*73

2:52:45:587 Nachm. 03/28/17 - $GPGSV,3,3,11,24,63,285,31,28,15,053,19,32,00,322,*45

2:52:45:589 Nachm. 03/28/17 - $GLGSV,1,1,04,,,,19,82,35,060,26,71,36,230,12,65,09,343,*58

2:52:45:589 Nachm. 03/28/17 - $GPGGA,125241.0,5208.410763,N,01138.471029,E,1,09,0.9,59.6,M,45.0,M,,*6C

2:52:45:589 Nachm. 03/28/17 - $GNGNS,125241.0,5208.410763,N,01138.471029,E,AA,10,0.9,59.6,45.0,,*50

2:52:45:594 Nachm. 03/28/17 - $GPVTG,132.5,T,132.1,M,0.0,N,0.0,K,A*27

2:52:45:595 Nachm. 03/28/17 - $GPRMC,125241.0,A,5208.410763,N,01138.471029,E,0.0,132.5,280317,0.4,E,A*00

2:52:45:595 Nachm. 03/28/17 - $GPGSA,A,2,10,12,13,15,17,18,19,24,28,,,,1.2,0.9,0.9*3F

2:52:45:596 Nachm. 03/28/17 - $GNGSA,A,2,10,12,13,15,17,18,19,24,28,,,,1.2,0.9,0.9*21

2:52:45:596 Nachm. 03/28/17 - $GNGSA,A,2,82,,,,,,,,,,,,1.2,0.9,0.9*24

2:52:46:586 Nachm. 03/28/17 - $GPGSV,3,1,11,01,05,025,22,10,18,305,21,12,34,227,16,13,28,158,20*77

2:52:46:587 Nachm. 03/28/17 - $GPGSV,3,2,11,15,50,198,15,17,41,078,27,18,17,277,26,19,41,111,23*70

2:52:46:587 Nachm. 03/28/17 - $GPGSV,3,3,11,24,63,285,31,28,15,053,20,32,00,322,*4F

2:52:46:595 Nachm. 03/28/17 - $GLGSV,1,1,04,,,,20,82,35,060,26,71,36,230,12,65,09,343,*52

2:52:46:595 Nachm. 03/28/17 - $GPGGA,125242.0,5208.410766,N,01138.471018,E,1,09,0.9,59.6,M,45.0,M,,*68

2:52:46:596 Nachm. 03/28/17 - $GNGNS,125242.0,5208.410766,N,01138.471018,E,AA,10,0.9,59.6,45.0,,*54

2:52:46:601 Nachm. 03/28/17 - $GPVTG,132.5,T,132.1,M,0.0,N,0.0,K,A*27

2:52:46:607 Nachm. 03/28/17 - $GPRMC,125242.0,A,5208.410766,N,01138.471018,E,0.0,132.5,280317,0.4,E,A*04

2:52:46:608 Nachm. 03/28/17 - $GPGSA,A,2,10,12,13,15,17,18,19,24,28,,,,1.2,0.9,0.9*3F

2:52:46:608 Nachm. 03/28/17 - $GNGSA,A,2,10,12,13,15,17,18,19,24,28,,,,1.2,0.9,0.9*21

2:52:46:608 Nachm. 03/28/17 - $GNGSA,A,2,82,,,,,,,,,,,,1.2,0.9,0.9*24

2:52:47:587 Nachm. 03/28/17 - $GPGSV,3,1,11,01,05,025,17,10,18,305,19,12,34,227,17,13,28,158,21*7A

2:52:47:587 Nachm. 03/28/17 - $GPGSV,3,2,11,15,50,198,16,17,41,078,27,18,17,277,25,19,41,111,23*70

2:52:47:588 Nachm. 03/28/17 - $GPGSV,3,3,11,24,63,285,31,28,15,053,21,32,00,322,*4E

2:52:47:590 Nachm. 03/28/17 - $GLGSV,1,1,04,,,,21,82,35,060,26,71,36,230,12,65,09,343,*53

2:52:47:593 Nachm. 03/28/17 - $GPGGA,125243.0,5208.410766,N,01138.471008,E,1,09,0.9,59.6,M,45.0,M,,*68

2:52:47:595 Nachm. 03/28/17 - $GNGNS,125243.0,5208.410766,N,01138.471008,E,AA,10,0.9,59.6,45.0,,*54

2:52:47:596 Nachm. 03/28/17 - $GPVTG,132.5,T,132.1,M,0.0,N,0.0,K,A*27

2:52:47:596 Nachm. 03/28/17 - $GPRMC,125243.0,A,5208.410766,N,01138.471008,E,0.0,132.5,280317,0.4,E,A*04

2:52:47:596 Nachm. 03/28/17 - $GPGSA,A,2,10,12,13,15,17,18,19,24,28,,,,1.2,0.9,0.9*3F

2:52:47:597 Nachm. 03/28/17 - $GNGSA,A,2,10,12,13,15,17,18,19,24,28,,,,1.2,0.9,0.9*21

2:52:47:597 Nachm. 03/28/17 - $GNGSA,A,2,82,,,,,,,,,,,,1.2,0.9,0.9*24


