3:05:09:586 Nachm. 03/28/17 - $GPGSV,3,1,12,01,05,021,16,12,40,230,13,13,22,158,17,15,45,194,22*7D

3:05:09:587 Nachm. 03/28/17 - $GPGSV,3,2,12,17,41,071,28,19,45,104,26,28,10,054,20,10,17,299,*71

3:05:09:587 Nachm. 03/28/17 - $GPGSV,3,3,12,18,15,271,,24,69,286,,25,00,236,,32,05,322,*71

3:05:09:592 Nachm. 03/28/17 - $GLGSV,3,1,09,82,35,053,24,73,70,029,25,80,26,075,19,65,14,338,12*66

3:05:09:592 Nachm. 03/28/17 - $GLGSV,3,2,09,83,28,119,20,81,07,009,19,71,30,226,14,74,34,279,*66

3:05:09:593 Nachm. 03/28/17 - $GLGSV,3,3,09,72,41,292,*55

3:05:09:593 Nachm. 03/28/17 - $GPGGA,130505.0,5208.368545,N,01138.433847,E,1,06,1.1,46.2,M,45.0,M,,*6B

3:05:09:593 Nachm. 03/28/17 - $GNGNS,130505.0,5208.368545,N,01138.433847,E,AA,10,1.1,46.2,45.0,,*58

3:05:09:593 Nachm. 03/28/17 - $GPVTG,339.8,T,339.4,M,0.0,N,0.0,K,A*2F

3:05:09:594 Nachm. 03/28/17 - $GPRMC,130505.0,A,5208.368545,N,01138.433847,E,0.0,339.8,280317,0.4,E,A*0F

3:05:09:594 Nachm. 03/28/17 - $GPGSA,A,2,12,13,15,17,19,28,,,,,,,1.4,1.1,0.9*3E

3:05:09:598 Nachm. 03/28/17 - $GNGSA,A,2,12,13,15,17,19,28,,,,,,,1.4,1.1,0.9*20

3:05:09:598 Nachm. 03/28/17 - $GNGSA,A,2,71,73,82,83,,,,,,,,,1.4,1.1,0.9*22

3:05:10:584 Nachm. 03/28/17 - $GPGSV,3,1,12,01,05,021,20,12,40,230,14,13,22,158,17,15,45,194,24*79

3:05:10:584 Nachm. 03/28/17 - $GPGSV,3,2,12,17,41,071,28,19,45,104,27,28,10,054,29,10,17,299,*79

3:05:10:585 Nachm. 03/28/17 - $GPGSV,3,3,12,18,15,271,,24,69,286,,25,00,236,,32,05,322,*71

3:05:10:586 Nachm. 03/28/17 - $GLGSV,3,1,09,82,35,053,29,73,70,029,25,80,26,075,17,65,14,338,12*65

3:05:10:588 Nachm. 03/28/17 - $GLGSV,3,2,09,83,28,119,22,81,07,009,15,71,30,226,14,74,34,279,*68

3:05:10:589 Nachm. 03/28/17 - $GLGSV,3,3,09,72,41,292,*55

3:05:10:590 Nachm. 03/28/17 - $GPGGA,130506.0,5208.368519,N,01138.433776,E,1,06,1.1,46.8,M,45.0,M,,*66

3:05:10:596 Nachm. 03/28/17 - $GNGNS,130506.0,5208.368519,N,01138.433776,E,AA,10,1.1,46.8,45.0,,*55

3:05:10:603 Nachm. 03/28/17 - $GPVTG,339.8,T,339.4,M,0.0,N,0.0,K,A*2F

3:05:10:603 Nachm. 03/28/17 - $GPRMC,130506.0,A,5208.368519,N,01138.433776,E,0.0,339.8,280317,0.4,E,A*08

3:05:10:604 Nachm. 03/28/17 - $GPGSA,A,2,12,13,15,17,19,28,,,,,,,1.4,1.1,0.9*3E

3:05:10:607 Nachm. 03/28/17 - $GNGSA,A,2,12,13,15,17,19,28,,,,,,,1.4,1.1,0.9*20

3:05:10:607 Nachm. 03/28/17 - $GNGSA,A,2,71,73,82,83,,,,,,,,,1.4,1.1,0.9*22

3:05:11:585 Nachm. 03/28/17 - $GPGSV,3,1,12,01,05,021,24,12,40,230,14,13,22,158,17,15,45,194,25*7C

3:05:11:585 Nachm. 03/28/17 - $GPGSV,3,2,12,17,41,071,26,19,45,104,25,24,69,286,13,28,10,054,21*7F

3:05:11:585 Nachm. 03/28/17 - $GPGSV,3,3,12,10,17,299,,18,15,271,,25,00,236,,32,05,322,*71

3:05:11:586 Nachm. 03/28/17 - $GLGSV,3,1,09,82,35,053,30,73,70,029,21,80,26,075,21,65,14,338,12*6C

3:05:11:591 Nachm. 03/28/17 - $GLGSV,3,2,09,83,28,119,25,81,07,009,20,71,30,226,14,74,34,279,*69

3:05:11:592 Nachm. 03/28/17 - $GLGSV,3,3,09,72,41,292,*55

3:05:11:593 Nachm. 03/28/17 - $GPGGA,130507.0,5208.368530,N,01138.433777,E,1,07,1.0,46.9,M,45.0,M,,*6C

3:05:11:595 Nachm. 03/28/17 - $GNGNS,130507.0,5208.368530,N,01138.433777,E,AA,11,1.0,46.9,45.0,,*5F

3:05:11:599 Nachm. 03/28/17 - $GPVTG,339.8,T,339.4,M,0.0,N,0.0,K,A*2F

3:05:11:601 Nachm. 03/28/17 - $GPRMC,130507.0,A,5208.368530,N,01138.433777,E,0.0,339.8,280317,0.4,E,A*03

3:05:11:601 Nachm. 03/28/17 - $GPGSA,A,2,12,13,15,17,19,24,28,,,,,,1.3,1.0,0.9*3E

3:05:11:601 Nachm. 03/28/17 - $GNGSA,A,2,12,13,15,17,19,24,28,,,,,,1.3,1.0,0.9*20

3:05:11:602 Nachm. 03/28/17 - $GNGSA,A,2,71,73,82,83,,,,,,,,,1.3,1.0,0.9*24

3:05:12:584 Nachm. 03/28/17 - $GPGSV,3,1,12,01,05,021,24,12,40,230,14,13,22,158,19,15,45,194,18*7C

3:05:12:587 Nachm. 03/28/17 - $GPGSV,3,2,12,17,41,071,27,19,45,104,25,24,69,286,13,28,10,054,20*7F

3:05:12:587 Nachm. 03/28/17 - $GPGSV,3,3,12,10,17,299,,18,15,271,,25,00,236,,32,05,322,*71

3:05:12:597 Nachm. 03/28/17 - $GLGSV,3,1,09,82,35,053,23,73,70,029,22,80,26,075,25,65,14,338,12*69

3:05:12:598 Nachm. 03/28/17 - $GLGSV,3,2,09,83,28,119,25,81,07,009,18,71,30,226,14,74,34,279,*62

3:05:12:598 Nachm. 03/28/17 - $GLGSV,3,3,09,72,41,292,*55

3:05:12:608 Nachm. 03/28/17 - $GPGGA,130508.0,5208.368580,N,01138.433800,E,1,07,1.0,46.9,M,45.0,M,,*67

3:05:12:609 Nachm. 03/28/17 - $GNGNS,130508.0,5208.368580,N,01138.433800,E,AA,11,1.0,46.9,45.0,,*54

3:05:12:609 Nachm. 03/28/17 - $GPVTG,339.8,T,339.4,M,0.0,N,0.0,K,A*2F

3:05:12:610 Nachm. 03/28/17 - $GPRMC,130508.0,A,5208.368580,N,01138.433800,E,0.0,339.8,280317,0.4,E,A*08

3:05:12:610 Nachm. 03/28/17 - $GPGSA,A,2,12,13,15,17,19,24,28,,,,,,1.3,1.0,0.9*3E

3:05:12:611 Nachm. 03/28/17 - $GNGSA,A,2,12,13,15,17,19,24,28,,,,,,1.3,1.0,0.9*20

3:05:12:611 Nachm. 03/28/17 - $GNGSA,A,2,71,73,82,83,,,,,,,,,1.3,1.0,0.9*24

3:05:13:586 Nachm. 03/28/17 - $GPGSV,3,1,12,01,05,021,25,12,40,230,14,13,22,158,19,15,45,194,18*7D

3:05:13:587 Nachm. 03/28/17 - $GPGSV,3,2,12,17,41,071,28,19,45,104,22,24,69,286,17,28,10,054,19*79

3:05:13:588 Nachm. 03/28/17 - $GPGSV,3,3,12,10,17,299,,18,15,271,,25,00,236,,32,05,322,*71

3:05:13:594 Nachm. 03/28/17 - $GLGSV,3,1,09,82,35,053,23,73,70,029,20,80,26,075,25,65,14,338,12*6B

3:05:13:609 Nachm. 03/28/17 - $GLGSV,3,2,09,83,28,119,18,81,07,009,19,71,30,226,14,74,34,279,*6D

3:05:13:611 Nachm. 03/28/17 - $GLGSV,3,3,09,72,41,292,*55

3:05:13:612 Nachm. 03/28/17 - $GPGGA,130509.0,5208.368564,N,01138.433817,E,1,07,1.0,46.8,M,45.0,M,,*6B

3:05:13:614 Nachm. 03/28/17 - $GNGNS,130509.0,5208.368564,N,01138.433817,E,AA,11,1.0,46.8,45.0,,*58

3:05:13:616 Nachm. 03/28/17 - $GPVTG,339.8,T,339.4,M,0.0,N,0.0,K,A*2F

3:05:13:617 Nachm. 03/28/17 - $GPRMC,130509.0,A,5208.368564,N,01138.433817,E,0.0,339.8,280317,0.4,E,A*05

3:05:13:618 Nachm. 03/28/17 - $GPGSA,A,2,12,13,15,17,19,24,28,,,,,,1.3,1.0,0.9*3E

3:05:13:619 Nachm. 03/28/17 - $GNGSA,A,2,12,13,15,17,19,24,28,,,,,,1.3,1.0,0.9*20

3:05:13:619 Nachm. 03/28/17 - $GNGSA,A,2,71,73,82,83,,,,,,,,,1.3,1.0,0.9*24

3:05:14:584 Nachm. 03/28/17 - $GPGSV,3,1,12,01,05,021,26,12,40,230,14,13,22,158,16,15,45,194,18*71

3:05:14:587 Nachm. 03/28/17 - $GPGSV,3,2,12,17,41,071,28,19,45,104,21,24,69,286,17,28,10,054,18*7B

3:05:14:588 Nachm. 03/28/17 - $GPGSV,3,3,12,10,17,299,,18,15,271,,25,00,236,,32,05,322,*71

3:05:14:612 Nachm. 03/28/17 - $GLGSV,3,1,09,82,35,053,17,73,70,029,21,80,26,075,27,65,14,338,12*6F

3:05:14:614 Nachm. 03/28/17 - $GLGSV,3,2,09,83,28,119,17,81,07,009,18,71,30,226,16,74,34,279,*61

3:05:14:614 Nachm. 03/28/17 - $GLGSV,3,3,09,72,41,292,*55

3:05:14:615 Nachm. 03/28/17 - $GPGGA,130510.0,5208.368618,N,01138.433840,E,1,07,1.0,46.8,M,45.0,M,,*69

3:05:14:616 Nachm. 03/28/17 - $GNGNS,130510.0,5208.368618,N,01138.433840,E,AA,11,1.0,46.8,45.0,,*5A

3:05:14:616 Nachm. 03/28/17 - $GPVTG,339.8,T,339.4,M,0.0,N,0.0,K,A*2F

3:05:14:617 Nachm. 03/28/17 - $GPRMC,130510.0,A,5208.368618,N,01138.433840,E,0.0,339.8,280317,0.4,E,A*07

3:05:14:617 Nachm. 03/28/17 - $GPGSA,A,2,12,13,15,17,19,24,28,,,,,,1.3,1.0,0.9*3E

3:05:14:618 Nachm. 03/28/17 - $GNGSA,A,2,12,13,15,17,19,24,28,,,,,,1.3,1.0,0.9*20

3:05:14:619 Nachm. 03/28/17 - $GNGSA,A,2,71,73,82,83,,,,,,,,,1.3,1.0,0.9*24

3:05:15:583 Nachm. 03/28/17 - $GPGSV,3,1,12,01,05,021,26,12,40,230,14,13,22,158,16,15,45,194,16*7F

3:05:15:587 Nachm. 03/28/17 - $GPGSV,3,2,12,17,41,071,27,19,45,104,21,24,69,286,17,28,10,054,19*75

3:05:15:588 Nachm. 03/28/17 - $GPGSV,3,3,12,10,17,299,,18,15,271,,25,00,236,,32,05,322,*71

3:05:15:590 Nachm. 03/28/17 - $GLGSV,3,1,09,82,35,053,22,73,70,029,23,80,26,075,25,65,14,338,12*69

3:05:15:592 Nachm. 03/28/17 - $GLGSV,3,2,09,83,28,119,23,81,07,009,21,71,30,226,18,74,34,279,*62

3:05:15:600 Nachm. 03/28/17 - $GLGSV,3,3,09,72,41,292,*55

3:05:15:605 Nachm. 03/28/17 - $GPGGA,130511.0,5208.368643,N,01138.433857,E,1,07,1.0,46.8,M,45.0,M,,*60

3:05:15:606 Nachm. 03/28/17 - $GNGNS,130511.0,5208.368643,N,01138.433857,E,AA,11,1.0,46.8,45.0,,*53

3:05:15:606 Nachm. 03/28/17 - $GPVTG,339.8,T,339.4,M,0.0,N,0.0,K,A*2F

3:05:15:606 Nachm. 03/28/17 - $GPRMC,130511.0,A,5208.368643,N,01138.433857,E,0.0,339.8,280317,0.4,E,A*0E

3:05:15:606 Nachm. 03/28/17 - $GPGSA,A,2,12,13,15,17,19,24,28,,,,,,1.3,1.0,0.9*3E

3:05:15:607 Nachm. 03/28/17 - $GNGSA,A,2,12,13,15,17,19,24,28,,,,,,1.3,1.0,0.9*20

3:05:15:607 Nachm. 03/28/17 - $GNGSA,A,2,71,73,82,83,,,,,,,,,1.3,1.0,0.9*24

3:05:16:585 Nachm. 03/28/17 - $GPGSV,3,1,12,01,05,021,25,12,40,230,14,13,22,158,16,15,45,194,23*7A

3:05:16:586 Nachm. 03/28/17 - $GPGSV,3,2,12,17,41,071,24,19,45,104,19,24,69,286,16,28,10,054,24*72

3:05:16:586 Nachm. 03/28/17 - $GPGSV,3,3,12,10,17,299,,18,15,271,,25,00,236,,32,05,322,*71

3:05:16:595 Nachm. 03/28/17 - $GLGSV,3,1,09,82,35,053,24,73,70,029,20,80,26,075,20,65,14,338,12*69

3:05:16:598 Nachm. 03/28/17 - $GLGSV,3,2,09,83,28,119,21,81,07,009,20,71,30,226,18,74,34,279,*61

3:05:16:598 Nachm. 03/28/17 - $GLGSV,3,3,09,72,41,292,*55

3:05:16:599 Nachm. 03/28/17 - $GPGGA,130512.0,5208.368634,N,01138.433867,E,1,07,1.0,46.7,M,45.0,M,,*6F

3:05:16:599 Nachm. 03/28/17 - $GNGNS,130512.0,5208.368634,N,01138.433867,E,AA,11,1.0,46.7,45.0,,*5C

3:05:16:600 Nachm. 03/28/17 - $GPVTG,339.8,T,339.4,M,0.0,N,0.0,K,A*2F

3:05:16:600 Nachm. 03/28/17 - $GPRMC,130512.0,A,5208.368634,N,01138.433867,E,0.0,339.8,280317,0.4,E,A*0E

3:05:16:600 Nachm. 03/28/17 - $GPGSA,A,2,12,13,15,17,19,24,28,,,,,,1.3,1.0,0.9*3E

3:05:16:601 Nachm. 03/28/17 - $GNGSA,A,2,12,13,15,17,19,24,28,,,,,,1.3,1.0,0.9*20

3:05:16:601 Nachm. 03/28/17 - $GNGSA,A,2,71,73,82,83,,,,,,,,,1.3,1.0,0.9*24

3:05:17:584 Nachm. 03/28/17 - $GPGSV,3,1,12,01,05,021,26,12,40,230,14,13,22,158,16,15,45,194,21*7B

3:05:17:586 Nachm. 03/28/17 - $GPGSV,3,2,12,17,41,071,24,19,45,104,26,24,69,286,16,28,10,054,20*7A

3:05:17:589 Nachm. 03/28/17 - $GPGSV,3,3,12,10,17,299,,18,15,271,,25,00,236,,32,05,322,*71

3:05:17:593 Nachm. 03/28/17 - $GLGSV,3,1,09,82,35,053,28,73,70,029,20,80,26,075,22,65,14,338,12*67

3:05:17:594 Nachm. 03/28/17 - $GLGSV,3,2,09,83,28,119,23,81,07,009,20,71,30,226,18,74,34,279,*63

3:05:17:596 Nachm. 03/28/17 - $GLGSV,3,3,09,72,41,292,*55

3:05:17:598 Nachm. 03/28/17 - $GPGGA,130513.0,5208.368637,N,01138.433867,E,1,07,1.0,46.7,M,45.0,M,,*6D

3:05:17:606 Nachm. 03/28/17 - $GNGNS,130513.0,5208.368637,N,01138.433867,E,AA,11,1.0,46.7,45.0,,*5E

3:05:17:612 Nachm. 03/28/17 - $GPVTG,339.8,T,339.4,M,0.0,N,0.0,K,A*2F

3:05:17:613 Nachm. 03/28/17 - $GPRMC,130513.0,A,5208.368637,N,01138.433867,E,0.0,339.8,280317,0.4,E,A*0C

3:05:17:613 Nachm. 03/28/17 - $GPGSA,A,2,12,13,15,17,19,24,28,,,,,,1.3,1.0,0.9*3E

3:05:17:613 Nachm. 03/28/17 - $GNGSA,A,2,12,13,15,17,19,24,28,,,,,,1.3,1.0,0.9*20

3:05:17:614 Nachm. 03/28/17 - $GNGSA,A,2,71,73,82,83,,,,,,,,,1.3,1.0,0.9*24

3:05:18:584 Nachm. 03/28/17 - $GPGSV,3,1,12,01,05,021,25,12,40,230,14,13,22,158,16,15,45,194,25*7C

3:05:18:585 Nachm. 03/28/17 - $GPGSV,3,2,12,17,41,071,27,19,45,104,19,24,69,286,19,28,10,054,24*7E

3:05:18:588 Nachm. 03/28/17 - $GPGSV,3,3,12,10,17,299,,18,15,271,,25,00,236,,32,05,322,*71

3:05:18:591 Nachm. 03/28/17 - $GLGSV,3,1,09,82,35,053,23,73,70,029,18,80,26,075,23,65,14,338,12*66

3:05:18:599 Nachm. 03/28/17 - $GLGSV,3,2,09,83,28,119,22,81,07,009,18,71,30,226,18,74,34,279,*69

3:05:18:600 Nachm. 03/28/17 - $GLGSV,3,3,09,72,41,292,*55

3:05:18:605 Nachm. 03/28/17 - $GPGGA,130514.0,5208.368618,N,01138.433894,E,1,07,1.0,46.6,M,45.0,M,,*6A

3:05:18:605 Nachm. 03/28/17 - $GNGNS,130514.0,5208.368618,N,01138.433894,E,AA,11,1.0,46.6,45.0,,*59

3:05:18:606 Nachm. 03/28/17 - $GPVTG,339.8,T,339.4,M,0.0,N,0.0,K,A*2F

3:05:18:606 Nachm. 03/28/17 - $GPRMC,130514.0,A,5208.368618,N,01138.433894,E,0.0,339.8,280317,0.4,E,A*0A

3:05:18:607 Nachm. 03/28/17 - $GPGSA,A,2,12,13,15,17,19,24,28,,,,,,1.3,1.0,0.9*3E

3:05:18:607 Nachm. 03/28/17 - $GNGSA,A,2,12,13,15,17,19,24,28,,,,,,1.3,1.0,0.9*20

3:05:18:607 Nachm. 03/28/17 - $GNGSA,A,2,71,73,82,83,,,,,,,,,1.3,1.0,0.9*24

3:05:19:585 Nachm. 03/28/17 - $GPGSV,3,1,12,01,05,021,26,12,40,230,14,13,22,158,16,15,45,194,24*7E

3:05:19:586 Nachm. 03/28/17 - $GPGSV,3,2,12,17,41,071,23,19,45,104,18,24,69,286,19,28,10,054,27*78

3:05:19:588 Nachm. 03/28/17 - $GPGSV,3,3,12,10,17,299,,18,15,271,,25,00,236,,32,05,322,*71

3:05:19:592 Nachm. 03/28/17 - $GLGSV,3,1,09,82,35,053,26,73,70,029,17,80,26,075,19,65,14,338,12*65

3:05:19:607 Nachm. 03/28/17 - $GLGSV,3,2,09,83,28,119,20,81,07,009,21,71,30,226,18,74,34,279,*61

3:05:19:608 Nachm. 03/28/17 - $GLGSV,3,3,09,72,41,292,*55

3:05:19:608 Nachm. 03/28/17 - $GPGGA,130515.0,5208.368621,N,01138.433895,E,1,06,1.1,46.6,M,45.0,M,,*60

3:05:19:609 Nachm. 03/28/17 - $GNGNS,130515.0,5208.368621,N,01138.433895,E,AA,10,1.1,46.6,45.0,,*53

3:05:19:609 Nachm. 03/28/17 - $GPVTG,339.8,T,339.4,M,0.0,N,0.0,K,A*2F

3:05:19:609 Nachm. 03/28/17 - $GPRMC,130515.0,A,5208.368621,N,01138.433895,E,0.0,339.8,280317,0.4,E,A*00

3:05:19:609 Nachm. 03/28/17 - $GPGSA,A,2,13,15,17,19,24,28,,,,,,,1.4,1.1,0.9*3B

3:05:19:609 Nachm. 03/28/17 - $GNGSA,A,2,13,15,17,19,24,28,,,,,,,1.4,1.1,0.9*25

3:05:19:611 Nachm. 03/28/17 - $GNGSA,A,2,71,73,82,83,,,,,,,,,1.4,1.1,0.9*22

3:05:20:584 Nachm. 03/28/17 - $GPGSV,3,1,12,01,05,021,26,10,17,299,13,12,40,230,14,13,22,158,13*73

3:05:20:586 Nachm. 03/28/17 - $GPGSV,3,2,12,15,45,194,23,17,41,071,23,19,45,104,18,24,69,286,17*71

3:05:20:597 Nachm. 03/28/17 - $GPGSV,3,3,12,28,10,054,25,18,15,271,,25,00,236,,32,05,322,*79

3:05:20:600 Nachm. 03/28/17 - $GLGSV,3,1,09,82,35,053,23,73,70,029,18,80,26,075,22,65,14,338,12*67

3:05:20:606 Nachm. 03/28/17 - $GLGSV,3,2,09,83,28,119,21,81,07,009,20,71,30,226,18,72,41,292,12*63

3:05:20:606 Nachm. 03/28/17 - $GLGSV,3,3,09,74,34,279,*54

3:05:20:606 Nachm. 03/28/17 - $GPGGA,130516.0,5208.368632,N,01138.433881,E,1,07,0.8,46.7,M,45.0,M,,*6C

3:05:20:608 Nachm. 03/28/17 - $GNGNS,130516.0,5208.368632,N,01138.433881,E,AA,12,0.8,46.7,45.0,,*5C

3:05:20:609 Nachm. 03/28/17 - $GPVTG,339.8,T,339.4,M,0.0,N,0.0,K,A*2F

3:05:20:610 Nachm. 03/28/17 - $GPRMC,130516.0,A,5208.368632,N,01138.433881,E,0.0,339.8,280317,0.4,E,A*04

3:05:20:610 Nachm. 03/28/17 - $GPGSA,A,2,10,13,15,17,19,24,28,,,,,,1.1,0.8,0.8*36

3:05:20:611 Nachm. 03/28/17 - $GNGSA,A,2,10,13,15,17,19,24,28,,,,,,1.1,0.8,0.8*28

3:05:20:611 Nachm. 03/28/17 - $GNGSA,A,2,71,72,73,82,83,,,,,,,,1.1,0.8,0.8*2B

3:05:21:585 Nachm. 03/28/17 - $GPGSV,3,1,12,01,05,021,23,10,17,299,13,12,40,230,14,13,22,158,20*76

3:05:21:586 Nachm. 03/28/17 - $GPGSV,3,2,12,15,45,194,21,17,41,071,27,19,45,104,25,24,69,286,17*79

3:05:21:586 Nachm. 03/28/17 - $GPGSV,3,3,12,28,10,054,22,18,15,271,,25,00,236,,32,05,322,*7E

3:05:21:589 Nachm. 03/28/17 - $GLGSV,3,1,09,82,35,053,25,73,70,029,25,80,26,075,22,65,14,338,12*6F

3:05:21:591 Nachm. 03/28/17 - $GLGSV,3,2,09,83,28,119,17,81,07,009,17,71,30,226,18,72,41,292,12*62

3:05:21:591 Nachm. 03/28/17 - $GLGSV,3,3,09,74,34,279,*54

3:05:21:591 Nachm. 03/28/17 - $GPGGA,130517.0,5208.368641,N,01138.433882,E,1,07,0.8,46.7,M,45.0,M,,*6A

3:05:21:592 Nachm. 03/28/17 - $GNGNS,130517.0,5208.368641,N,01138.433882,E,AA,12,0.8,46.7,45.0,,*5A

3:05:21:593 Nachm. 03/28/17 - $GPVTG,339.8,T,339.4,M,0.0,N,0.0,K,A*2F

3:05:21:593 Nachm. 03/28/17 - $GPRMC,130517.0,A,5208.368641,N,01138.433882,E,0.0,339.8,280317,0.4,E,A*02

3:05:21:594 Nachm. 03/28/17 - $GPGSA,A,2,10,13,15,17,19,24,28,,,,,,1.1,0.8,0.8*36

3:05:21:594 Nachm. 03/28/17 - $GNGSA,A,2,10,13,15,17,19,24,28,,,,,,1.1,0.8,0.8*28

3:05:21:597 Nachm. 03/28/17 - $GNGSA,A,2,71,72,73,82,83,,,,,,,,1.1,0.8,0.8*2B

3:05:22:585 Nachm. 03/28/17 - $GPGSV,3,1,12,01,05,021,26,10,17,299,13,12,40,230,14,13,22,158,20*73

3:05:22:586 Nachm. 03/28/17 - $GPGSV,3,2,12,15,45,194,22,17,41,071,22,19,45,104,25,24,69,286,17*7F

3:05:22:591 Nachm. 03/28/17 - $GPGSV,3,3,12,28,10,054,22,18,15,271,,25,00,236,,32,05,322,*7E

3:05:22:592 Nachm. 03/28/17 - $GLGSV,3,1,09,82,35,053,31,73,70,029,25,80,26,075,21,65,14,338,14*6F

3:05:22:604 Nachm. 03/28/17 - $GLGSV,3,2,09,83,28,119,18,81,07,009,21,71,30,226,18,72,41,292,12*68

3:05:22:608 Nachm. 03/28/17 - $GLGSV,3,3,09,74,34,279,*54

3:05:22:609 Nachm. 03/28/17 - $GPGGA,130518.0,5208.368642,N,01138.433884,E,1,07,0.9,46.7,M,45.0,M,,*61

3:05:22:611 Nachm. 03/28/17 - $GNGNS,130518.0,5208.368642,N,01138.433884,E,AA,11,0.9,46.7,45.0,,*52

3:05:22:612 Nachm. 03/28/17 - $GPVTG,339.8,T,339.4,M,0.0,N,0.0,K,A*2F

3:05:22:614 Nachm. 03/28/17 - $GPRMC,130518.0,A,5208.368642,N,01138.433884,E,0.0,339.8,280317,0.4,E,A*08

3:05:22:615 Nachm. 03/28/17 - $GPGSA,A,2,10,13,15,17,19,24,28,,,,,,1.2,0.9,0.8*34

3:05:22:618 Nachm. 03/28/17 - $GNGSA,A,2,10,13,15,17,19,24,28,,,,,,1.2,0.9,0.8*2A

3:05:22:618 Nachm. 03/28/17 - $GNGSA,A,2,72,73,82,83,,,,,,,,,1.2,0.9,0.8*2F

3:05:23:585 Nachm. 03/28/17 - $GPGSV,3,1,12,01,05,021,27,10,17,299,13,12,40,230,12,13,22,158,20*74

3:05:23:586 Nachm. 03/28/17 - $GPGSV,3,2,12,15,45,194,21,17,41,071,19,19,45,104,25,24,69,286,17*74

3:05:23:592 Nachm. 03/28/17 - $GPGSV,3,3,12,28,10,054,23,18,15,271,,25,00,236,,32,05,322,*7F

3:05:23:597 Nachm. 03/28/17 - $GLGSV,3,1,09,82,35,053,27,73,70,029,16,80,26,075,23,65,14,338,18*66

3:05:23:598 Nachm. 03/28/17 - $GLGSV,3,2,09,83,28,119,18,81,07,009,20,71,30,226,18,72,41,292,10*6B

3:05:23:599 Nachm. 03/28/17 - $GLGSV,3,3,09,74,34,279,*54

3:05:23:600 Nachm. 03/28/17 - $GPGGA,130519.0,5208.368651,N,01138.433889,E,1,08,0.8,46.7,M,45.0,M,,*61

3:05:23:606 Nachm. 03/28/17 - $GNGNS,130519.0,5208.368651,N,01138.433889,E,AA,12,0.8,46.7,45.0,,*5E

3:05:23:613 Nachm. 03/28/17 - $GPVTG,339.8,T,339.4,M,0.0,N,0.0,K,A*2F

3:05:23:613 Nachm. 03/28/17 - $GPRMC,130519.0,A,5208.368651,N,01138.433889,E,0.0,339.8,280317,0.4,E,A*06

3:05:23:621 Nachm. 03/28/17 - $GPGSA,A,2,10,12,13,15,17,19,24,28,,,,,1.1,0.8,0.8*35

3:05:23:622 Nachm. 03/28/17 - $GNGSA,A,2,10,12,13,15,17,19,24,28,,,,,1.1,0.8,0.8*2B

3:05:23:622 Nachm. 03/28/17 - $GNGSA,A,2,72,73,82,83,,,,,,,,,1.1,0.8,0.8*2D

3:05:24:585 Nachm. 03/28/17 - $GPGSV,3,1,12,01,05,021,26,10,17,299,13,12,40,230,12,13,22,158,20*75

3:05:24:588 Nachm. 03/28/17 - $GPGSV,3,2,12,15,45,194,19,17,41,071,22,19,45,104,25,24,69,286,17*77

3:05:24:589 Nachm. 03/28/17 - $GPGSV,3,3,12,28,10,054,21,18,15,271,,25,00,236,,32,05,322,*7D

3:05:24:596 Nachm. 03/28/17 - $GLGSV,3,1,09,82,35,053,23,73,70,029,16,80,26,075,24,65,14,338,19*64

3:05:24:599 Nachm. 03/28/17 - $GLGSV,3,2,09,83,28,119,18,81,07,009,21,71,30,226,12,72,41,292,10*60

3:05:24:601 Nachm. 03/28/17 - $GLGSV,3,3,09,74,34,279,*54

3:05:24:602 Nachm. 03/28/17 - $GPGGA,130520.0,5208.368654,N,01138.433893,E,1,08,0.8,46.7,M,45.0,M,,*65

3:05:24:616 Nachm. 03/28/17 - $GNGNS,130520.0,5208.368654,N,01138.433893,E,AA,13,0.8,46.7,45.0,,*5B

3:05:24:617 Nachm. 03/28/17 - $GPVTG,339.8,T,339.4,M,0.0,N,0.0,K,A*2F

3:05:24:618 Nachm. 03/28/17 - $GPRMC,130520.0,A,5208.368654,N,01138.433893,E,0.0,339.8,280317,0.4,E,A*02

3:05:24:618 Nachm. 03/28/17 - $GPGSA,A,2,10,12,13,15,17,19,24,28,,,,,1.1,0.8,0.8*35

3:05:24:619 Nachm. 03/28/17 - $GNGSA,A,2,10,12,13,15,17,19,24,28,,,,,1.1,0.8,0.8*2B

3:05:24:627 Nachm. 03/28/17 - $GNGSA,A,2,71,72,73,82,83,,,,,,,,1.1,0.8,0.8*2B

3:05:25:585 Nachm. 03/28/17 - $GPGSV,3,1,12,01,05,021,24,10,17,299,13,12,40,230,12,13,22,158,20*77

3:05:25:587 Nachm. 03/28/17 - $GPGSV,3,2,12,15,45,194,19,17,41,071,25,19,45,104,14,24,69,286,17*72

3:05:25:591 Nachm. 03/28/17 - $GPGSV,3,3,12,28,10,054,21,18,15,271,,25,00,236,,32,05,322,*7D

3:05:25:593 Nachm. 03/28/17 - $GLGSV,3,1,09,82,35,053,23,73,70,029,16,80,26,075,26,65,14,338,21*6D

3:05:25:594 Nachm. 03/28/17 - $GLGSV,3,2,09,83,28,119,18,81,07,009,22,71,30,226,12,72,41,292,10*63

3:05:25:602 Nachm. 03/28/17 - $GLGSV,3,3,09,74,34,279,*54

3:05:25:603 Nachm. 03/28/17 - $GPGGA,130521.0,5208.368654,N,01138.433893,E,1,08,0.8,46.7,M,45.0,M,,*64

3:05:25:613 Nachm. 03/28/17 - $GNGNS,130521.0,5208.368654,N,01138.433893,E,AA,13,0.8,46.7,45.0,,*5A

3:05:25:618 Nachm. 03/28/17 - $GPVTG,339.8,T,339.4,M,0.0,N,0.0,K,A*2F

3:05:25:619 Nachm. 03/28/17 - $GPRMC,130521.0,A,5208.368654,N,01138.433893,E,0.0,339.8,280317,0.4,E,A*03

3:05:25:620 Nachm. 03/28/17 - $GPGSA,A,2,10,12,13,15,17,19,24,28,,,,,1.1,0.8,0.8*35

3:05:25:621 Nachm. 03/28/17 - $GNGSA,A,2,10,12,13,15,17,19,24,28,,,,,1.1,0.8,0.8*2B

3:05:25:621 Nachm. 03/28/17 - $GNGSA,A,2,71,72,73,82,83,,,,,,,,1.1,0.8,0.8*2B

3:05:26:585 Nachm. 03/28/17 - $GPGSV,3,1,12,01,05,021,24,10,17,299,13,12,40,230,12,13,22,158,20*77

3:05:26:586 Nachm. 03/28/17 - $GPGSV,3,2,12,15,45,194,20,17,41,071,21,19,45,104,18,24,69,286,17*70

3:05:26:587 Nachm. 03/28/17 - $GPGSV,3,3,12,28,10,054,24,18,15,271,,25,00,236,,32,05,322,*78

3:05:26:599 Nachm. 03/28/17 - $GLGSV,3,1,09,82,35,053,24,73,70,029,15,80,26,075,22,65,14,338,19*66

3:05:26:600 Nachm. 03/28/17 - $GLGSV,3,2,09,83,28,119,12,81,07,009,21,71,30,226,12,72,41,292,10*6A

3:05:26:604 Nachm. 03/28/17 - $GLGSV,3,3,09,74,34,279,*54

3:05:26:606 Nachm. 03/28/17 - $GPGGA,130522.0,5208.368653,N,01138.433893,E,1,08,0.8,46.7,M,45.0,M,,*60

3:05:26:607 Nachm. 03/28/17 - $GNGNS,130522.0,5208.368653,N,01138.433893,E,AA,13,0.8,46.7,45.0,,*5E

3:05:26:607 Nachm. 03/28/17 - $GPVTG,339.8,T,339.4,M,0.0,N,0.0,K,A*2F

3:05:26:608 Nachm. 03/28/17 - $GPRMC,130522.0,A,5208.368653,N,01138.433893,E,0.0,339.8,280317,0.4,E,A*07

3:05:26:608 Nachm. 03/28/17 - $GPGSA,A,2,10,12,13,15,17,19,24,28,,,,,1.1,0.8,0.8*35

3:05:26:608 Nachm. 03/28/17 - $GNGSA,A,2,10,12,13,15,17,19,24,28,,,,,1.1,0.8,0.8*2B

3:05:26:609 Nachm. 03/28/17 - $GNGSA,A,2,71,72,73,82,83,,,,,,,,1.1,0.8,0.8*2B

3:05:27:584 Nachm. 03/28/17 - $GPGSV,3,1,12,01,05,021,22,10,17,299,13,12,40,230,12,13,22,158,20*71

3:05:27:586 Nachm. 03/28/17 - $GPGSV,3,2,12,15,45,194,23,17,41,071,19,19,45,104,18,24,69,286,17*78

3:05:27:590 Nachm. 03/28/17 - $GPGSV,3,3,12,28,10,054,26,18,15,271,,25,00,236,,32,05,322,*7A

3:05:27:591 Nachm. 03/28/17 - $GLGSV,3,1,09,82,35,053,26,73,70,029,18,80,26,075,22,65,14,338,19*69

3:05:27:591 Nachm. 03/28/17 - $GLGSV,3,2,09,83,28,119,17,81,07,009,20,71,30,226,12,72,41,292,10*6E

3:05:27:591 Nachm. 03/28/17 - $GLGSV,3,3,09,74,34,279,*54

3:05:27:591 Nachm. 03/28/17 - $GPGGA,130523.0,5208.368652,N,01138.433893,E,1,07,0.8,46.7,M,45.0,M,,*6F

3:05:27:595 Nachm. 03/28/17 - $GNGNS,130523.0,5208.368652,N,01138.433893,E,AA,12,0.8,46.7,45.0,,*5F

3:05:27:597 Nachm. 03/28/17 - $GPVTG,339.8,T,339.4,M,0.0,N,0.0,K,A*2F

3:05:27:597 Nachm. 03/28/17 - $GPRMC,130523.0,A,5208.368652,N,01138.433893,E,0.0,339.8,280317,0.4,E,A*07

3:05:27:607 Nachm. 03/28/17 - $GPGSA,A,2,10,12,13,15,17,19,28,,,,,,1.1,0.8,0.8*33

3:05:27:607 Nachm. 03/28/17 - $GNGSA,A,2,10,12,13,15,17,19,28,,,,,,1.1,0.8,0.8*2D

3:05:27:608 Nachm. 03/28/17 - $GNGSA,A,2,71,72,73,82,83,,,,,,,,1.1,0.8,0.8*2B

3:05:28:586 Nachm. 03/28/17 - $GPGSV,3,1,12,01,05,021,22,10,17,299,13,12,40,230,12,13,22,158,20*71

3:05:28:588 Nachm. 03/28/17 - $GPGSV,3,2,12,15,45,194,23,17,41,071,19,19,45,104,17,24,69,286,17*77

3:05:28:588 Nachm. 03/28/17 - $GPGSV,3,3,12,28,10,054,26,18,15,271,,25,00,236,,32,05,322,*7A

3:05:28:595 Nachm. 03/28/17 - $GLGSV,3,1,09,82,35,053,25,73,70,029,18,80,26,075,23,65,14,338,19*6B

3:05:28:599 Nachm. 03/28/17 - $GLGSV,3,2,09,83,28,119,18,81,07,009,22,71,30,226,12,72,41,292,10*63

3:05:28:601 Nachm. 03/28/17 - $GLGSV,3,3,09,74,34,279,*54

3:05:28:602 Nachm. 03/28/17 - $GPGGA,130524.0,5208.368645,N,01138.433891,E,1,06,0.9,46.7,M,45.0,M,,*6C

3:05:28:614 Nachm. 03/28/17 - $GNGNS,130524.0,5208.368645,N,01138.433891,E,AA,11,0.9,46.7,45.0,,*5E

3:05:28:617 Nachm. 03/28/17 - $GPVTG,339.8,T,339.4,M,0.0,N,0.0,K,A*2F

3:05:28:618 Nachm. 03/28/17 - $GPRMC,130524.0,A,5208.368645,N,01138.433891,E,0.0,339.8,280317,0.4,E,A*04

3:05:28:618 Nachm. 03/28/17 - $GPGSA,A,2,10,12,15,17,19,28,,,,,,,1.2,0.9,0.9*32

3:05:28:619 Nachm. 03/28/17 - $GNGSA,A,2,10,12,15,17,19,28,,,,,,,1.2,0.9,0.9*2C

3:05:28:619 Nachm. 03/28/17 - $GNGSA,A,2,71,72,73,82,83,,,,,,,,1.2,0.9,0.9*28

3:05:29:584 Nachm. 03/28/17 - $GPGSV,3,1,12,01,05,021,23,10,17,299,13,12,40,230,12,13,22,158,20*70

3:05:29:588 Nachm. 03/28/17 - $GPGSV,3,2,12,15,45,194,23,17,41,071,21,19,45,104,17,24,69,286,13*78

3:05:29:599 Nachm. 03/28/17 - $GPGSV,3,3,12,28,10,054,27,18,15,271,,25,00,236,,32,05,322,*7B

3:05:29:601 Nachm. 03/28/17 - $GLGSV,3,1,09,82,35,053,24,73,70,029,15,80,26,075,23,65,14,338,20*6D

3:05:29:611 Nachm. 03/28/17 - $GLGSV,3,2,09,83,28,119,18,81,07,009,22,71,30,226,12,72,41,292,10*63

3:05:29:612 Nachm. 03/28/17 - $GLGSV,3,3,09,74,34,279,*54

3:05:29:612 Nachm. 03/28/17 - $GPGGA,130525.0,5208.368648,N,01138.433897,E,1,07,0.9,46.7,M,45.0,M,,*67

3:05:29:612 Nachm. 03/28/17 - $GNGNS,130525.0,5208.368648,N,01138.433897,E,AA,11,0.9,46.7,45.0,,*54

3:05:29:612 Nachm. 03/28/17 - $GPVTG,339.8,T,339.4,M,0.0,N,0.0,K,A*2F

3:05:29:612 Nachm. 03/28/17 - $GPRMC,130525.0,A,5208.368648,N,01138.433897,E,0.0,339.8,280317,0.4,E,A*0E

3:05:29:613 Nachm. 03/28/17 - $GPGSA,A,2,10,12,15,17,19,24,28,,,,,,1.2,0.9,0.8*35

3:05:29:613 Nachm. 03/28/17 - $GNGSA,A,2,10,12,15,17,19,24,28,,,,,,1.2,0.9,0.8*2B

3:05:29:613 Nachm. 03/28/17 - $GNGSA,A,2,71,73,82,83,,,,,,,,,1.2,0.9,0.8*2C

3:05:30:585 Nachm. 03/28/17 - $GPGSV,3,1,12,01,05,021,23,10,17,299,13,12,40,230,12,13,22,158,20*70

3:05:30:586 Nachm. 03/28/17 - $GPGSV,3,2,12,15,45,194,22,17,41,071,19,19,45,104,17,24,69,286,13*72

3:05:30:591 Nachm. 03/28/17 - $GPGSV,3,3,12,28,10,054,26,18,15,271,,25,00,236,,32,05,322,*7A

3:05:30:594 Nachm. 03/28/17 - $GLGSV,3,1,09,82,35,053,24,73,70,029,15,80,26,075,24,65,14,338,19*60

3:05:30:598 Nachm. 03/28/17 - $GLGSV,3,2,09,83,28,119,14,81,07,009,21,71,30,226,12,72,41,292,10*6C

3:05:30:600 Nachm. 03/28/17 - $GLGSV,3,3,09,74,34,279,*54

3:05:30:603 Nachm. 03/28/17 - $GPGGA,130526.0,5208.368646,N,01138.433898,E,1,06,0.9,46.7,M,45.0,M,,*64

3:05:30:612 Nachm. 03/28/17 - $GNGNS,130526.0,5208.368646,N,01138.433898,E,AA,10,0.9,46.7,45.0,,*57

3:05:30:618 Nachm. 03/28/17 - $GPVTG,339.8,T,339.4,M,0.0,N,0.0,K,A*2F

3:05:30:619 Nachm. 03/28/17 - $GPRMC,130526.0,A,5208.368646,N,01138.433898,E,0.0,339.8,280317,0.4,E,A*0C

3:05:30:619 Nachm. 03/28/17 - $GPGSA,A,2,10,15,17,19,24,28,,,,,,,1.2,0.9,0.8*36

3:05:30:619 Nachm. 03/28/17 - $GNGSA,A,2,10,15,17,19,24,28,,,,,,,1.2,0.9,0.8*28

3:05:30:620 Nachm. 03/28/17 - $GNGSA,A,2,71,73,82,83,,,,,,,,,1.2,0.9,0.8*2C

3:05:31:586 Nachm. 03/28/17 - $GPGSV,3,1,12,01,05,021,22,10,17,299,13,12,40,230,12,13,22,158,20*71

3:05:31:588 Nachm. 03/28/17 - $GPGSV,3,2,12,15,45,194,22,17,41,071,18,19,45,104,17,24,69,286,17*77

3:05:31:589 Nachm. 03/28/17 - $GPGSV,3,3,12,28,10,054,27,18,15,271,,25,00,236,,32,05,322,*7B

3:05:31:594 Nachm. 03/28/17 - $GLGSV,3,1,09,82,35,053,23,73,70,029,15,80,26,075,23,65,14,338,18*61

3:05:31:595 Nachm. 03/28/17 - $GLGSV,3,2,09,83,28,119,17,81,07,009,23,71,30,226,12,72,41,292,10*6D

3:05:31:596 Nachm. 03/28/17 - $GLGSV,3,3,09,74,34,279,*54

3:05:31:599 Nachm. 03/28/17 - $GPGGA,130527.0,5208.368656,N,01138.433919,E,1,05,1.3,46.6,M,45.0,M,,*65

3:05:31:615 Nachm. 03/28/17 - $GNGNS,130527.0,5208.368656,N,01138.433919,E,AA,08,1.3,46.6,45.0,,*5C

3:05:31:616 Nachm. 03/28/17 - $GPVTG,339.8,T,339.4,M,0.0,N,0.0,K,A*2F

3:05:31:619 Nachm. 03/28/17 - $GPRMC,130527.0,A,5208.368656,N,01138.433919,E,0.0,339.8,280317,0.4,E,A*04

3:05:31:622 Nachm. 03/28/17 - $GPGSA,A,2,15,17,19,24,28,,,,,,,,1.6,1.3,0.9*39

3:05:31:623 Nachm. 03/28/17 - $GNGSA,A,2,15,17,19,24,28,,,,,,,,1.6,1.3,0.9*27

3:05:31:623 Nachm. 03/28/17 - $GNGSA,A,2,73,82,83,,,,,,,,,,1.6,1.3,0.9*24

3:05:32:584 Nachm. 03/28/17 - $GPGSV,3,1,12,01,05,021,23,10,17,299,13,12,40,230,14,13,22,158,20*76

3:05:32:585 Nachm. 03/28/17 - $GPGSV,3,2,12,15,45,194,23,17,41,071,20,19,45,104,15,24,69,286,17*7F

3:05:32:585 Nachm. 03/28/17 - $GPGSV,3,3,12,28,10,054,27,18,15,271,,25,00,236,,32,05,322,*7B

3:05:32:586 Nachm. 03/28/17 - $GLGSV,3,1,09,82,35,053,24,73,70,029,15,80,26,075,23,65,14,338,21*6C

3:05:32:589 Nachm. 03/28/17 - $GLGSV,3,2,09,83,28,119,19,81,07,009,23,71,30,226,12,72,41,292,10*63

3:05:32:592 Nachm. 03/28/17 - $GLGSV,3,3,09,74,34,279,*54

3:05:32:598 Nachm. 03/28/17 - $GPGGA,130528.0,5208.368675,N,01138.433942,E,1,07,1.0,46.6,M,45.0,M,,*64

3:05:32:598 Nachm. 03/28/17 - $GNGNS,130528.0,5208.368675,N,01138.433942,E,AA,10,1.0,46.6,45.0,,*56

3:05:32:599 Nachm. 03/28/17 - $GPVTG,339.8,T,339.4,M,0.0,N,0.0,K,A*2F

3:05:32:609 Nachm. 03/28/17 - $GPRMC,130528.0,A,5208.368675,N,01138.433942,E,0.0,339.8,280317,0.4,E,A*04

3:05:32:609 Nachm. 03/28/17 - $GPGSA,A,2,10,12,15,17,19,24,28,,,,,,1.3,1.0,0.8*3C

3:05:32:609 Nachm. 03/28/17 - $GNGSA,A,2,10,12,15,17,19,24,28,,,,,,1.3,1.0,0.8*22

3:05:32:610 Nachm. 03/28/17 - $GNGSA,A,2,73,82,83,,,,,,,,,,1.3,1.0,0.8*23

3:05:33:584 Nachm. 03/28/17 - $GPGSV,3,1,12,01,05,021,23,10,17,299,13,12,40,230,14,13,22,158,20*76

3:05:33:590 Nachm. 03/28/17 - $GPGSV,3,2,12,15,45,194,22,17,41,071,24,19,45,104,20,24,69,286,17*7C

3:05:33:594 Nachm. 03/28/17 - $GPGSV,3,3,12,28,10,054,26,18,15,271,,25,00,236,,32,05,322,*7A

3:05:33:595 Nachm. 03/28/17 - $GLGSV,3,1,09,82,35,053,24,73,70,029,15,80,26,075,25,65,14,338,20*6B

3:05:33:596 Nachm. 03/28/17 - $GLGSV,3,2,09,83,28,119,20,81,07,009,24,71,30,226,12,72,41,292,10*6E

3:05:33:597 Nachm. 03/28/17 - $GLGSV,3,3,09,74,34,279,*54

3:05:33:597 Nachm. 03/28/17 - $GPGGA,130529.0,5208.368667,N,01138.433945,E,1,07,0.9,46.6,M,45.0,M,,*69

3:05:33:601 Nachm. 03/28/17 - $GNGNS,130529.0,5208.368667,N,01138.433945,E,AA,11,0.9,46.6,45.0,,*5A

3:05:33:604 Nachm. 03/28/17 - $GPVTG,339.8,T,339.4,M,0.0,N,0.0,K,A*2F

3:05:33:605 Nachm. 03/28/17 - $GPRMC,130529.0,A,5208.368667,N,01138.433945,E,0.0,339.8,280317,0.4,E,A*01

3:05:33:606 Nachm. 03/28/17 - $GPGSA,A,2,10,12,15,17,19,24,28,,,,,,1.2,0.9,0.8*35

3:05:33:608 Nachm. 03/28/17 - $GNGSA,A,2,10,12,15,17,19,24,28,,,,,,1.2,0.9,0.8*2B

3:05:33:608 Nachm. 03/28/17 - $GNGSA,A,2,71,73,82,83,,,,,,,,,1.2,0.9,0.8*2C

3:05:34:585 Nachm. 03/28/17 - $GPGSV,3,1,12,01,05,021,21,10,17,299,13,12,40,230,17,13,22,158,20*77

3:05:34:586 Nachm. 03/28/17 - $GPGSV,3,2,12,15,45,194,23,17,41,071,30,19,45,104,25,24,69,286,15*7F

3:05:34:591 Nachm. 03/28/17 - $GPGSV,3,3,12,28,10,054,24,18,15,271,,25,00,236,,32,05,322,*78

3:05:34:595 Nachm. 03/28/17 - $GLGSV,3,1,09,82,35,053,19,73,70,029,17,80,26,075,24,65,14,338,20*66

3:05:34:598 Nachm. 03/28/17 - $GLGSV,3,2,09,83,28,119,19,81,07,009,25,71,30,226,12,72,41,292,10*65

3:05:34:600 Nachm. 03/28/17 - $GLGSV,3,3,09,74,34,279,*54

3:05:34:616 Nachm. 03/28/17 - $GPGGA,130530.0,5208.368704,N,01138.433969,E,1,07,0.9,46.6,M,45.0,M,,*6B

3:05:34:617 Nachm. 03/28/17 - $GNGNS,130530.0,5208.368704,N,01138.433969,E,AA,11,0.9,46.6,45.0,,*58

3:05:34:617 Nachm. 03/28/17 - $GPVTG,339.8,T,339.4,M,0.0,N,0.0,K,A*2F

3:05:34:618 Nachm. 03/28/17 - $GPRMC,130530.0,A,5208.368704,N,01138.433969,E,0.0,339.8,280317,0.4,E,A*03

3:05:34:618 Nachm. 03/28/17 - $GPGSA,A,2,10,12,15,17,19,24,28,,,,,,1.2,0.9,0.8*35

3:05:34:619 Nachm. 03/28/17 - $GNGSA,A,2,10,12,15,17,19,24,28,,,,,,1.2,0.9,0.8*2B

3:05:34:620 Nachm. 03/28/17 - $GNGSA,A,2,71,73,82,83,,,,,,,,,1.2,0.9,0.8*2C

3:05:35:584 Nachm. 03/28/17 - $GPGSV,3,1,12,01,05,021,21,10,17,299,13,12,40,230,17,13,22,158,20*77

3:05:35:585 Nachm. 03/28/17 - $GPGSV,3,2,12,15,45,194,23,17,41,071,28,19,45,104,24,24,69,286,15*77

3:05:35:586 Nachm. 03/28/17 - $GPGSV,3,3,12,28,10,054,25,18,15,271,,25,00,236,,32,05,322,*79

3:05:35:586 Nachm. 03/28/17 - $GLGSV,3,1,09,82,35,053,19,73,70,029,19,80,26,075,20,65,14,338,19*66

3:05:35:588 Nachm. 03/28/17 - $GLGSV,3,2,09,83,28,119,19,81,07,009,26,71,30,226,12,72,41,292,10*66

3:05:35:595 Nachm. 03/28/17 - $GLGSV,3,3,09,74,34,279,*54

3:05:35:599 Nachm. 03/28/17 - $GPGGA,130531.0,5208.368712,N,01138.433981,E,1,07,0.9,46.6,M,45.0,M,,*6B

3:05:35:602 Nachm. 03/28/17 - $GNGNS,130531.0,5208.368712,N,01138.433981,E,AA,11,0.9,46.6,45.0,,*58

3:05:35:603 Nachm. 03/28/17 - $GPVTG,339.8,T,339.4,M,0.0,N,0.0,K,A*2F

3:05:35:603 Nachm. 03/28/17 - $GPRMC,130531.0,A,5208.368712,N,01138.433981,E,0.0,339.8,280317,0.4,E,A*03

3:05:35:603 Nachm. 03/28/17 - $GPGSA,A,2,10,12,15,17,19,24,28,,,,,,1.2,0.9,0.8*35

3:05:35:604 Nachm. 03/28/17 - $GNGSA,A,2,10,12,15,17,19,24,28,,,,,,1.2,0.9,0.8*2B

3:05:35:604 Nachm. 03/28/17 - $GNGSA,A,2,71,73,82,83,,,,,,,,,1.2,0.9,0.8*2C

3:05:36:585 Nachm. 03/28/17 - $GPGSV,3,1,12,01,05,021,19,10,17,299,13,12,40,230,17,13,22,158,20*7C

3:05:36:587 Nachm. 03/28/17 - $GPGSV,3,2,12,15,45,194,24,17,41,071,28,19,45,104,26,24,69,286,15*72

3:05:36:589 Nachm. 03/28/17 - $GPGSV,3,3,12,28,10,054,26,18,15,271,,25,00,236,,32,05,322,*7A

3:05:36:590 Nachm. 03/28/17 - $GLGSV,3,1,09,82,35,053,19,73,70,029,19,80,26,075,21,65,14,338,19*67

3:05:36:604 Nachm. 03/28/17 - $GLGSV,3,2,09,83,28,119,19,81,07,009,26,71,30,226,12,72,41,292,10*66

3:05:36:605 Nachm. 03/28/17 - $GLGSV,3,3,09,74,34,279,*54

3:05:36:605 Nachm. 03/28/17 - $GPGGA,130532.0,5208.368720,N,01138.433994,E,1,07,0.9,46.6,M,45.0,M,,*6D

3:05:36:606 Nachm. 03/28/17 - $GNGNS,130532.0,5208.368720,N,01138.433994,E,AA,11,0.9,46.6,45.0,,*5E

3:05:36:606 Nachm. 03/28/17 - $GPVTG,339.8,T,339.4,M,0.0,N,0.0,K,A*2F

3:05:36:606 Nachm. 03/28/17 - $GPRMC,130532.0,A,5208.368720,N,01138.433994,E,0.0,339.8,280317,0.4,E,A*05

3:05:36:607 Nachm. 03/28/17 - $GPGSA,A,2,10,12,15,17,19,24,28,,,,,,1.2,0.9,0.8*35

3:05:36:607 Nachm. 03/28/17 - $GNGSA,A,2,10,12,15,17,19,24,28,,,,,,1.2,0.9,0.8*2B

3:05:36:609 Nachm. 03/28/17 - $GNGSA,A,2,71,73,82,83,,,,,,,,,1.2,0.9,0.8*2C

3:05:37:583 Nachm. 03/28/17 - $GPGSV,3,1,12,01,05,021,22,10,17,299,13,12,40,230,17,13,22,158,20*74

3:05:37:584 Nachm. 03/28/17 - $GPGSV,3,2,12,15,45,194,23,17,41,071,30,19,45,104,26,24,69,286,17*7E

3:05:37:585 Nachm. 03/28/17 - $GPGSV,3,3,12,28,10,054,25,18,15,271,,25,00,236,,32,05,322,*79

3:05:37:597 Nachm. 03/28/17 - $GLGSV,3,1,09,82,35,053,19,73,70,029,21,80,26,075,20,65,14,338,20*67

3:05:37:602 Nachm. 03/28/17 - $GLGSV,3,2,09,83,28,119,19,81,07,009,26,71,30,226,12,72,41,292,10*66

3:05:37:603 Nachm. 03/28/17 - $GLGSV,3,3,09,74,34,279,*54

3:05:37:603 Nachm. 03/28/17 - $GPGGA,130533.0,5208.368736,N,01138.433992,E,1,07,0.9,46.6,M,45.0,M,,*6D

3:05:37:603 Nachm. 03/28/17 - $GNGNS,130533.0,5208.368736,N,01138.433992,E,AA,11,0.9,46.6,45.0,,*5E

3:05:37:604 Nachm. 03/28/17 - $GPVTG,339.8,T,339.4,M,0.0,N,0.0,K,A*2F

3:05:37:604 Nachm. 03/28/17 - $GPRMC,130533.0,A,5208.368736,N,01138.433992,E,0.0,339.8,280317,0.4,E,A*05

3:05:37:605 Nachm. 03/28/17 - $GPGSA,A,2,10,12,15,17,19,24,28,,,,,,1.2,0.9,0.8*35

3:05:37:605 Nachm. 03/28/17 - $GNGSA,A,2,10,12,15,17,19,24,28,,,,,,1.2,0.9,0.8*2B

3:05:37:605 Nachm. 03/28/17 - $GNGSA,A,2,71,73,82,83,,,,,,,,,1.2,0.9,0.8*2C

3:05:38:585 Nachm. 03/28/17 - $GPGSV,3,1,12,01,05,021,22,10,17,299,13,12,40,230,16,13,22,158,20*75

3:05:38:586 Nachm. 03/28/17 - $GPGSV,3,2,12,15,45,194,23,17,41,071,30,19,45,104,26,24,69,286,19*70

3:05:38:593 Nachm. 03/28/17 - $GPGSV,3,3,12,28,10,054,24,18,15,271,,25,00,236,,32,05,322,*78

3:05:38:602 Nachm. 03/28/17 - $GLGSV,3,1,09,82,35,053,15,73,70,029,19,80,26,075,23,65,14,338,18*68

3:05:38:603 Nachm. 03/28/17 - $GLGSV,3,2,09,83,28,119,19,81,07,009,25,71,30,226,12,72,41,292,10*65

3:05:38:607 Nachm. 03/28/17 - $GLGSV,3,3,09,74,34,279,*54

3:05:38:608 Nachm. 03/28/17 - $GPGGA,130534.0,5208.368768,N,01138.433994,E,1,07,0.9,46.7,M,45.0,M,,*66

3:05:38:608 Nachm. 03/28/17 - $GNGNS,130534.0,5208.368768,N,01138.433994,E,AA,11,0.9,46.7,45.0,,*55

3:05:38:609 Nachm. 03/28/17 - $GPVTG,339.8,T,339.4,M,0.0,N,0.0,K,A*2F

3:05:38:609 Nachm. 03/28/17 - $GPRMC,130534.0,A,5208.368768,N,01138.433994,E,0.0,339.8,280317,0.4,E,A*0F

3:05:38:610 Nachm. 03/28/17 - $GPGSA,A,2,10,12,15,17,19,24,28,,,,,,1.2,0.9,0.8*35

3:05:38:611 Nachm. 03/28/17 - $GNGSA,A,2,10,12,15,17,19,24,28,,,,,,1.2,0.9,0.8*2B

3:05:38:611 Nachm. 03/28/17 - $GNGSA,A,2,71,73,82,83,,,,,,,,,1.2,0.9,0.8*2C

3:05:39:584 Nachm. 03/28/17 - $GPGSV,3,1,12,01,05,021,22,10,17,299,13,12,40,230,16,13,22,158,20*75

3:05:39:585 Nachm. 03/28/17 - $GPGSV,3,2,12,15,45,194,23,17,41,071,30,19,45,104,24,24,69,286,20*78

3:05:39:586 Nachm. 03/28/17 - $GPGSV,3,3,12,28,10,054,24,18,15,271,,25,00,236,,32,05,322,*78

3:05:39:587 Nachm. 03/28/17 - $GLGSV,3,1,09,82,35,053,22,73,70,029,18,80,26,075,20,65,14,338,19*6F

3:05:39:587 Nachm. 03/28/17 - $GLGSV,3,2,09,83,28,119,15,81,07,009,25,71,30,226,12,72,41,292,10*69

3:05:39:588 Nachm. 03/28/17 - $GLGSV,3,3,09,74,34,279,*54

3:05:39:593 Nachm. 03/28/17 - $GPGGA,130535.0,5208.368765,N,01138.433997,E,1,06,1.2,46.6,M,45.0,M,,*63

3:05:39:603 Nachm. 03/28/17 - $GNGNS,130535.0,5208.368765,N,01138.433997,E,AA,10,1.2,46.6,45.0,,*50

3:05:39:604 Nachm. 03/28/17 - $GPVTG,339.8,T,339.4,M,0.0,N,0.0,K,A*2F

3:05:39:607 Nachm. 03/28/17 - $GPRMC,130535.0,A,5208.368765,N,01138.433997,E,0.0,339.8,280317,0.4,E,A*00

3:05:39:607 Nachm. 03/28/17 - $GPGSA,A,2,12,15,17,19,24,28,,,,,,,1.4,1.2,0.9*39

3:05:39:607 Nachm. 03/28/17 - $GNGSA,A,2,12,15,17,19,24,28,,,,,,,1.4,1.2,0.9*27

3:05:39:607 Nachm. 03/28/17 - $GNGSA,A,2,71,73,82,83,,,,,,,,,1.4,1.2,0.9*21

3:05:40:584 Nachm. 03/28/17 - $GPGSV,3,1,12,01,05,021,22,10,17,299,13,12,40,230,18,13,22,158,20*7B

3:05:40:585 Nachm. 03/28/17 - $GPGSV,3,2,12,15,45,194,24,17,41,071,31,19,45,104,24,24,69,286,21*7F

3:05:40:585 Nachm. 03/28/17 - $GPGSV,3,3,12,28,10,054,24,18,15,271,,25,00,236,,32,05,322,*78

3:05:40:587 Nachm. 03/28/17 - $GLGSV,3,1,09,82,35,053,24,73,70,029,21,80,26,075,19,65,14,338,19*69

3:05:40:588 Nachm. 03/28/17 - $GLGSV,3,2,09,83,28,119,15,81,07,009,25,71,30,226,12,72,41,292,10*69

3:05:40:589 Nachm. 03/28/17 - $GLGSV,3,3,09,74,34,279,*54

3:05:40:590 Nachm. 03/28/17 - $GPGGA,130536.0,5208.368814,N,01138.434020,E,1,06,1.2,46.7,M,45.0,M,,*6A

3:05:40:598 Nachm. 03/28/17 - $GNGNS,130536.0,5208.368814,N,01138.434020,E,AA,09,1.2,46.7,45.0,,*51

3:05:40:602 Nachm. 03/28/17 - $GPVTG,339.8,T,339.4,M,0.0,N,0.0,K,A*2F

3:05:40:603 Nachm. 03/28/17 - $GPRMC,130536.0,A,5208.368814,N,01138.434020,E,0.0,339.8,280317,0.4,E,A*08

3:05:40:604 Nachm. 03/28/17 - $GPGSA,A,2,12,15,17,19,24,28,,,,,,,1.5,1.2,0.9*38

3:05:40:605 Nachm. 03/28/17 - $GNGSA,A,2,12,15,17,19,24,28,,,,,,,1.5,1.2,0.9*26

3:05:40:607 Nachm. 03/28/17 - $GNGSA,A,2,73,82,83,,,,,,,,,,1.5,1.2,0.9*26

3:05:41:584 Nachm. 03/28/17 - $GPGSV,3,1,12,01,05,021,22,10,17,299,12,12,40,230,19,13,22,158,14*7C

3:05:41:586 Nachm. 03/28/17 - $GPGSV,3,2,12,15,45,194,24,17,41,071,31,19,45,104,23,24,69,286,22*7B

3:05:41:586 Nachm. 03/28/17 - $GPGSV,3,3,12,28,10,054,25,18,15,271,,25,00,236,,32,05,322,*79

3:05:41:589 Nachm. 03/28/17 - $GLGSV,3,1,09,82,35,053,26,73,70,029,21,80,26,075,19,65,14,338,18*6A

3:05:41:590 Nachm. 03/28/17 - $GLGSV,3,2,09,83,28,119,15,81,07,009,24,71,30,226,12,72,41,292,10*68

3:05:41:591 Nachm. 03/28/17 - $GLGSV,3,3,09,74,34,279,*54

3:05:41:593 Nachm. 03/28/17 - $GPGGA,130537.0,5208.368836,N,01138.434047,E,1,08,0.9,46.7,M,45.0,M,,*6E

3:05:41:593 Nachm. 03/28/17 - $GNGNS,130537.0,5208.368836,N,01138.434047,E,AA,11,0.9,46.7,45.0,,*52

3:05:41:594 Nachm. 03/28/17 - $GPVTG,339.8,T,339.4,M,0.0,N,0.0,K,A*2F

3:05:41:594 Nachm. 03/28/17 - $GPRMC,130537.0,A,5208.368836,N,01138.434047,E,0.0,339.8,280317,0.4,E,A*08

3:05:41:595 Nachm. 03/28/17 - $GPGSA,A,2,10,12,13,15,17,19,24,28,,,,,1.2,0.9,0.8*37

3:05:41:596 Nachm. 03/28/17 - $GNGSA,A,2,10,12,13,15,17,19,24,28,,,,,1.2,0.9,0.8*29

3:05:41:596 Nachm. 03/28/17 - $GNGSA,A,2,73,82,83,,,,,,,,,,1.2,0.9,0.8*2A

3:05:42:584 Nachm. 03/28/17 - $GPGSV,3,1,12,01,05,021,20,10,17,299,12,12,40,230,20,13,22,158,18*78

3:05:42:586 Nachm. 03/28/17 - $GPGSV,3,2,12,15,45,194,24,17,41,071,30,19,45,104,22,24,69,286,24*7D

3:05:42:587 Nachm. 03/28/17 - $GPGSV,3,3,12,28,10,054,26,18,15,271,,25,00,236,,32,05,322,*7A

3:05:42:587 Nachm. 03/28/17 - $GLGSV,3,1,09,82,35,053,25,73,70,029,21,80,26,075,19,65,14,338,19*68

3:05:42:587 Nachm. 03/28/17 - $GLGSV,3,2,09,83,28,119,15,81,07,009,24,71,30,226,12,74,34,279,*68

3:05:42:587 Nachm. 03/28/17 - $GLGSV,3,3,09,,41,292,*50

3:05:42:587 Nachm. 03/28/17 - $GPGGA,130538.0,5208.368890,N,01138.434076,E,1,08,0.9,46.7,M,45.0,M,,*6F

3:05:42:590 Nachm. 03/28/17 - $GNGNS,130538.0,5208.368890,N,01138.434076,E,AA,11,0.9,46.7,45.0,,*53

3:05:42:598 Nachm. 03/28/17 - $GPVTG,339.8,T,339.4,M,0.0,N,0.0,K,A*2F

3:05:42:602 Nachm. 03/28/17 - $GPRMC,130538.0,A,5208.368890,N,01138.434076,E,0.0,339.8,280317,0.4,E,A*09

3:05:42:603 Nachm. 03/28/17 - $GPGSA,A,2,10,12,13,15,17,19,24,28,,,,,1.2,0.9,0.8*37

3:05:42:603 Nachm. 03/28/17 - $GNGSA,A,2,10,12,13,15,17,19,24,28,,,,,1.2,0.9,0.8*29

3:05:42:604 Nachm. 03/28/17 - $GNGSA,A,2,73,82,83,,,,,,,,,,1.2,0.9,0.8*2A

3:05:43:584 Nachm. 03/28/17 - $GPGSV,3,1,12,01,05,021,21,10,17,299,12,12,40,230,20,13,22,158,18*79

3:05:43:584 Nachm. 03/28/17 - $GPGSV,3,2,12,15,45,194,25,17,41,071,30,19,45,104,23,24,69,286,24*7D

3:05:43:585 Nachm. 03/28/17 - $GPGSV,3,3,12,28,10,054,24,18,15,271,,25,00,236,,32,05,322,*78

3:05:43:593 Nachm. 03/28/17 - $GLGSV,3,1,09,82,35,053,28,73,70,029,22,80,26,075,19,65,14,338,19*66

3:05:43:594 Nachm. 03/28/17 - $GLGSV,3,2,09,83,28,119,15,81,07,009,24,71,30,226,12,74,34,279,*68

3:05:43:594 Nachm. 03/28/17 - $GLGSV,3,3,09,72,41,292,*55

3:05:43:598 Nachm. 03/28/17 - $GPGGA,130539.0,5208.368928,N,01138.434100,E,1,08,0.9,46.7,M,45.0,M,,*6C

3:05:43:598 Nachm. 03/28/17 - $GNGNS,130539.0,5208.368928,N,01138.434100,E,AA,11,0.9,46.7,45.0,,*50

3:05:43:598 Nachm. 03/28/17 - $GPVTG,339.8,T,339.4,M,0.0,N,0.0,K,A*2F

3:05:43:599 Nachm. 03/28/17 - $GPRMC,130539.0,A,5208.368928,N,01138.434100,E,0.0,339.8,280317,0.4,E,A*0A

3:05:43:599 Nachm. 03/28/17 - $GPGSA,A,2,10,12,13,15,17,19,24,28,,,,,1.2,0.9,0.8*37

3:05:43:601 Nachm. 03/28/17 - $GNGSA,A,2,10,12,13,15,17,19,24,28,,,,,1.2,0.9,0.8*29

3:05:43:602 Nachm. 03/28/17 - $GNGSA,A,2,73,82,83,,,,,,,,,,1.2,0.9,0.8*2A

3:05:44:585 Nachm. 03/28/17 - $GPGSV,3,1,12,01,05,021,22,10,17,299,12,12,40,230,21,13,22,158,18*7B

3:05:44:587 Nachm. 03/28/17 - $GPGSV,3,2,12,15,45,194,24,17,41,071,31,19,45,104,23,24,69,286,23*7A

3:05:44:587 Nachm. 03/28/17 - $GPGSV,3,3,12,28,10,054,23,18,15,271,,25,00,236,,32,05,322,*7F

3:05:44:587 Nachm. 03/28/17 - $GLGSV,3,1,09,82,35,053,29,73,70,029,22,80,26,075,15,65,14,338,21*60

3:05:44:588 Nachm. 03/28/17 - $GLGSV,3,2,09,83,28,119,15,81,07,009,23,71,30,226,12,74,34,279,*6F

3:05:44:588 Nachm. 03/28/17 - $GLGSV,3,3,09,72,41,292,*55

3:05:44:595 Nachm. 03/28/17 - $GPGGA,130540.0,5208.368948,N,01138.434114,E,1,08,0.9,46.7,M,45.0,M,,*61

3:05:44:605 Nachm. 03/28/17 - $GNGNS,130540.0,5208.368948,N,01138.434114,E,AA,11,0.9,46.7,45.0,,*5D

3:05:44:608 Nachm. 03/28/17 - $GPVTG,339.8,T,339.4,M,0.0,N,0.0,K,A*2F

3:05:44:608 Nachm. 03/28/17 - $GPRMC,130540.0,A,5208.368948,N,01138.434114,E,0.0,339.8,280317,0.4,E,A*07

3:05:44:608 Nachm. 03/28/17 - $GPGSA,A,2,10,12,13,15,17,19,24,28,,,,,1.2,0.9,0.8*37

3:05:44:609 Nachm. 03/28/17 - $GNGSA,A,2,10,12,13,15,17,19,24,28,,,,,1.2,0.9,0.8*29

3:05:44:610 Nachm. 03/28/17 - $GNGSA,A,2,73,82,83,,,,,,,,,,1.2,0.9,0.8*2A

3:05:45:586 Nachm. 03/28/17 - $GPGSV,3,1,12,01,05,021,21,10,17,299,12,12,40,230,20,13,22,158,16*77

3:05:45:587 Nachm. 03/28/17 - $GPGSV,3,2,12,15,45,194,23,17,41,071,30,19,45,104,23,24,69,286,23*7C

3:05:45:593 Nachm. 03/28/17 - $GPGSV,3,3,12,28,10,054,25,18,15,271,,25,00,236,,32,05,322,*79

3:05:45:594 Nachm. 03/28/17 - $GLGSV,3,1,09,82,35,053,28,73,70,029,21,80,26,075,15,65,14,338,20*63

3:05:45:609 Nachm. 03/28/17 - $GLGSV,3,2,09,83,28,119,15,81,07,009,24,71,30,226,12,74,34,279,*68

3:05:45:609 Nachm. 03/28/17 - $GLGSV,3,3,09,72,41,292,*55

3:05:45:611 Nachm. 03/28/17 - $GPGGA,130541.0,5208.368967,N,01138.434126,E,1,08,0.9,46.7,M,45.0,M,,*6C

3:05:45:613 Nachm. 03/28/17 - $GNGNS,130541.0,5208.368967,N,01138.434126,E,AA,11,0.9,46.7,45.0,,*50

3:05:45:614 Nachm. 03/28/17 - $GPVTG,339.8,T,339.4,M,0.0,N,0.0,K,A*2F

3:05:45:614 Nachm. 03/28/17 - $GPRMC,130541.0,A,5208.368967,N,01138.434126,E,0.0,339.8,280317,0.4,E,A*0A

3:05:45:614 Nachm. 03/28/17 - $GPGSA,A,2,10,12,13,15,17,19,24,28,,,,,1.2,0.9,0.8*37

3:05:45:614 Nachm. 03/28/17 - $GNGSA,A,2,10,12,13,15,17,19,24,28,,,,,1.2,0.9,0.8*29

3:05:45:614 Nachm. 03/28/17 - $GNGSA,A,2,73,82,83,,,,,,,,,,1.2,0.9,0.8*2A

3:05:46:583 Nachm. 03/28/17 - $GPGSV,3,1,12,01,05,021,19,10,17,299,12,12,40,230,20,13,22,158,16*7C

3:05:46:586 Nachm. 03/28/17 - $GPGSV,3,2,12,15,45,194,24,17,41,071,29,19,45,104,25,24,69,286,23*75

3:05:46:586 Nachm. 03/28/17 - $GPGSV,3,3,12,28,10,054,28,18,15,271,,25,00,236,,32,05,322,*74

3:05:46:586 Nachm. 03/28/17 - $GLGSV,3,1,09,82,35,053,22,73,70,029,21,80,26,075,18,65,14,338,20*64

3:05:46:587 Nachm. 03/28/17 - $GLGSV,3,2,09,83,28,119,15,81,07,009,21,71,30,226,12,74,34,279,*6D

3:05:46:589 Nachm. 03/28/17 - $GLGSV,3,3,09,72,41,292,*55

3:05:46:589 Nachm. 03/28/17 - $GPGGA,130542.0,5208.368977,N,01138.434134,E,1,08,0.9,46.7,M,45.0,M,,*6D

3:05:46:592 Nachm. 03/28/17 - $GNGNS,130542.0,5208.368977,N,01138.434134,E,AA,10,0.9,46.7,45.0,,*50

3:05:46:593 Nachm. 03/28/17 - $GPVTG,339.8,T,339.4,M,0.0,N,0.0,K,A*2F

3:05:46:593 Nachm. 03/28/17 - $GPRMC,130542.0,A,5208.368977,N,01138.434134,E,0.0,339.8,280317,0.4,E,A*0B

3:05:46:593 Nachm. 03/28/17 - $GPGSA,A,2,10,12,13,15,17,19,24,28,,,,,1.2,0.9,0.8*37

3:05:46:593 Nachm. 03/28/17 - $GNGSA,A,2,10,12,13,15,17,19,24,28,,,,,1.2,0.9,0.8*29

3:05:46:594 Nachm. 03/28/17 - $GNGSA,A,2,73,82,,,,,,,,,,,1.2,0.9,0.8*21


