3:17:16:582 Nachm. 03/28/17 - $GPGSV,3,1,12,10,16,293,31,12,45,233,26,13,17,160,21,15,39,191,19*7F

3:17:16:583 Nachm. 03/28/17 - $GPGSV,3,2,12,17,39,064,25,18,12,267,21,24,75,285,34,25,05,239,20*7C

3:17:16:584 Nachm. 03/28/17 - $GPGSV,3,3,12,32,09,320,19,01,05,015,,19,46,095,,28,05,056,*71

3:17:16:584 Nachm. 03/28/17 - $GLGSV,3,1,10,74,39,285,35,82,33,045,18,73,66,045,28,65,18,334,17*63

3:17:16:585 Nachm. 03/28/17 - $GLGSV,3,2,10,83,34,113,18,71,23,223,29,72,40,282,32,80,21,080,*67

3:17:16:586 Nachm. 03/28/17 - $GLGSV,3,3,10,84,01,157,,81,03,007,*67

3:17:16:587 Nachm. 03/28/17 - $GPGGA,131712.0,5208.413962,N,01138.730277,E,1,06,0.9,59.4,M,45.0,M,,*64

3:17:16:588 Nachm. 03/28/17 - $GNGNS,131712.0,5208.413962,N,01138.730277,E,AA,11,0.9,59.4,45.0,,*56

3:17:16:591 Nachm. 03/28/17 - $GPVTG,74.3,T,73.8,M,0.0,N,0.0,K,A*2F

3:17:16:600 Nachm. 03/28/17 - $GPRMC,131712.0,A,5208.413962,N,01138.730277,E,0.0,74.3,280317,0.4,E,A*30

3:17:16:602 Nachm. 03/28/17 - $GPGSA,A,2,10,12,13,17,18,24,,,,,,,1.2,0.9,0.8*38

3:17:16:605 Nachm. 03/28/17 - $GNGSA,A,2,10,12,13,17,18,24,,,,,,,1.2,0.9,0.8*26

3:17:16:606 Nachm. 03/28/17 - $GNGSA,A,2,65,71,72,73,74,,,,,,,,1.2,0.9,0.8*28

3:17:17:587 Nachm. 03/28/17 - $GPGSV,3,1,12,10,16,293,32,12,45,233,30,13,17,160,21,15,39,191,35*75

3:17:17:588 Nachm. 03/28/17 - $GPGSV,3,2,12,17,39,064,23,18,12,267,24,19,46,095,16,24,75,285,33*71

3:17:17:590 Nachm. 03/28/17 - $GPGSV,3,3,12,25,05,239,20,32,09,320,20,01,05,015,,28,05,056,*75

3:17:17:592 Nachm. 03/28/17 - $GLGSV,3,1,10,74,39,285,35,82,33,045,18,73,66,045,30,65,18,334,17*6A

3:17:17:594 Nachm. 03/28/17 - $GLGSV,3,2,10,83,34,113,17,71,23,223,30,72,40,282,30,80,21,080,*62

3:17:17:595 Nachm. 03/28/17 - $GLGSV,3,3,10,84,01,157,,81,03,007,*67

3:17:17:597 Nachm. 03/28/17 - $GPGGA,131713.0,5208.414033,N,01138.728918,E,1,08,0.7,59.0,M,45.0,M,,*60

3:17:17:604 Nachm. 03/28/17 - $GNGNS,131713.0,5208.414033,N,01138.728918,E,AA,15,0.7,59.0,45.0,,*58

3:17:17:605 Nachm. 03/28/17 - $GPVTG,74.3,T,73.8,M,0.0,N,0.0,K,A*2F

3:17:17:606 Nachm. 03/28/17 - $GPRMC,131713.0,A,5208.414033,N,01138.728918,E,0.0,74.3,280317,0.4,E,A*30

3:17:17:607 Nachm. 03/28/17 - $GPGSA,A,2,10,12,13,15,17,18,19,24,,,,,1.1,0.7,0.8*39

3:17:17:607 Nachm. 03/28/17 - $GNGSA,A,2,10,12,13,15,17,18,19,24,,,,,1.1,0.7,0.8*27

3:17:17:608 Nachm. 03/28/17 - $GNGSA,A,2,65,71,72,73,74,82,83,,,,,,1.1,0.7,0.8*24

3:17:18:584 Nachm. 03/28/17 - $GPGSV,3,1,12,10,16,293,31,12,45,233,32,13,17,160,17,15,39,191,32*76

3:17:18:586 Nachm. 03/28/17 - $GPGSV,3,2,12,17,39,064,20,18,12,267,25,19,46,095,19,24,75,285,33*7C

3:17:18:586 Nachm. 03/28/17 - $GPGSV,3,3,12,25,05,239,22,32,09,320,20,01,05,015,,28,05,056,*77

3:17:18:587 Nachm. 03/28/17 - $GLGSV,3,1,10,74,39,285,33,82,33,045,17,73,66,045,30,65,18,334,18*6C

3:17:18:588 Nachm. 03/28/17 - $GLGSV,3,2,10,83,34,113,17,71,23,223,29,72,40,282,28,80,21,080,*63

3:17:18:588 Nachm. 03/28/17 - $GLGSV,3,3,10,84,01,157,,81,03,007,*67

3:17:18:606 Nachm. 03/28/17 - $GPGGA,131714.0,5208.414359,N,01138.729820,E,1,08,0.7,57.4,M,45.0,M,,*69

3:17:18:617 Nachm. 03/28/17 - $GNGNS,131714.0,5208.414359,N,01138.729820,E,AA,15,0.7,57.4,45.0,,*51

3:17:18:617 Nachm. 03/28/17 - $GPVTG,74.3,T,73.8,M,0.0,N,0.0,K,A*2F

3:17:18:617 Nachm. 03/28/17 - $GPRMC,131714.0,A,5208.414359,N,01138.729820,E,0.0,74.3,280317,0.4,E,A*33

3:17:18:618 Nachm. 03/28/17 - $GPGSA,A,2,10,12,13,15,17,18,19,24,,,,,1.1,0.7,0.8*39

3:17:18:618 Nachm. 03/28/17 - $GNGSA,A,2,10,12,13,15,17,18,19,24,,,,,1.1,0.7,0.8*27

3:17:18:618 Nachm. 03/28/17 - $GNGSA,A,2,65,71,72,73,74,82,83,,,,,,1.1,0.7,0.8*24

3:17:19:582 Nachm. 03/28/17 - $GPGSV,3,1,12,10,16,293,28,12,45,233,20,13,17,160,17,15,39,191,23*7D

3:17:19:586 Nachm. 03/28/17 - $GPGSV,3,2,12,17,39,064,20,18,12,267,21,19,46,095,19,24,75,285,26*7C

3:17:19:590 Nachm. 03/28/17 - $GPGSV,3,3,12,25,05,239,19,32,09,320,19,01,05,015,,28,05,056,*75

3:17:19:593 Nachm. 03/28/17 - $GLGSV,3,1,10,74,39,285,23,82,33,045,16,73,66,045,25,65,18,334,18*68

3:17:19:594 Nachm. 03/28/17 - $GLGSV,3,2,10,83,34,113,17,71,23,223,24,72,40,282,21,80,21,080,*67

3:17:19:597 Nachm. 03/28/17 - $GLGSV,3,3,10,84,01,157,,81,03,007,*67

3:17:19:597 Nachm. 03/28/17 - $GPGGA,131715.0,5208.414624,N,01138.729487,E,1,08,0.7,57.9,M,45.0,M,,*6B

3:17:19:600 Nachm. 03/28/17 - $GNGNS,131715.0,5208.414624,N,01138.729487,E,AA,15,0.7,57.9,45.0,,*53

3:17:19:600 Nachm. 03/28/17 - $GPVTG,74.3,T,73.8,M,0.0,N,0.0,K,A*2F

3:17:19:601 Nachm. 03/28/17 - $GPRMC,131715.0,A,5208.414624,N,01138.729487,E,0.0,74.3,280317,0.4,E,A*3C

3:17:19:601 Nachm. 03/28/17 - $GPGSA,A,2,10,12,13,15,17,18,19,24,,,,,1.1,0.7,0.8*39

3:17:19:602 Nachm. 03/28/17 - $GNGSA,A,2,10,12,13,15,17,18,19,24,,,,,1.1,0.7,0.8*27

3:17:19:602 Nachm. 03/28/17 - $GNGSA,A,2,65,71,72,73,74,82,83,,,,,,1.1,0.7,0.8*24

3:17:20:584 Nachm. 03/28/17 - $GPGSV,3,1,12,10,16,293,30,12,45,233,21,13,17,160,17,15,39,191,25*73

3:17:20:585 Nachm. 03/28/17 - $GPGSV,3,2,12,17,39,064,20,18,12,267,20,19,46,095,19,24,75,285,28*73

3:17:20:586 Nachm. 03/28/17 - $GPGSV,3,3,12,25,05,239,22,32,09,320,18,01,05,015,,28,05,056,*7C

3:17:20:597 Nachm. 03/28/17 - $GLGSV,3,1,10,74,39,285,24,82,33,045,16,73,66,045,27,65,18,334,18*6D

3:17:20:598 Nachm. 03/28/17 - $GLGSV,3,2,10,83,34,113,17,71,23,223,28,72,40,282,23,80,21,080,*69

3:17:20:604 Nachm. 03/28/17 - $GLGSV,3,3,10,84,01,157,,81,03,007,*67

3:17:20:606 Nachm. 03/28/17 - $GPGGA,131716.0,5208.414611,N,01138.729681,E,1,08,0.7,58.4,M,45.0,M,,*68

3:17:20:607 Nachm. 03/28/17 - $GNGNS,131716.0,5208.414611,N,01138.729681,E,AA,15,0.7,58.4,45.0,,*50

3:17:20:609 Nachm. 03/28/17 - $GPVTG,74.3,T,73.8,M,0.0,N,0.0,K,A*2F

3:17:20:611 Nachm. 03/28/17 - $GPRMC,131716.0,A,5208.414611,N,01138.729681,E,0.0,74.3,280317,0.4,E,A*3D

3:17:20:612 Nachm. 03/28/17 - $GPGSA,A,2,10,12,13,15,17,18,19,24,,,,,1.1,0.7,0.8*39

3:17:20:614 Nachm. 03/28/17 - $GNGSA,A,2,10,12,13,15,17,18,19,24,,,,,1.1,0.7,0.8*27

3:17:20:615 Nachm. 03/28/17 - $GNGSA,A,2,65,71,72,73,74,82,83,,,,,,1.1,0.7,0.8*24

3:17:21:583 Nachm. 03/28/17 - $GPGSV,3,1,12,10,16,293,33,12,45,233,21,13,17,160,17,15,39,191,27*72

3:17:21:586 Nachm. 03/28/17 - $GPGSV,3,2,12,18,12,267,23,19,46,095,18,24,75,285,28,25,05,239,23*76

3:17:21:588 Nachm. 03/28/17 - $GPGSV,3,3,12,32,09,320,18,01,05,015,,17,39,064,,28,05,056,*78

3:17:21:590 Nachm. 03/28/17 - $GLGSV,3,1,10,74,39,285,26,82,33,045,15,73,66,045,27,65,18,334,18*6C

3:17:21:597 Nachm. 03/28/17 - $GLGSV,3,2,10,83,34,113,17,71,23,223,27,72,40,282,24,80,21,080,*61

3:17:21:598 Nachm. 03/28/17 - $GLGSV,3,3,10,84,01,157,,81,03,007,*67

3:17:21:600 Nachm. 03/28/17 - $GPGGA,131717.0,5208.414629,N,01138.729811,E,1,08,0.7,58.5,M,45.0,M,,*64

3:17:21:603 Nachm. 03/28/17 - $GNGNS,131717.0,5208.414629,N,01138.729811,E,AA,15,0.7,58.5,45.0,,*5C

3:17:21:603 Nachm. 03/28/17 - $GPVTG,74.3,T,73.8,M,0.0,N,0.0,K,A*2F

3:17:21:604 Nachm. 03/28/17 - $GPRMC,131717.0,A,5208.414629,N,01138.729811,E,0.0,74.3,280317,0.4,E,A*30

3:17:21:605 Nachm. 03/28/17 - $GPGSA,A,2,10,12,13,15,17,18,19,24,,,,,1.1,0.7,0.8*39

3:17:21:606 Nachm. 03/28/17 - $GNGSA,A,2,10,12,13,15,17,18,19,24,,,,,1.1,0.7,0.8*27

3:17:21:606 Nachm. 03/28/17 - $GNGSA,A,2,65,71,72,73,74,82,83,,,,,,1.1,0.7,0.8*24

3:17:22:585 Nachm. 03/28/17 - $GPGSV,3,1,12,10,16,293,30,12,45,233,16,13,17,160,14,15,39,191,26*77

3:17:22:586 Nachm. 03/28/17 - $GPGSV,3,2,12,18,12,267,22,19,46,095,18,24,75,285,32,25,05,239,19*75

3:17:22:590 Nachm. 03/28/17 - $GPGSV,3,3,12,32,09,320,18,01,05,015,,17,39,064,,28,05,056,*78

3:17:22:600 Nachm. 03/28/17 - $GLGSV,3,1,10,74,39,285,26,82,33,045,15,73,66,045,27,65,18,334,18*6C

3:17:22:601 Nachm. 03/28/17 - $GLGSV,3,2,10,83,34,113,17,71,23,223,22,72,40,282,25,80,21,080,*65

3:17:22:601 Nachm. 03/28/17 - $GLGSV,3,3,10,84,01,157,,81,03,007,*67

3:17:22:601 Nachm. 03/28/17 - $GPGGA,131718.0,5208.414621,N,01138.729616,E,1,08,0.7,59.0,M,45.0,M,,*6E

3:17:22:602 Nachm. 03/28/17 - $GNGNS,131718.0,5208.414621,N,01138.729616,E,AA,15,0.7,59.0,45.0,,*56

3:17:22:602 Nachm. 03/28/17 - $GPVTG,74.3,T,73.8,M,0.0,N,0.0,K,A*2F

3:17:22:602 Nachm. 03/28/17 - $GPRMC,131718.0,A,5208.414621,N,01138.729616,E,0.0,74.3,280317,0.4,E,A*3E

3:17:22:602 Nachm. 03/28/17 - $GPGSA,A,2,10,12,13,15,17,18,19,24,,,,,1.1,0.7,0.8*39

3:17:22:602 Nachm. 03/28/17 - $GNGSA,A,2,10,12,13,15,17,18,19,24,,,,,1.1,0.7,0.8*27

3:17:22:603 Nachm. 03/28/17 - $GNGSA,A,2,65,71,72,73,74,82,83,,,,,,1.1,0.7,0.8*24

3:17:23:584 Nachm. 03/28/17 - $GPGSV,3,1,12,10,16,293,27,12,45,233,20,13,17,160,14,15,39,191,19*78

3:17:23:585 Nachm. 03/28/17 - $GPGSV,3,2,12,18,12,267,22,19,46,095,18,24,75,285,30,25,05,239,19*77

3:17:23:585 Nachm. 03/28/17 - $GPGSV,3,3,12,32,09,320,18,01,05,015,,17,39,064,,28,05,056,*78

3:17:23:605 Nachm. 03/28/17 - $GLGSV,3,1,10,74,39,285,23,82,33,045,14,73,66,045,26,65,18,334,20*62

3:17:23:605 Nachm. 03/28/17 - $GLGSV,3,2,10,83,34,113,17,71,23,223,24,72,40,282,24,80,21,080,*62

3:17:23:606 Nachm. 03/28/17 - $GLGSV,3,3,10,84,01,157,,81,03,007,*67

3:17:23:607 Nachm. 03/28/17 - $GPGGA,131719.0,5208.414535,N,01138.730230,E,1,08,0.7,57.4,M,45.0,M,,*6B

3:17:23:608 Nachm. 03/28/17 - $GNGNS,131719.0,5208.414535,N,01138.730230,E,AA,15,0.7,57.4,45.0,,*53

3:17:23:608 Nachm. 03/28/17 - $GPVTG,74.3,T,73.8,M,0.0,N,0.0,K,A*2F

3:17:23:608 Nachm. 03/28/17 - $GPRMC,131719.0,A,5208.414535,N,01138.730230,E,0.0,74.3,280317,0.4,E,A*31

3:17:23:608 Nachm. 03/28/17 - $GPGSA,A,2,10,12,13,15,17,18,19,24,,,,,1.1,0.7,0.8*39

3:17:23:608 Nachm. 03/28/17 - $GNGSA,A,2,10,12,13,15,17,18,19,24,,,,,1.1,0.7,0.8*27

3:17:23:609 Nachm. 03/28/17 - $GNGSA,A,2,65,71,72,73,74,82,83,,,,,,1.1,0.7,0.8*24

3:17:24:587 Nachm. 03/28/17 - $GPGSV,3,1,12,10,16,293,28,12,45,233,18,13,17,160,14,15,39,191,18*7D

3:17:24:588 Nachm. 03/28/17 - $GPGSV,3,2,12,18,12,267,15,19,46,095,25,24,75,285,29,25,05,239,19*75

3:17:24:588 Nachm. 03/28/17 - $GPGSV,3,3,12,32,09,320,19,01,05,015,,17,39,064,,28,05,056,*79

3:17:24:602 Nachm. 03/28/17 - $GLGSV,3,1,10,74,39,285,18,82,33,045,15,73,66,045,27,65,18,334,16*6F

3:17:24:603 Nachm. 03/28/17 - $GLGSV,3,2,10,83,34,113,17,71,23,223,24,72,40,282,19,80,21,080,*6C

3:17:24:604 Nachm. 03/28/17 - $GLGSV,3,3,10,84,01,157,,81,03,007,*67

3:17:24:604 Nachm. 03/28/17 - $GPGGA,131720.0,5208.414436,N,01138.730065,E,1,08,0.7,58.1,M,45.0,M,,*6B

3:17:24:605 Nachm. 03/28/17 - $GNGNS,131720.0,5208.414436,N,01138.730065,E,AA,15,0.7,58.1,45.0,,*53

3:17:24:605 Nachm. 03/28/17 - $GPVTG,74.3,T,73.8,M,0.0,N,0.0,K,A*2F

3:17:24:606 Nachm. 03/28/17 - $GPRMC,131720.0,A,5208.414436,N,01138.730065,E,0.0,74.3,280317,0.4,E,A*3B

3:17:24:606 Nachm. 03/28/17 - $GPGSA,A,2,10,12,13,15,17,18,19,24,,,,,1.1,0.7,0.8*39

3:17:24:607 Nachm. 03/28/17 - $GNGSA,A,2,10,12,13,15,17,18,19,24,,,,,1.1,0.7,0.8*27

3:17:24:607 Nachm. 03/28/17 - $GNGSA,A,2,65,71,72,73,74,82,83,,,,,,1.1,0.7,0.8*24

3:17:25:584 Nachm. 03/28/17 - $GPGSV,3,1,12,10,16,293,32,12,45,233,25,13,17,160,14,15,39,191,18*78

3:17:25:586 Nachm. 03/28/17 - $GPGSV,3,2,12,18,12,267,21,19,46,095,25,24,75,285,27,25,05,239,19*7C

3:17:25:589 Nachm. 03/28/17 - $GPGSV,3,3,12,32,09,320,20,01,05,015,,17,39,064,,28,05,056,*73

3:17:25:601 Nachm. 03/28/17 - $GLGSV,3,1,10,74,39,285,20,82,33,045,14,73,66,045,28,65,18,334,18*64

3:17:25:602 Nachm. 03/28/17 - $GLGSV,3,2,10,83,34,113,17,71,23,223,25,72,40,282,16,80,21,080,*62

3:17:25:603 Nachm. 03/28/17 - $GLGSV,3,3,10,84,01,157,,81,03,007,*67

3:17:25:603 Nachm. 03/28/17 - $GPGGA,131721.0,5208.414322,N,01138.729485,E,1,07,0.8,58.9,M,45.0,M,,*62

3:17:25:604 Nachm. 03/28/17 - $GNGNS,131721.0,5208.414322,N,01138.729485,E,AA,14,0.8,58.9,45.0,,*54

3:17:25:604 Nachm. 03/28/17 - $GPVTG,74.3,T,73.8,M,0.0,N,0.0,K,A*2F

3:17:25:605 Nachm. 03/28/17 - $GPRMC,131721.0,A,5208.414322,N,01138.729485,E,0.0,74.3,280317,0.4,E,A*3A

3:17:25:605 Nachm. 03/28/17 - $GPGSA,A,2,10,12,13,15,18,19,24,,,,,,1.1,0.8,0.8*30

3:17:25:606 Nachm. 03/28/17 - $GNGSA,A,2,10,12,13,15,18,19,24,,,,,,1.1,0.8,0.8*2E

3:17:25:606 Nachm. 03/28/17 - $GNGSA,A,2,65,71,72,73,74,82,83,,,,,,1.1,0.8,0.8*2B

3:17:26:585 Nachm. 03/28/17 - $GPGSV,3,1,12,10,16,293,32,12,45,233,27,13,17,160,14,15,39,191,24*75

3:17:26:585 Nachm. 03/28/17 - $GPGSV,3,2,12,18,12,267,21,19,46,095,19,24,75,285,28,25,05,239,19*7C

3:17:26:586 Nachm. 03/28/17 - $GPGSV,3,3,12,32,09,320,20,01,05,015,,17,39,064,,28,05,056,*73

3:17:26:588 Nachm. 03/28/17 - $GLGSV,3,1,10,74,39,285,26,82,33,045,19,73,66,045,27,65,18,334,20*6B

3:17:26:588 Nachm. 03/28/17 - $GLGSV,3,2,10,83,34,113,21,71,23,223,25,72,40,282,26,80,21,080,*64

3:17:26:589 Nachm. 03/28/17 - $GLGSV,3,3,10,84,01,157,,81,03,007,*67

3:17:26:589 Nachm. 03/28/17 - $GPGGA,131722.0,5208.414304,N,01138.729171,E,1,07,0.8,59.2,M,45.0,M,,*61

3:17:26:589 Nachm. 03/28/17 - $GNGNS,131722.0,5208.414304,N,01138.729171,E,AA,14,0.8,59.2,45.0,,*57

3:17:26:589 Nachm. 03/28/17 - $GPVTG,74.3,T,73.8,M,0.0,N,0.0,K,A*2F

3:17:26:589 Nachm. 03/28/17 - $GPRMC,131722.0,A,5208.414304,N,01138.729171,E,0.0,74.3,280317,0.4,E,A*33

3:17:26:590 Nachm. 03/28/17 - $GPGSA,A,2,10,12,13,15,18,19,24,,,,,,1.1,0.8,0.8*30

3:17:26:590 Nachm. 03/28/17 - $GNGSA,A,2,10,12,13,15,18,19,24,,,,,,1.1,0.8,0.8*2E

3:17:26:590 Nachm. 03/28/17 - $GNGSA,A,2,65,71,72,73,74,82,83,,,,,,1.1,0.8,0.8*2B

3:17:27:582 Nachm. 03/28/17 - $GPGSV,3,1,12,10,16,293,27,12,45,233,26,13,17,160,14,15,39,191,29*7D

3:17:27:583 Nachm. 03/28/17 - $GPGSV,3,2,12,18,12,267,16,19,46,095,19,24,75,285,28,32,09,320,20*71

3:17:27:584 Nachm. 03/28/17 - $GPGSV,3,3,12,01,05,015,,17,39,064,,25,05,239,,28,05,056,*72

3:17:27:595 Nachm. 03/28/17 - $GLGSV,3,1,10,74,39,285,25,82,33,045,19,73,66,045,25,65,18,334,21*6B

3:17:27:596 Nachm. 03/28/17 - $GLGSV,3,2,10,83,34,113,23,71,23,223,23,72,40,282,26,80,21,080,*60

3:17:27:610 Nachm. 03/28/17 - $GLGSV,3,3,10,84,01,157,,81,03,007,*67

3:17:27:610 Nachm. 03/28/17 - $GPGGA,131723.0,5208.414313,N,01138.729010,E,1,07,0.8,59.4,M,45.0,M,,*66

3:17:27:611 Nachm. 03/28/17 - $GNGNS,131723.0,5208.414313,N,01138.729010,E,AA,14,0.8,59.4,45.0,,*50

3:17:27:611 Nachm. 03/28/17 - $GPVTG,74.3,T,73.8,M,0.0,N,0.0,K,A*2F

3:17:27:611 Nachm. 03/28/17 - $GPRMC,131723.0,A,5208.414313,N,01138.729010,E,0.0,74.3,280317,0.4,E,A*32

3:17:27:612 Nachm. 03/28/17 - $GPGSA,A,2,10,12,13,15,18,19,24,,,,,,1.1,0.8,0.8*30

3:17:27:612 Nachm. 03/28/17 - $GNGSA,A,2,10,12,13,15,18,19,24,,,,,,1.1,0.8,0.8*2E

3:17:27:613 Nachm. 03/28/17 - $GNGSA,A,2,65,71,72,73,74,82,83,,,,,,1.1,0.8,0.8*2B

3:17:28:585 Nachm. 03/28/17 - $GPGSV,3,1,12,10,16,293,22,12,45,233,22,13,17,160,14,15,39,191,29*7C

3:17:28:586 Nachm. 03/28/17 - $GPGSV,3,2,12,18,12,267,20,19,46,095,19,24,75,285,29,32,09,320,15*73

3:17:28:587 Nachm. 03/28/17 - $GPGSV,3,3,12,01,05,015,,17,39,064,,25,05,239,,28,05,056,*72

3:17:28:598 Nachm. 03/28/17 - $GLGSV,3,1,10,74,39,285,25,82,33,045,19,73,66,045,26,65,18,334,25*6C

3:17:28:601 Nachm. 03/28/17 - $GLGSV,3,2,10,83,34,113,23,71,23,223,25,72,40,282,25,80,21,080,*65

3:17:28:602 Nachm. 03/28/17 - $GLGSV,3,3,10,84,01,157,,81,03,007,*67

3:17:28:602 Nachm. 03/28/17 - $GPGGA,131724.0,5208.414297,N,01138.729010,E,1,07,0.8,59.4,M,45.0,M,,*6C

3:17:28:602 Nachm. 03/28/17 - $GNGNS,131724.0,5208.414297,N,01138.729010,E,AA,14,0.8,59.4,45.0,,*5A

3:17:28:602 Nachm. 03/28/17 - $GPVTG,74.3,T,73.8,M,0.0,N,0.0,K,A*2F

3:17:28:604 Nachm. 03/28/17 - $GPRMC,131724.0,A,5208.414297,N,01138.729010,E,0.0,74.3,280317,0.4,E,A*38

3:17:28:605 Nachm. 03/28/17 - $GPGSA,A,2,10,12,13,15,18,19,24,,,,,,1.1,0.8,0.8*30

3:17:28:605 Nachm. 03/28/17 - $GNGSA,A,2,10,12,13,15,18,19,24,,,,,,1.1,0.8,0.8*2E

3:17:28:605 Nachm. 03/28/17 - $GNGSA,A,2,65,71,72,73,74,82,83,,,,,,1.1,0.8,0.8*2B

3:17:29:584 Nachm. 03/28/17 - $GPGSV,3,1,12,10,16,293,25,12,45,233,20,13,17,160,14,15,39,191,28*78

3:17:29:588 Nachm. 03/28/17 - $GPGSV,3,2,12,18,12,267,22,19,46,095,16,24,75,285,20,25,05,239,21*73

3:17:29:590 Nachm. 03/28/17 - $GPGSV,3,3,12,32,09,320,17,01,05,015,,17,39,064,,28,05,056,*77

3:17:29:601 Nachm. 03/28/17 - $GLGSV,3,1,10,74,39,285,24,82,33,045,19,73,66,045,25,65,18,334,26*6D

3:17:29:601 Nachm. 03/28/17 - $GLGSV,3,2,10,83,34,113,18,71,23,223,23,72,40,282,17,80,21,080,*6A

3:17:29:601 Nachm. 03/28/17 - $GLGSV,3,3,10,84,01,157,,81,03,007,*67

3:17:29:601 Nachm. 03/28/17 - $GPGGA,131725.0,5208.414275,N,01138.728948,E,1,06,0.8,59.5,M,45.0,M,,*64

3:17:29:602 Nachm. 03/28/17 - $GNGNS,131725.0,5208.414275,N,01138.728948,E,AA,13,0.8,59.5,45.0,,*54

3:17:29:602 Nachm. 03/28/17 - $GPVTG,74.3,T,73.8,M,0.0,N,0.0,K,A*2F

3:17:29:602 Nachm. 03/28/17 - $GPRMC,131725.0,A,5208.414275,N,01138.728948,E,0.0,74.3,280317,0.4,E,A*30

3:17:29:602 Nachm. 03/28/17 - $GPGSA,A,2,10,12,15,18,19,24,,,,,,,1.2,0.8,0.8*31

3:17:29:604 Nachm. 03/28/17 - $GNGSA,A,2,10,12,15,18,19,24,,,,,,,1.2,0.8,0.8*2F

3:17:29:605 Nachm. 03/28/17 - $GNGSA,A,2,65,71,72,73,74,82,83,,,,,,1.2,0.8,0.8*28

3:17:30:584 Nachm. 03/28/17 - $GPGSV,3,1,12,10,16,293,21,12,45,233,25,13,17,160,14,15,39,191,27*76

3:17:30:585 Nachm. 03/28/17 - $GPGSV,3,2,12,18,12,267,24,19,46,095,22,24,75,285,23,25,05,239,19*7A

3:17:30:588 Nachm. 03/28/17 - $GPGSV,3,3,12,32,09,320,19,01,05,015,,17,39,064,,28,05,056,*79

3:17:30:589 Nachm. 03/28/17 - $GLGSV,3,1,10,74,39,285,21,82,33,045,19,73,66,045,27,65,18,334,27*6B

3:17:30:590 Nachm. 03/28/17 - $GLGSV,3,2,10,83,34,113,18,71,23,223,21,72,40,282,22,80,21,080,*6E

3:17:30:591 Nachm. 03/28/17 - $GLGSV,3,3,10,84,01,157,,81,03,007,*67

3:17:30:592 Nachm. 03/28/17 - $GPGGA,131726.0,5208.414262,N,01138.728866,E,1,06,0.8,59.6,M,45.0,M,,*6F

3:17:30:593 Nachm. 03/28/17 - $GNGNS,131726.0,5208.414262,N,01138.728866,E,AA,13,0.8,59.6,45.0,,*5F

3:17:30:602 Nachm. 03/28/17 - $GPVTG,74.3,T,73.8,M,0.0,N,0.0,K,A*2F

3:17:30:604 Nachm. 03/28/17 - $GPRMC,131726.0,A,5208.414262,N,01138.728866,E,0.0,74.3,280317,0.4,E,A*38

3:17:30:605 Nachm. 03/28/17 - $GPGSA,A,2,10,12,15,18,19,24,,,,,,,1.2,0.8,0.8*31

3:17:30:605 Nachm. 03/28/17 - $GNGSA,A,2,10,12,15,18,19,24,,,,,,,1.2,0.8,0.8*2F

3:17:30:606 Nachm. 03/28/17 - $GNGSA,A,2,65,71,72,73,74,82,83,,,,,,1.2,0.8,0.8*28

3:17:31:583 Nachm. 03/28/17 - $GPGSV,3,1,12,10,16,293,18,12,45,233,24,13,17,160,14,15,39,191,27*7D

3:17:31:584 Nachm. 03/28/17 - $GPGSV,3,2,12,17,39,064,14,18,12,267,25,19,46,095,21,24,75,285,24*76

3:17:31:585 Nachm. 03/28/17 - $GPGSV,3,3,12,25,05,239,20,32,09,320,19,01,05,015,,28,05,056,*7F

3:17:31:596 Nachm. 03/28/17 - $GLGSV,3,1,10,74,39,285,21,82,33,045,19,73,66,045,27,65,18,334,27*6B

3:17:31:597 Nachm. 03/28/17 - $GLGSV,3,2,10,83,34,113,19,71,23,223,22,72,40,282,24,80,21,080,*6A

3:17:31:600 Nachm. 03/28/17 - $GLGSV,3,3,10,84,01,157,,81,03,007,*67

3:17:31:600 Nachm. 03/28/17 - $GPGGA,131727.0,5208.414262,N,01138.728840,E,1,07,0.8,59.7,M,45.0,M,,*6A

3:17:31:601 Nachm. 03/28/17 - $GNGNS,131727.0,5208.414262,N,01138.728840,E,AA,14,0.8,59.7,45.0,,*5C

3:17:31:601 Nachm. 03/28/17 - $GPVTG,74.3,T,73.8,M,0.0,N,0.0,K,A*2F

3:17:31:602 Nachm. 03/28/17 - $GPRMC,131727.0,A,5208.414262,N,01138.728840,E,0.0,74.3,280317,0.4,E,A*3D

3:17:31:602 Nachm. 03/28/17 - $GPGSA,A,2,10,12,15,17,18,19,24,,,,,,1.1,0.8,0.8*34

3:17:31:602 Nachm. 03/28/17 - $GNGSA,A,2,10,12,15,17,18,19,24,,,,,,1.1,0.8,0.8*2A

3:17:31:602 Nachm. 03/28/17 - $GNGSA,A,2,65,71,72,73,74,82,83,,,,,,1.1,0.8,0.8*2B

3:17:32:584 Nachm. 03/28/17 - $GPGSV,3,1,12,10,16,293,26,12,45,233,24,13,17,160,12,15,39,191,28*79

3:17:32:585 Nachm. 03/28/17 - $GPGSV,3,2,12,17,39,064,14,18,12,267,24,19,46,095,21,24,75,285,22*71

3:17:32:589 Nachm. 03/28/17 - $GPGSV,3,3,12,25,05,239,20,32,09,320,21,01,05,015,,28,05,056,*74

3:17:32:605 Nachm. 03/28/17 - $GLGSV,3,1,10,74,39,285,18,82,33,045,19,73,66,045,28,65,18,334,28*61

3:17:32:606 Nachm. 03/28/17 - $GLGSV,3,2,10,83,34,113,19,71,23,223,24,72,40,282,17,80,21,080,*6C

3:17:32:607 Nachm. 03/28/17 - $GLGSV,3,3,10,84,01,157,,81,03,007,*67

3:17:32:608 Nachm. 03/28/17 - $GPGGA,131728.0,5208.414262,N,01138.728791,E,1,08,0.7,59.7,M,45.0,M,,*66

3:17:32:609 Nachm. 03/28/17 - $GNGNS,131728.0,5208.414262,N,01138.728791,E,AA,15,0.7,59.7,45.0,,*5E

3:17:32:610 Nachm. 03/28/17 - $GPVTG,74.3,T,73.8,M,0.0,N,0.0,K,A*2F

3:17:32:611 Nachm. 03/28/17 - $GPRMC,131728.0,A,5208.414262,N,01138.728791,E,0.0,74.3,280317,0.4,E,A*31

3:17:32:612 Nachm. 03/28/17 - $GPGSA,A,2,10,12,13,15,17,18,19,24,,,,,1.1,0.7,0.8*39

3:17:32:612 Nachm. 03/28/17 - $GNGSA,A,2,10,12,13,15,17,18,19,24,,,,,1.1,0.7,0.8*27

3:17:32:613 Nachm. 03/28/17 - $GNGSA,A,2,65,71,72,73,74,82,83,,,,,,1.1,0.7,0.8*24

3:17:33:585 Nachm. 03/28/17 - $GPGSV,3,1,12,10,16,293,27,12,45,233,19,13,17,160,19,15,39,191,29*7C

3:17:33:585 Nachm. 03/28/17 - $GPGSV,3,2,12,17,39,064,14,18,12,267,20,19,46,095,21,24,75,285,26*71

3:17:33:586 Nachm. 03/28/17 - $GPGSV,3,3,12,25,05,239,20,32,09,320,21,01,05,015,,28,05,056,*74

3:17:33:591 Nachm. 03/28/17 - $GLGSV,3,1,10,74,39,285,17,82,33,045,19,73,66,045,27,65,18,334,28*61

3:17:33:591 Nachm. 03/28/17 - $GLGSV,3,2,10,83,34,113,19,71,23,223,25,72,40,282,17,80,21,080,*6D

3:17:33:592 Nachm. 03/28/17 - $GLGSV,3,3,10,84,01,157,,81,03,007,*67

3:17:33:592 Nachm. 03/28/17 - $GPGGA,131729.0,5208.414274,N,01138.728774,E,1,08,0.8,59.8,M,45.0,M,,*6B

3:17:33:592 Nachm. 03/28/17 - $GNGNS,131729.0,5208.414274,N,01138.728774,E,AA,14,0.8,59.8,45.0,,*52

3:17:33:598 Nachm. 03/28/17 - $GPVTG,74.3,T,73.8,M,0.0,N,0.0,K,A*2F

3:17:33:601 Nachm. 03/28/17 - $GPRMC,131729.0,A,5208.414274,N,01138.728774,E,0.0,74.3,280317,0.4,E,A*3C

3:17:33:601 Nachm. 03/28/17 - $GPGSA,A,2,10,12,13,15,17,18,19,24,,,,,1.1,0.8,0.8*36

3:17:33:603 Nachm. 03/28/17 - $GNGSA,A,2,10,12,13,15,17,18,19,24,,,,,1.1,0.8,0.8*28

3:17:33:603 Nachm. 03/28/17 - $GNGSA,A,2,65,71,72,73,74,83,,,,,,,1.1,0.8,0.8*21

3:17:34:587 Nachm. 03/28/17 - $GPGSV,3,1,12,10,16,293,25,12,45,233,19,13,17,160,19,15,39,191,28*7F

3:17:34:591 Nachm. 03/28/17 - $GPGSV,3,2,12,17,39,064,14,18,12,267,23,19,46,095,18,24,75,285,26*78

3:17:34:592 Nachm. 03/28/17 - $GPGSV,3,3,12,25,05,239,19,32,09,320,20,01,05,015,,28,05,056,*7F

3:17:34:598 Nachm. 03/28/17 - $GLGSV,3,1,10,74,39,285,17,82,33,045,19,73,66,045,27,65,18,334,27*6E

3:17:34:599 Nachm. 03/28/17 - $GLGSV,3,2,10,83,34,113,19,71,23,223,25,72,40,282,18,80,21,080,*62

3:17:34:600 Nachm. 03/28/17 - $GLGSV,3,3,10,84,01,157,,81,03,007,*67

3:17:34:600 Nachm. 03/28/17 - $GPGGA,131730.0,5208.414300,N,01138.728651,E,1,08,0.8,60.0,M,45.0,M,,*65

3:17:34:600 Nachm. 03/28/17 - $GNGNS,131730.0,5208.414300,N,01138.728651,E,AA,14,0.8,60.0,45.0,,*5C

3:17:34:600 Nachm. 03/28/17 - $GPVTG,74.3,T,73.8,M,0.0,N,0.0,K,A*2F

3:17:34:600 Nachm. 03/28/17 - $GPRMC,131730.0,A,5208.414300,N,01138.728651,E,0.0,74.3,280317,0.4,E,A*30

3:17:34:601 Nachm. 03/28/17 - $GPGSA,A,2,10,12,13,15,17,18,19,24,,,,,1.1,0.8,0.8*36

3:17:34:601 Nachm. 03/28/17 - $GNGSA,A,2,10,12,13,15,17,18,19,24,,,,,1.1,0.8,0.8*28

3:17:34:601 Nachm. 03/28/17 - $GNGSA,A,2,65,71,72,73,74,83,,,,,,,1.1,0.8,0.8*21

3:17:35:584 Nachm. 03/28/17 - $GPGSV,3,1,12,10,16,293,25,12,45,233,19,13,17,160,19,15,39,191,29*7E

3:17:35:592 Nachm. 03/28/17 - $GPGSV,3,2,12,17,39,064,14,18,12,267,24,19,46,095,22,24,75,285,27*77

3:17:35:593 Nachm. 03/28/17 - $GPGSV,3,3,12,25,05,239,18,32,09,320,21,01,05,015,,28,05,056,*7F

3:17:35:603 Nachm. 03/28/17 - $GLGSV,3,1,10,74,39,285,17,82,33,045,19,73,66,045,28,65,18,334,28*6E

3:17:35:603 Nachm. 03/28/17 - $GLGSV,3,2,10,83,34,113,19,71,23,223,26,72,40,282,19,80,21,080,*60

3:17:35:604 Nachm. 03/28/17 - $GLGSV,3,3,10,84,01,157,,81,03,007,*67

3:17:35:604 Nachm. 03/28/17 - $GPGGA,131731.0,5208.414304,N,01138.728610,E,1,08,0.8,60.0,M,45.0,M,,*65

3:17:35:604 Nachm. 03/28/17 - $GNGNS,131731.0,5208.414304,N,01138.728610,E,AA,14,0.8,60.0,45.0,,*5C

3:17:35:605 Nachm. 03/28/17 - $GPVTG,74.3,T,73.8,M,0.0,N,0.0,K,A*2F

3:17:35:605 Nachm. 03/28/17 - $GPRMC,131731.0,A,5208.414304,N,01138.728610,E,0.0,74.3,280317,0.4,E,A*30

3:17:35:605 Nachm. 03/28/17 - $GPGSA,A,2,10,12,13,15,17,18,19,24,,,,,1.1,0.8,0.8*36

3:17:35:606 Nachm. 03/28/17 - $GNGSA,A,2,10,12,13,15,17,18,19,24,,,,,1.1,0.8,0.8*28

3:17:35:607 Nachm. 03/28/17 - $GNGSA,A,2,65,71,72,73,74,83,,,,,,,1.1,0.8,0.8*21

3:17:36:586 Nachm. 03/28/17 - $GPGSV,3,1,12,10,16,293,24,12,45,233,19,13,17,160,17,15,39,191,28*70

3:17:36:587 Nachm. 03/28/17 - $GPGSV,3,2,12,17,39,064,14,18,12,267,22,19,46,095,21,24,75,285,26*73

3:17:36:588 Nachm. 03/28/17 - $GPGSV,3,3,12,25,05,239,18,32,09,320,21,01,05,015,,28,05,056,*7F

3:17:36:603 Nachm. 03/28/17 - $GLGSV,3,1,10,74,39,285,17,82,33,045,19,73,66,045,27,65,18,334,27*6E

3:17:36:607 Nachm. 03/28/17 - $GLGSV,3,2,10,83,34,113,19,71,23,223,26,72,40,282,19,80,21,080,*60

3:17:36:608 Nachm. 03/28/17 - $GLGSV,3,3,10,84,01,157,,81,03,007,*67

3:17:36:610 Nachm. 03/28/17 - $GPGGA,131732.0,5208.414324,N,01138.728510,E,1,08,0.8,60.2,M,45.0,M,,*65

3:17:36:611 Nachm. 03/28/17 - $GNGNS,131732.0,5208.414324,N,01138.728510,E,AA,14,0.8,60.2,45.0,,*5C

3:17:36:611 Nachm. 03/28/17 - $GPVTG,74.3,T,73.8,M,0.0,N,0.0,K,A*2F

3:17:36:612 Nachm. 03/28/17 - $GPRMC,131732.0,A,5208.414324,N,01138.728510,E,0.0,74.3,280317,0.4,E,A*32

3:17:36:612 Nachm. 03/28/17 - $GPGSA,A,2,10,12,13,15,17,18,19,24,,,,,1.1,0.8,0.8*36

3:17:36:612 Nachm. 03/28/17 - $GNGSA,A,2,10,12,13,15,17,18,19,24,,,,,1.1,0.8,0.8*28

3:17:36:613 Nachm. 03/28/17 - $GNGSA,A,2,65,71,72,73,74,83,,,,,,,1.1,0.8,0.8*21

3:17:37:583 Nachm. 03/28/17 - $GPGSV,3,1,12,10,16,293,23,12,45,233,13,13,17,160,16,15,39,191,29*7D

3:17:37:586 Nachm. 03/28/17 - $GPGSV,3,2,12,17,39,064,14,18,12,267,22,19,46,095,21,24,75,285,27*72

3:17:37:590 Nachm. 03/28/17 - $GPGSV,3,3,12,25,05,239,17,32,09,320,21,01,05,015,,28,05,056,*70

3:17:37:599 Nachm. 03/28/17 - $GLGSV,3,1,10,74,39,285,17,82,33,045,19,73,66,045,27,65,18,334,27*6E

3:17:37:600 Nachm. 03/28/17 - $GLGSV,3,2,10,83,34,113,19,71,23,223,26,72,40,282,19,80,21,080,*60

3:17:37:601 Nachm. 03/28/17 - $GLGSV,3,3,10,84,01,157,,81,03,007,*67

3:17:37:602 Nachm. 03/28/17 - $GPGGA,131733.0,5208.414355,N,01138.728390,E,1,08,0.8,60.4,M,45.0,M,,*6A

3:17:37:603 Nachm. 03/28/17 - $GNGNS,131733.0,5208.414355,N,01138.728390,E,AA,14,0.8,60.4,45.0,,*53

3:17:37:603 Nachm. 03/28/17 - $GPVTG,74.3,T,73.8,M,0.0,N,0.0,K,A*2F

3:17:37:603 Nachm. 03/28/17 - $GPRMC,131733.0,A,5208.414355,N,01138.728390,E,0.0,74.3,280317,0.4,E,A*3B

3:17:37:603 Nachm. 03/28/17 - $GPGSA,A,2,10,12,13,15,17,18,19,24,,,,,1.1,0.8,0.8*36

3:17:37:603 Nachm. 03/28/17 - $GNGSA,A,2,10,12,13,15,17,18,19,24,,,,,1.1,0.8,0.8*28

3:17:37:604 Nachm. 03/28/17 - $GNGSA,A,2,65,71,72,73,74,83,,,,,,,1.1,0.8,0.8*21

3:17:38:582 Nachm. 03/28/17 - $GPGSV,3,1,12,10,16,293,24,12,45,233,13,13,17,160,18,15,39,191,29*74

3:17:38:583 Nachm. 03/28/17 - $GPGSV,3,2,12,17,39,064,14,18,12,267,22,19,46,095,18,24,75,285,26*79

3:17:38:584 Nachm. 03/28/17 - $GPGSV,3,3,12,25,05,239,17,32,09,320,20,01,05,015,,28,05,056,*71

3:17:38:586 Nachm. 03/28/17 - $GLGSV,3,1,10,74,39,285,17,82,33,045,19,73,66,045,27,65,18,334,28*61

3:17:38:590 Nachm. 03/28/17 - $GLGSV,3,2,10,83,34,113,19,71,23,223,25,72,40,282,19,80,21,080,*63

3:17:38:591 Nachm. 03/28/17 - $GLGSV,3,3,10,84,01,157,,81,03,007,*67

3:17:38:593 Nachm. 03/28/17 - $GPGGA,131734.0,5208.414390,N,01138.728255,E,1,08,0.8,60.7,M,45.0,M,,*6F

3:17:38:602 Nachm. 03/28/17 - $GNGNS,131734.0,5208.414390,N,01138.728255,E,AA,13,0.8,60.7,45.0,,*51

3:17:38:608 Nachm. 03/28/17 - $GPVTG,74.3,T,73.8,M,0.0,N,0.0,K,A*2F

3:17:38:608 Nachm. 03/28/17 - $GPRMC,131734.0,A,5208.414390,N,01138.728255,E,0.0,74.3,280317,0.4,E,A*3D

3:17:38:608 Nachm. 03/28/17 - $GPGSA,A,2,10,12,13,15,17,18,19,24,,,,,1.1,0.8,0.8*36

3:17:38:608 Nachm. 03/28/17 - $GNGSA,A,2,10,12,13,15,17,18,19,24,,,,,1.1,0.8,0.8*28

3:17:38:608 Nachm. 03/28/17 - $GNGSA,A,2,65,71,72,73,74,,,,,,,,1.1,0.8,0.8*2A

3:17:39:584 Nachm. 03/28/17 - $GPGSV,3,1,12,10,16,293,24,12,45,233,13,13,17,160,18,15,39,191,29*74

3:17:39:585 Nachm. 03/28/17 - $GPGSV,3,2,12,17,39,064,14,18,12,267,23,19,46,095,17,24,75,285,27*76

3:17:39:585 Nachm. 03/28/17 - $GPGSV,3,3,12,25,05,239,17,32,09,320,21,01,05,015,,28,05,056,*70

3:17:39:594 Nachm. 03/28/17 - $GLGSV,3,1,10,74,39,285,17,82,33,045,19,73,66,045,27,65,18,334,28*61

3:17:39:600 Nachm. 03/28/17 - $GLGSV,3,2,10,83,34,113,19,71,23,223,25,72,40,282,19,80,21,080,*63

3:17:39:605 Nachm. 03/28/17 - $GLGSV,3,3,10,84,01,157,,81,03,007,*67

3:17:39:606 Nachm. 03/28/17 - $GPGGA,131735.0,5208.414413,N,01138.728148,E,1,08,0.8,60.9,M,45.0,M,,*63

3:17:39:607 Nachm. 03/28/17 - $GNGNS,131735.0,5208.414413,N,01138.728148,E,AA,13,0.8,60.9,45.0,,*5D

3:17:39:607 Nachm. 03/28/17 - $GPVTG,74.3,T,73.8,M,0.0,N,0.0,K,A*2F

3:17:39:607 Nachm. 03/28/17 - $GPRMC,131735.0,A,5208.414413,N,01138.728148,E,0.0,74.3,280317,0.4,E,A*3F

3:17:39:608 Nachm. 03/28/17 - $GPGSA,A,2,10,12,13,15,17,18,19,24,,,,,1.1,0.8,0.8*36

3:17:39:608 Nachm. 03/28/17 - $GNGSA,A,2,10,12,13,15,17,18,19,24,,,,,1.1,0.8,0.8*28

3:17:39:608 Nachm. 03/28/17 - $GNGSA,A,2,65,71,72,73,74,,,,,,,,1.1,0.8,0.8*2A

3:17:40:582 Nachm. 03/28/17 - $GPGSV,3,1,12,10,16,293,27,12,45,233,14,13,17,160,20,15,39,191,29*7B

3:17:40:582 Nachm. 03/28/17 - $GPGSV,3,2,12,17,39,064,14,18,12,267,22,19,46,095,18,24,75,285,25*7A

3:17:40:583 Nachm. 03/28/17 - $GPGSV,3,3,12,25,05,239,16,32,09,320,22,01,05,015,,28,05,056,*72

3:17:40:587 Nachm. 03/28/17 - $GLGSV,3,1,10,74,39,285,17,82,33,045,19,73,66,045,27,65,18,334,29*60

3:17:40:587 Nachm. 03/28/17 - $GLGSV,3,2,10,83,34,113,19,71,23,223,25,72,40,282,22,80,21,080,*6B

3:17:40:590 Nachm. 03/28/17 - $GLGSV,3,3,10,84,01,157,,81,03,007,*67

3:17:40:590 Nachm. 03/28/17 - $GPGGA,131736.0,5208.414431,N,01138.728087,E,1,08,0.8,61.0,M,45.0,M,,*6A

3:17:40:591 Nachm. 03/28/17 - $GNGNS,131736.0,5208.414431,N,01138.728087,E,AA,12,0.8,61.0,45.0,,*55

3:17:40:591 Nachm. 03/28/17 - $GPVTG,74.3,T,73.8,M,0.0,N,0.0,K,A*2F

3:17:40:591 Nachm. 03/28/17 - $GPRMC,131736.0,A,5208.414431,N,01138.728087,E,0.0,74.3,280317,0.4,E,A*3E

3:17:40:591 Nachm. 03/28/17 - $GPGSA,A,2,10,12,13,15,17,18,19,24,,,,,1.1,0.8,0.8*36

3:17:40:592 Nachm. 03/28/17 - $GNGSA,A,2,10,12,13,15,17,18,19,24,,,,,1.1,0.8,0.8*28

3:17:40:592 Nachm. 03/28/17 - $GNGSA,A,2,65,71,72,73,,,,,,,,,1.1,0.8,0.8*29

3:17:41:585 Nachm. 03/28/17 - $GPGSV,3,1,12,10,16,293,29,12,45,233,14,13,17,160,21,15,39,191,27*7A

3:17:41:586 Nachm. 03/28/17 - $GPGSV,3,2,12,17,39,064,14,18,12,267,18,19,46,095,18,24,75,285,24*72

3:17:41:589 Nachm. 03/28/17 - $GPGSV,3,3,12,25,05,239,16,32,09,320,21,01,05,015,,28,05,056,*71

3:17:41:599 Nachm. 03/28/17 - $GLGSV,3,1,10,74,39,285,10,82,33,045,19,73,66,045,26,65,18,334,28*67

3:17:41:599 Nachm. 03/28/17 - $GLGSV,3,2,10,83,34,113,19,71,23,223,22,72,40,282,23,80,21,080,*6D

3:17:41:600 Nachm. 03/28/17 - $GLGSV,3,3,10,84,01,157,,81,03,007,*67

3:17:41:601 Nachm. 03/28/17 - $GPGGA,131737.0,5208.414444,N,01138.728036,E,1,08,0.8,61.0,M,45.0,M,,*63

3:17:41:601 Nachm. 03/28/17 - $GNGNS,131737.0,5208.414444,N,01138.728036,E,AA,13,0.8,61.0,45.0,,*5D

3:17:41:602 Nachm. 03/28/17 - $GPVTG,74.3,T,73.8,M,0.0,N,0.0,K,A*2F

3:17:41:602 Nachm. 03/28/17 - $GPRMC,131737.0,A,5208.414444,N,01138.728036,E,0.0,74.3,280317,0.4,E,A*37

3:17:41:602 Nachm. 03/28/17 - $GPGSA,A,2,10,12,13,15,17,18,19,24,,,,,1.1,0.8,0.8*36

3:17:41:603 Nachm. 03/28/17 - $GNGSA,A,2,10,12,13,15,17,18,19,24,,,,,1.1,0.8,0.8*28

3:17:41:603 Nachm. 03/28/17 - $GNGSA,A,2,65,71,72,73,74,,,,,,,,1.1,0.8,0.8*2A

3:17:42:584 Nachm. 03/28/17 - $GPGSV,3,1,12,10,16,293,30,12,45,233,15,13,17,160,19,15,39,191,27*78

3:17:42:585 Nachm. 03/28/17 - $GPGSV,3,2,12,17,39,064,14,18,12,267,22,19,46,095,18,24,75,285,17*7B

3:17:42:586 Nachm. 03/28/17 - $GPGSV,3,3,12,25,05,239,16,32,09,320,21,01,05,015,,28,05,056,*71

3:17:42:595 Nachm. 03/28/17 - $GLGSV,3,1,10,74,39,285,19,82,33,045,19,73,66,045,25,65,18,334,28*6D

3:17:42:600 Nachm. 03/28/17 - $GLGSV,3,2,10,83,34,113,19,71,23,223,26,72,40,282,26,80,21,080,*6C

3:17:42:600 Nachm. 03/28/17 - $GLGSV,3,3,10,84,01,157,,81,03,007,*67

3:17:42:600 Nachm. 03/28/17 - $GPGGA,131738.0,5208.414456,N,01138.727980,E,1,07,0.9,61.1,M,45.0,M,,*6B

3:17:42:601 Nachm. 03/28/17 - $GNGNS,131738.0,5208.414456,N,01138.727980,E,AA,12,0.9,61.1,45.0,,*5B

3:17:42:601 Nachm. 03/28/17 - $GPVTG,74.3,T,73.8,M,0.0,N,0.0,K,A*2F

3:17:42:601 Nachm. 03/28/17 - $GPRMC,131738.0,A,5208.414456,N,01138.727980,E,0.0,74.3,280317,0.4,E,A*30

3:17:42:601 Nachm. 03/28/17 - $GPGSA,A,2,10,12,13,15,18,19,24,,,,,,1.2,0.9,0.8*32

3:17:42:601 Nachm. 03/28/17 - $GNGSA,A,2,10,12,13,15,18,19,24,,,,,,1.2,0.9,0.8*2C

3:17:42:602 Nachm. 03/28/17 - $GNGSA,A,2,65,71,72,73,74,,,,,,,,1.2,0.9,0.8*28

3:17:43:583 Nachm. 03/28/17 - $GPGSV,3,1,12,10,16,293,29,12,45,233,15,13,17,160,18,15,39,191,27*71

3:17:43:584 Nachm. 03/28/17 - $GPGSV,3,2,12,17,39,064,12,18,12,267,22,19,46,095,15,24,75,285,17*70

3:17:43:588 Nachm. 03/28/17 - $GPGSV,3,3,12,25,05,239,16,32,09,320,23,01,05,015,,28,05,056,*73

3:17:43:589 Nachm. 03/28/17 - $GLGSV,3,1,10,74,39,285,24,82,33,045,19,73,66,045,25,65,18,334,29*62

3:17:43:590 Nachm. 03/28/17 - $GLGSV,3,2,10,83,34,113,19,71,23,223,27,72,40,282,28,80,21,080,*63

3:17:43:591 Nachm. 03/28/17 - $GLGSV,3,3,10,84,01,157,,81,03,007,*67

3:17:43:592 Nachm. 03/28/17 - $GPGGA,131739.0,5208.414463,N,01138.727934,E,1,08,0.8,61.1,M,45.0,M,,*6D

3:17:43:592 Nachm. 03/28/17 - $GNGNS,131739.0,5208.414463,N,01138.727934,E,AA,13,0.8,61.1,45.0,,*53

3:17:43:593 Nachm. 03/28/17 - $GPVTG,74.3,T,73.8,M,0.0,N,0.0,K,A*2F

3:17:43:597 Nachm. 03/28/17 - $GPRMC,131739.0,A,5208.414463,N,01138.727934,E,0.0,74.3,280317,0.4,E,A*38

3:17:43:598 Nachm. 03/28/17 - $GPGSA,A,2,10,12,13,15,17,18,19,24,,,,,1.1,0.8,0.8*36

3:17:43:598 Nachm. 03/28/17 - $GNGSA,A,2,10,12,13,15,17,18,19,24,,,,,1.1,0.8,0.8*28

3:17:43:599 Nachm. 03/28/17 - $GNGSA,A,2,65,71,72,73,74,,,,,,,,1.1,0.8,0.8*2A

3:17:44:585 Nachm. 03/28/17 - $GPGSV,3,1,12,10,16,293,30,12,45,233,15,13,17,160,18,15,39,191,25*7B

3:17:44:585 Nachm. 03/28/17 - $GPGSV,3,2,12,17,39,064,12,18,12,267,24,19,46,095,18,24,75,285,16*7A

3:17:44:586 Nachm. 03/28/17 - $GPGSV,3,3,12,25,05,239,16,32,09,320,23,01,05,015,,28,05,056,*73

3:17:44:600 Nachm. 03/28/17 - $GLGSV,3,1,10,74,39,285,24,82,33,045,19,73,66,045,26,65,18,334,28*60

3:17:44:608 Nachm. 03/28/17 - $GLGSV,3,2,10,83,34,113,19,71,23,223,25,72,40,282,27,80,21,080,*6E

3:17:44:609 Nachm. 03/28/17 - $GLGSV,3,3,10,84,01,157,,81,03,007,*67

3:17:44:610 Nachm. 03/28/17 - $GPGGA,131740.0,5208.414470,N,01138.727904,E,1,08,0.8,61.2,M,45.0,M,,*61

3:17:44:617 Nachm. 03/28/17 - $GNGNS,131740.0,5208.414470,N,01138.727904,E,AA,13,0.8,61.2,45.0,,*5F

3:17:44:617 Nachm. 03/28/17 - $GPVTG,74.3,T,73.8,M,0.0,N,0.0,K,A*2F

3:17:44:618 Nachm. 03/28/17 - $GPRMC,131740.0,A,5208.414470,N,01138.727904,E,0.0,74.3,280317,0.4,E,A*37

3:17:44:618 Nachm. 03/28/17 - $GPGSA,A,2,10,12,13,15,17,18,19,24,,,,,1.1,0.8,0.8*36

3:17:44:619 Nachm. 03/28/17 - $GNGSA,A,2,10,12,13,15,17,18,19,24,,,,,1.1,0.8,0.8*28

3:17:44:620 Nachm. 03/28/17 - $GNGSA,A,2,65,71,72,73,74,,,,,,,,1.1,0.8,0.8*2A

3:17:45:584 Nachm. 03/28/17 - $GPGSV,3,1,12,10,16,293,24,12,45,233,18,13,17,160,18,15,39,191,18*7D

3:17:45:586 Nachm. 03/28/17 - $GPGSV,3,2,12,17,39,064,12,18,12,267,23,19,46,095,18,24,75,285,29*71

3:17:45:589 Nachm. 03/28/17 - $GPGSV,3,3,12,25,05,239,16,32,09,320,19,01,05,015,,28,05,056,*7A

3:17:45:597 Nachm. 03/28/17 - $GLGSV,3,1,10,74,39,285,16,82,33,045,19,73,66,045,27,65,18,334,27*6F

3:17:45:602 Nachm. 03/28/17 - $GLGSV,3,2,10,83,34,113,19,71,23,223,22,72,40,282,21,80,21,080,*6F

3:17:45:603 Nachm. 03/28/17 - $GLGSV,3,3,10,84,01,157,,81,03,007,*67

3:17:45:603 Nachm. 03/28/17 - $GPGGA,131741.0,5208.414470,N,01138.727891,E,1,08,0.8,61.2,M,45.0,M,,*6D

3:17:45:604 Nachm. 03/28/17 - $GNGNS,131741.0,5208.414470,N,01138.727891,E,AA,13,0.8,61.2,45.0,,*53

3:17:45:605 Nachm. 03/28/17 - $GPVTG,74.3,T,73.8,M,0.0,N,0.0,K,A*2F

3:17:45:605 Nachm. 03/28/17 - $GPRMC,131741.0,A,5208.414470,N,01138.727891,E,0.0,74.3,280317,0.4,E,A*3B

3:17:45:606 Nachm. 03/28/17 - $GPGSA,A,2,10,12,13,15,17,18,19,24,,,,,1.1,0.8,0.8*36

3:17:45:606 Nachm. 03/28/17 - $GNGSA,A,2,10,12,13,15,17,18,19,24,,,,,1.1,0.8,0.8*28

3:17:45:607 Nachm. 03/28/17 - $GNGSA,A,2,65,71,72,73,74,,,,,,,,1.1,0.8,0.8*2A

3:17:46:584 Nachm. 03/28/17 - $GPGSV,3,1,12,10,16,293,23,12,45,233,20,13,17,160,18,15,39,191,18*71

3:17:46:585 Nachm. 03/28/17 - $GPGSV,3,2,12,17,39,064,12,18,12,267,22,19,46,095,18,24,75,285,29*70

3:17:46:588 Nachm. 03/28/17 - $GPGSV,3,3,12,25,05,239,16,32,09,320,20,01,05,015,,28,05,056,*70

3:17:46:608 Nachm. 03/28/17 - $GLGSV,3,1,10,74,39,285,20,82,33,045,19,73,66,045,27,65,18,334,26*6B

3:17:46:609 Nachm. 03/28/17 - $GLGSV,3,2,10,83,34,113,19,71,23,223,21,72,40,282,23,80,21,080,*6E

3:17:46:609 Nachm. 03/28/17 - $GLGSV,3,3,10,84,01,157,,81,03,007,*67

3:17:46:609 Nachm. 03/28/17 - $GPGGA,131742.0,5208.414470,N,01138.727901,E,1,08,0.8,61.2,M,45.0,M,,*66

3:17:46:609 Nachm. 03/28/17 - $GNGNS,131742.0,5208.414470,N,01138.727901,E,AA,13,0.8,61.2,45.0,,*58

3:17:46:609 Nachm. 03/28/17 - $GPVTG,74.3,T,73.8,M,0.0,N,0.0,K,A*2F

3:17:46:610 Nachm. 03/28/17 - $GPRMC,131742.0,A,5208.414470,N,01138.727901,E,0.0,74.3,280317,0.4,E,A*30

3:17:46:610 Nachm. 03/28/17 - $GPGSA,A,2,10,12,13,15,17,18,19,24,,,,,1.1,0.8,0.8*36

3:17:46:610 Nachm. 03/28/17 - $GNGSA,A,2,10,12,13,15,17,18,19,24,,,,,1.1,0.8,0.8*28

3:17:46:610 Nachm. 03/28/17 - $GNGSA,A,2,65,71,72,73,74,,,,,,,,1.1,0.8,0.8*2A

3:17:47:584 Nachm. 03/28/17 - $GPGSV,3,1,12,10,16,293,21,12,45,233,20,13,17,160,18,15,39,191,18*73

3:17:47:585 Nachm. 03/28/17 - $GPGSV,3,2,12,17,39,064,12,18,12,267,21,19,46,095,18,24,75,285,29*73

3:17:47:586 Nachm. 03/28/17 - $GPGSV,3,3,12,25,05,239,16,32,09,320,20,01,05,015,,28,05,056,*70

3:17:47:591 Nachm. 03/28/17 - $GLGSV,3,1,10,74,39,285,21,82,33,045,19,73,66,045,27,65,18,334,27*6B

3:17:47:606 Nachm. 03/28/17 - $GLGSV,3,2,10,83,34,113,19,71,23,223,22,72,40,282,22,80,21,080,*6C

3:17:47:608 Nachm. 03/28/17 - $GLGSV,3,3,10,84,01,157,,81,03,007,*67

3:17:47:610 Nachm. 03/28/17 - $GPGGA,131743.0,5208.414470,N,01138.727899,E,1,08,0.8,61.2,M,45.0,M,,*67

3:17:47:611 Nachm. 03/28/17 - $GNGNS,131743.0,5208.414470,N,01138.727899,E,AA,13,0.8,61.2,45.0,,*59

3:17:47:611 Nachm. 03/28/17 - $GPVTG,74.3,T,73.8,M,0.0,N,0.0,K,A*2F

3:17:47:612 Nachm. 03/28/17 - $GPRMC,131743.0,A,5208.414470,N,01138.727899,E,0.0,74.3,280317,0.4,E,A*31

3:17:47:612 Nachm. 03/28/17 - $GPGSA,A,2,10,12,13,15,17,18,19,24,,,,,1.1,0.8,0.8*36

3:17:47:613 Nachm. 03/28/17 - $GNGSA,A,2,10,12,13,15,17,18,19,24,,,,,1.1,0.8,0.8*28

3:17:47:613 Nachm. 03/28/17 - $GNGSA,A,2,65,71,72,73,74,,,,,,,,1.1,0.8,0.8*2A

3:17:48:584 Nachm. 03/28/17 - $GPGSV,3,1,12,10,16,293,20,12,45,233,20,13,17,160,18,15,39,191,18*72

3:17:48:585 Nachm. 03/28/17 - $GPGSV,3,2,12,17,39,064,12,18,12,267,21,19,46,095,18,24,75,285,30*7B

3:17:48:585 Nachm. 03/28/17 - $GPGSV,3,3,12,25,05,239,16,32,09,320,19,01,05,015,,28,05,056,*7A

3:17:48:590 Nachm. 03/28/17 - $GLGSV,3,1,10,74,39,285,21,82,33,045,19,73,66,045,28,65,18,334,26*65

3:17:48:597 Nachm. 03/28/17 - $GLGSV,3,2,10,83,34,113,19,71,23,223,22,72,40,282,23,80,21,080,*6D

3:17:48:598 Nachm. 03/28/17 - $GLGSV,3,3,10,84,01,157,,81,03,007,*67

3:17:48:598 Nachm. 03/28/17 - $GPGGA,131744.0,5208.414469,N,01138.727899,E,1,08,0.8,61.2,M,45.0,M,,*68

3:17:48:601 Nachm. 03/28/17 - $GNGNS,131744.0,5208.414469,N,01138.727899,E,AA,13,0.8,61.2,45.0,,*56

3:17:48:607 Nachm. 03/28/17 - $GPVTG,74.3,T,73.8,M,0.0,N,0.0,K,A*2F

3:17:48:607 Nachm. 03/28/17 - $GPRMC,131744.0,A,5208.414469,N,01138.727899,E,0.0,74.3,280317,0.4,E,A*3E

3:17:48:608 Nachm. 03/28/17 - $GPGSA,A,2,10,12,13,15,17,18,19,24,,,,,1.1,0.8,0.8*36

3:17:48:608 Nachm. 03/28/17 - $GNGSA,A,2,10,12,13,15,17,18,19,24,,,,,1.1,0.8,0.8*28

3:17:48:608 Nachm. 03/28/17 - $GNGSA,A,2,65,71,72,73,74,,,,,,,,1.1,0.8,0.8*2A

3:17:49:582 Nachm. 03/28/17 - $GPGSV,3,1,12,10,16,293,26,12,45,233,18,13,17,160,18,15,39,191,14*73

3:17:49:584 Nachm. 03/28/17 - $GPGSV,3,2,12,17,39,064,14,18,12,267,21,19,46,095,18,24,75,285,30*7D

3:17:49:584 Nachm. 03/28/17 - $GPGSV,3,3,12,25,05,239,16,32,09,320,19,01,05,015,,28,05,056,*7A

3:17:49:595 Nachm. 03/28/17 - $GLGSV,3,1,10,74,39,285,21,82,33,045,19,73,66,045,26,65,18,334,26*6B

3:17:49:596 Nachm. 03/28/17 - $GLGSV,3,2,10,83,34,113,19,71,23,223,22,72,40,282,22,80,21,080,*6C

3:17:49:598 Nachm. 03/28/17 - $GLGSV,3,3,10,84,01,157,,81,03,007,*67

3:17:49:599 Nachm. 03/28/17 - $GPGGA,131745.0,5208.414466,N,01138.727866,E,1,08,0.8,61.2,M,45.0,M,,*66

3:17:49:599 Nachm. 03/28/17 - $GNGNS,131745.0,5208.414466,N,01138.727866,E,AA,13,0.8,61.2,45.0,,*58

3:17:49:600 Nachm. 03/28/17 - $GPVTG,74.3,T,73.8,M,0.0,N,0.0,K,A*2F

3:17:49:601 Nachm. 03/28/17 - $GPRMC,131745.0,A,5208.414466,N,01138.727866,E,0.0,74.3,280317,0.4,E,A*30

3:17:49:602 Nachm. 03/28/17 - $GPGSA,A,2,10,12,13,15,17,18,19,24,,,,,1.1,0.8,0.8*36

3:17:49:602 Nachm. 03/28/17 - $GNGSA,A,2,10,12,13,15,17,18,19,24,,,,,1.1,0.8,0.8*28

3:17:49:603 Nachm. 03/28/17 - $GNGSA,A,2,65,71,72,73,74,,,,,,,,1.1,0.8,0.8*2A

3:17:50:584 Nachm. 03/28/17 - $GPGSV,3,1,12,10,16,293,27,12,45,233,18,13,17,160,18,15,39,191,19*7F

3:17:50:585 Nachm. 03/28/17 - $GPGSV,3,2,12,17,39,064,14,18,12,267,21,19,46,095,18,24,75,285,27*7B

3:17:50:585 Nachm. 03/28/17 - $GPGSV,3,3,12,25,05,239,16,32,09,320,21,01,05,015,,28,05,056,*71

3:17:50:591 Nachm. 03/28/17 - $GLGSV,3,1,10,74,39,285,23,82,33,045,19,73,66,045,24,65,18,334,28*65

3:17:50:594 Nachm. 03/28/17 - $GLGSV,3,2,10,83,34,113,19,71,23,223,21,72,40,282,23,80,21,080,*6E

3:17:50:594 Nachm. 03/28/17 - $GLGSV,3,3,10,84,01,157,,81,03,007,*67

3:17:50:594 Nachm. 03/28/17 - $GPGGA,131746.0,5208.414462,N,01138.727860,E,1,07,0.9,61.2,M,45.0,M,,*69

3:17:50:595 Nachm. 03/28/17 - $GNGNS,131746.0,5208.414462,N,01138.727860,E,AA,12,0.9,61.2,45.0,,*59

3:17:50:595 Nachm. 03/28/17 - $GPVTG,74.3,T,73.8,M,0.0,N,0.0,K,A*2F

3:17:50:595 Nachm. 03/28/17 - $GPRMC,131746.0,A,5208.414462,N,01138.727860,E,0.0,74.3,280317,0.4,E,A*31

3:17:50:595 Nachm. 03/28/17 - $GPGSA,A,2,10,12,15,17,18,19,24,,,,,,1.2,0.9,0.8*36

3:17:50:595 Nachm. 03/28/17 - $GNGSA,A,2,10,12,15,17,18,19,24,,,,,,1.2,0.9,0.8*28

3:17:50:596 Nachm. 03/28/17 - $GNGSA,A,2,65,71,72,73,74,,,,,,,,1.2,0.9,0.8*28

3:17:51:582 Nachm. 03/28/17 - $GPGSV,3,1,12,10,16,293,28,12,45,233,16,13,17,160,18,15,39,191,20*74

3:17:51:583 Nachm. 03/28/17 - $GPGSV,3,2,12,17,39,064,19,18,12,267,21,19,46,095,14,24,75,285,26*7B

3:17:51:583 Nachm. 03/28/17 - $GPGSV,3,3,12,25,05,239,16,32,09,320,23,01,05,015,,28,05,056,*73

3:17:51:585 Nachm. 03/28/17 - $GLGSV,3,1,10,74,39,285,23,73,66,045,24,65,18,334,29,83,34,113,19*60

3:17:51:591 Nachm. 03/28/17 - $GLGSV,3,2,10,71,23,223,21,72,40,282,24,,33,045,,80,21,080,*6F

3:17:51:591 Nachm. 03/28/17 - $GLGSV,3,3,10,84,01,157,,81,03,007,*67

3:17:51:592 Nachm. 03/28/17 - $GPGGA,131747.0,5208.414454,N,01138.727785,E,1,07,0.9,61.3,M,45.0,M,,*68

3:17:51:592 Nachm. 03/28/17 - $GNGNS,131747.0,5208.414454,N,01138.727785,E,AA,12,0.9,61.3,45.0,,*58

3:17:51:592 Nachm. 03/28/17 - $GPVTG,74.3,T,73.8,M,0.0,N,0.0,K,A*2F

3:17:51:592 Nachm. 03/28/17 - $GPRMC,131747.0,A,5208.414454,N,01138.727785,E,0.0,74.3,280317,0.4,E,A*31

3:17:51:593 Nachm. 03/28/17 - $GPGSA,A,2,10,12,15,17,18,19,24,,,,,,1.2,0.9,0.8*36

3:17:51:593 Nachm. 03/28/17 - $GNGSA,A,2,10,12,15,17,18,19,24,,,,,,1.2,0.9,0.8*28

3:17:51:593 Nachm. 03/28/17 - $GNGSA,A,2,65,71,72,73,74,,,,,,,,1.2,0.9,0.8*28

3:17:52:583 Nachm. 03/28/17 - $GPGSV,3,1,12,10,16,293,29,12,45,233,16,13,17,160,18,15,39,191,25*70

3:17:52:584 Nachm. 03/28/17 - $GPGSV,3,2,12,17,39,064,19,18,12,267,19,19,46,095,14,24,75,285,23*75

3:17:52:584 Nachm. 03/28/17 - $GPGSV,3,3,12,25,05,239,13,32,09,320,23,01,05,015,,28,05,056,*76

3:17:52:587 Nachm. 03/28/17 - $GLGSV,3,1,10,74,39,285,22,73,66,045,27,65,18,334,27,83,34,113,19*6C

3:17:52:587 Nachm. 03/28/17 - $GLGSV,3,2,10,71,23,223,21,72,40,282,23,82,33,045,,80,21,080,*62

3:17:52:588 Nachm. 03/28/17 - $GLGSV,3,3,10,84,01,157,,81,03,007,*67

3:17:52:588 Nachm. 03/28/17 - $GPGGA,131748.0,5208.414456,N,01138.727790,E,1,07,0.9,61.3,M,45.0,M,,*61

3:17:52:588 Nachm. 03/28/17 - $GNGNS,131748.0,5208.414456,N,01138.727790,E,AA,12,0.9,61.3,45.0,,*51

3:17:52:588 Nachm. 03/28/17 - $GPVTG,74.3,T,73.8,M,0.0,N,0.0,K,A*2F

3:17:52:588 Nachm. 03/28/17 - $GPRMC,131748.0,A,5208.414456,N,01138.727790,E,0.0,74.3,280317,0.4,E,A*38

3:17:52:588 Nachm. 03/28/17 - $GPGSA,A,2,10,12,15,17,18,19,24,,,,,,1.2,0.9,0.8*36

3:17:52:588 Nachm. 03/28/17 - $GNGSA,A,2,10,12,15,17,18,19,24,,,,,,1.2,0.9,0.8*28

3:17:52:588 Nachm. 03/28/17 - $GNGSA,A,2,65,71,72,73,74,,,,,,,,1.2,0.9,0.8*28


