2:54:41:585 Nachm. 03/28/17 - $GPGSV,3,1,11,01,05,025,18,10,18,303,14,12,35,227,29,13,27,158,29*75

2:54:41:586 Nachm. 03/28/17 - $GPGSV,3,2,11,15,49,196,26,17,41,077,28,19,41,109,28,24,64,286,26*71

2:54:41:586 Nachm. 03/28/17 - $GPGSV,3,3,11,28,14,053,18,18,17,275,,32,01,322,*45

2:54:41:592 Nachm. 03/28/17 - $GLGSV,1,1,04,82,35,060,24,,,,22,71,35,229,25,65,10,341,*57

2:54:41:592 Nachm. 03/28/17 - $GPGGA,125437.0,5208.438024,N,01138.507799,E,1,07,1.2,83.4,M,45.0,M,,*68

2:54:41:592 Nachm. 03/28/17 - $GNGNS,125437.0,5208.438024,N,01138.507799,E,AA,09,1.2,83.4,45.0,,*52

2:54:41:592 Nachm. 03/28/17 - $GPVTG,132.5,T,132.1,M,0.0,N,0.0,K,A*27

2:54:41:592 Nachm. 03/28/17 - $GPRMC,125437.0,A,5208.438024,N,01138.507799,E,0.0,132.5,280317,0.4,E,A*05

2:54:41:593 Nachm. 03/28/17 - $GPGSA,A,2,12,13,15,17,19,24,28,,,,,,1.5,1.2,0.9*3A

2:54:41:594 Nachm. 03/28/17 - $GNGSA,A,2,12,13,15,17,19,24,28,,,,,,1.5,1.2,0.9*24

2:54:41:595 Nachm. 03/28/17 - $GNGSA,A,2,71,82,,,,,,,,,,,1.5,1.2,0.9*2F

2:54:42:586 Nachm. 03/28/17 - $GPGSV,3,1,11,01,05,025,23,10,18,303,14,12,35,227,29,13,27,158,28*7C

2:54:42:587 Nachm. 03/28/17 - $GPGSV,3,2,11,15,49,196,35,17,41,077,20,19,41,109,27,24,64,286,28*7A

2:54:42:587 Nachm. 03/28/17 - $GPGSV,3,3,11,28,14,053,13,18,17,275,,32,01,322,*4E

2:54:42:588 Nachm. 03/28/17 - $GLGSV,1,1,04,82,35,060,23,,,,26,71,35,229,27,65,10,341,*56

2:54:42:589 Nachm. 03/28/17 - $GPGGA,125438.0,5208.438009,N,01138.508506,E,1,07,1.2,83.6,M,45.0,M,,*61

2:54:42:592 Nachm. 03/28/17 - $GNGNS,125438.0,5208.438009,N,01138.508506,E,AA,09,1.2,83.6,45.0,,*5B

2:54:42:593 Nachm. 03/28/17 - $GPVTG,132.5,T,132.1,M,0.0,N,0.0,K,A*27

2:54:42:593 Nachm. 03/28/17 - $GPRMC,125438.0,A,5208.438009,N,01138.508506,E,0.0,132.5,280317,0.4,E,A*0E

2:54:42:594 Nachm. 03/28/17 - $GPGSA,A,2,12,13,15,17,19,24,28,,,,,,1.5,1.2,0.9*3A

2:54:42:595 Nachm. 03/28/17 - $GNGSA,A,2,12,13,15,17,19,24,28,,,,,,1.5,1.2,0.9*24

2:54:42:596 Nachm. 03/28/17 - $GNGSA,A,2,71,82,,,,,,,,,,,1.5,1.2,0.9*2F

2:54:43:588 Nachm. 03/28/17 - $GPGSV,3,1,11,01,05,025,23,10,18,303,14,12,35,227,29,13,27,158,30*75

2:54:43:590 Nachm. 03/28/17 - $GPGSV,3,2,11,15,49,196,36,17,41,077,24,19,41,109,30,24,64,286,28*7B

2:54:43:590 Nachm. 03/28/17 - $GPGSV,3,3,11,28,14,053,13,18,17,275,,32,01,322,*4E

2:54:43:590 Nachm. 03/28/17 - $GLGSV,1,1,04,82,35,060,26,,,,28,71,35,229,27,65,10,341,*5D

2:54:43:590 Nachm. 03/28/17 - $GPGGA,125439.0,5208.438773,N,01138.506910,E,1,07,1.2,79.7,M,45.0,M,,*6B

2:54:43:591 Nachm. 03/28/17 - $GNGNS,125439.0,5208.438773,N,01138.506910,E,AA,09,1.2,79.7,45.0,,*51

2:54:43:598 Nachm. 03/28/17 - $GPVTG,132.5,T,132.1,M,0.0,N,0.0,K,A*27

2:54:43:600 Nachm. 03/28/17 - $GPRMC,125439.0,A,5208.438773,N,01138.506910,E,0.0,132.5,280317,0.4,E,A*00

2:54:43:601 Nachm. 03/28/17 - $GPGSA,A,2,12,13,15,17,19,24,28,,,,,,1.5,1.2,0.9*3A

2:54:43:602 Nachm. 03/28/17 - $GNGSA,A,2,12,13,15,17,19,24,28,,,,,,1.5,1.2,0.9*24

2:54:43:603 Nachm. 03/28/17 - $GNGSA,A,2,71,82,,,,,,,,,,,1.5,1.2,0.9*2F

2:54:44:590 Nachm. 03/28/17 - $GPGSV,3,1,11,01,05,025,23,10,18,303,15,12,35,227,28,13,27,158,30*75

2:54:44:591 Nachm. 03/28/17 - $GPGSV,3,2,11,15,49,196,36,17,41,077,23,18,17,275,22,19,41,109,29*79

2:54:44:592 Nachm. 03/28/17 - $GPGSV,3,3,11,24,64,286,27,28,14,053,13,32,01,322,*4C

2:54:44:594 Nachm. 03/28/17 - $GLGSV,2,1,05,82,35,060,26,,,,27,71,35,229,27,,,,26*60

2:54:44:596 Nachm. 03/28/17 - $GLGSV,2,2,05,65,10,341,*54

2:54:44:597 Nachm. 03/28/17 - $GPGGA,125440.0,5208.439295,N,01138.506377,E,1,08,0.9,78.7,M,45.0,M,,*66

2:54:44:597 Nachm. 03/28/17 - $GNGNS,125440.0,5208.439295,N,01138.506377,E,AA,10,0.9,78.7,45.0,,*5B

2:54:44:598 Nachm. 03/28/17 - $GPVTG,132.5,T,132.1,M,0.0,N,0.0,K,A*27

2:54:44:598 Nachm. 03/28/17 - $GPRMC,125440.0,A,5208.439295,N,01138.506377,E,0.0,132.5,280317,0.4,E,A*09

2:54:44:598 Nachm. 03/28/17 - $GPGSA,A,2,12,13,15,17,18,19,24,28,,,,,1.3,0.9,0.9*3F

2:54:44:598 Nachm. 03/28/17 - $GNGSA,A,2,12,13,15,17,18,19,24,28,,,,,1.3,0.9,0.9*21

2:54:44:598 Nachm. 03/28/17 - $GNGSA,A,2,71,82,,,,,,,,,,,1.3,0.9,0.9*23

2:54:45:587 Nachm. 03/28/17 - $GPGSV,3,1,11,01,05,025,23,10,18,303,15,12,35,227,28,13,27,158,30*75

2:54:45:588 Nachm. 03/28/17 - $GPGSV,3,2,11,15,49,196,35,17,41,077,22,18,17,275,21,19,41,109,29*78

2:54:45:588 Nachm. 03/28/17 - $GPGSV,3,3,11,24,64,286,26,28,14,053,13,32,01,322,*4D

2:54:45:590 Nachm. 03/28/17 - $GLGSV,2,1,06,82,35,060,26,,,,27,,,,27,71,35,229,26*63

2:54:45:593 Nachm. 03/28/17 - $GLGSV,2,2,06,,,,28,65,10,341,*5D

2:54:45:593 Nachm. 03/28/17 - $GPGGA,125441.0,5208.441138,N,01138.505106,E,1,08,0.9,73.3,M,45.0,M,,*64

2:54:45:594 Nachm. 03/28/17 - $GNGNS,125441.0,5208.441138,N,01138.505106,E,AA,10,0.9,73.3,45.0,,*59

2:54:45:594 Nachm. 03/28/17 - $GPVTG,132.5,T,132.1,M,0.0,N,0.0,K,A*27

2:54:45:594 Nachm. 03/28/17 - $GPRMC,125441.0,A,5208.441138,N,01138.505106,E,0.0,132.5,280317,0.4,E,A*04

2:54:45:596 Nachm. 03/28/17 - $GPGSA,A,2,12,13,15,17,18,19,24,28,,,,,1.3,0.9,0.9*3F

2:54:45:599 Nachm. 03/28/17 - $GNGSA,A,2,12,13,15,17,18,19,24,28,,,,,1.3,0.9,0.9*21

2:54:45:600 Nachm. 03/28/17 - $GNGSA,A,2,71,82,,,,,,,,,,,1.3,0.9,0.9*23

2:54:46:585 Nachm. 03/28/17 - $GPGSV,3,1,11,01,05,025,22,10,18,303,14,12,35,227,29,13,27,158,30*74

2:54:46:586 Nachm. 03/28/17 - $GPGSV,3,2,11,15,49,196,35,17,41,077,22,19,41,109,29,24,64,286,26*78

2:54:46:589 Nachm. 03/28/17 - $GPGSV,3,3,11,28,14,053,13,18,17,275,,32,01,322,*4E

2:54:46:589 Nachm. 03/28/17 - $GLGSV,2,1,06,82,35,060,27,,,,27,,,,29,71,35,229,26*6C

2:54:46:589 Nachm. 03/28/17 - $GLGSV,2,2,06,,,,25,65,10,341,*50

2:54:46:591 Nachm. 03/28/17 - $GPGGA,125442.0,5208.441305,N,01138.504879,E,1,08,0.9,73.3,M,45.0,M,,*6B

2:54:46:592 Nachm. 03/28/17 - $GNGNS,125442.0,5208.441305,N,01138.504879,E,AA,10,0.9,73.3,45.0,,*56

2:54:46:593 Nachm. 03/28/17 - $GPVTG,132.5,T,132.1,M,0.0,N,0.0,K,A*27

2:54:46:593 Nachm. 03/28/17 - $GPRMC,125442.0,A,5208.441305,N,01138.504879,E,0.0,132.5,280317,0.4,E,A*0B

2:54:46:593 Nachm. 03/28/17 - $GPGSA,A,2,12,13,15,17,18,19,24,28,,,,,1.3,0.9,0.9*3F

2:54:46:594 Nachm. 03/28/17 - $GNGSA,A,2,12,13,15,17,18,19,24,28,,,,,1.3,0.9,0.9*21

2:54:46:594 Nachm. 03/28/17 - $GNGSA,A,2,71,82,,,,,,,,,,,1.3,0.9,0.9*23

2:54:47:586 Nachm. 03/28/17 - $GPGSV,3,1,11,01,05,025,24,10,18,303,14,12,35,227,30,13,27,158,31*7B

2:54:47:588 Nachm. 03/28/17 - $GPGSV,3,2,11,15,49,196,36,17,41,077,22,18,17,275,22,19,41,109,30*70

2:54:47:588 Nachm. 03/28/17 - $GPGSV,3,3,11,24,64,286,26,28,14,053,13,32,01,322,*4D

2:54:47:588 Nachm. 03/28/17 - $GLGSV,2,1,06,82,35,060,26,,,,28,,,,29,71,35,229,26*62

2:54:47:588 Nachm. 03/28/17 - $GLGSV,2,2,06,,,,26,65,10,341,*53

2:54:47:589 Nachm. 03/28/17 - $GPGGA,125443.0,5208.442245,N,01138.504456,E,1,08,0.9,70.5,M,45.0,M,,*68

2:54:47:591 Nachm. 03/28/17 - $GNGNS,125443.0,5208.442245,N,01138.504456,E,AA,10,0.9,70.5,45.0,,*55

2:54:47:592 Nachm. 03/28/17 - $GPVTG,132.5,T,132.1,M,0.0,N,0.0,K,A*27

2:54:47:592 Nachm. 03/28/17 - $GPRMC,125443.0,A,5208.442245,N,01138.504456,E,0.0,132.5,280317,0.4,E,A*0D

2:54:47:592 Nachm. 03/28/17 - $GPGSA,A,2,12,13,15,17,18,19,24,28,,,,,1.3,0.9,0.9*3F

2:54:47:592 Nachm. 03/28/17 - $GNGSA,A,2,12,13,15,17,18,19,24,28,,,,,1.3,0.9,0.9*21

2:54:47:592 Nachm. 03/28/17 - $GNGSA,A,2,71,82,,,,,,,,,,,1.3,0.9,0.9*23

2:54:48:587 Nachm. 03/28/17 - $GPGSV,3,1,11,01,05,025,24,10,18,303,14,12,35,227,30,13,27,158,31*7B

2:54:48:589 Nachm. 03/28/17 - $GPGSV,3,2,11,15,49,196,36,17,41,077,22,18,17,275,22,19,41,109,30*70

2:54:48:589 Nachm. 03/28/17 - $GPGSV,3,3,11,24,64,286,26,28,14,053,13,32,01,322,*4D

2:54:48:589 Nachm. 03/28/17 - $GLGSV,2,1,06,82,35,060,26,,,,28,,,,29,71,35,229,27*63

2:54:48:599 Nachm. 03/28/17 - $GLGSV,2,2,06,,,,26,65,10,341,*53

2:54:48:600 Nachm. 03/28/17 - $GPGGA,125444.0,5208.442623,N,01138.504546,E,1,08,0.9,69.7,M,45.0,M,,*61

2:54:48:601 Nachm. 03/28/17 - $GNGNS,125444.0,5208.442623,N,01138.504546,E,AA,10,0.9,69.7,45.0,,*5C

2:54:48:602 Nachm. 03/28/17 - $GPVTG,132.5,T,132.1,M,0.0,N,0.0,K,A*27

2:54:48:603 Nachm. 03/28/17 - $GPRMC,125444.0,A,5208.442623,N,01138.504546,E,0.0,132.5,280317,0.4,E,A*0E

2:54:48:604 Nachm. 03/28/17 - $GPGSA,A,2,12,13,15,17,18,19,24,28,,,,,1.3,0.9,0.9*3F

2:54:48:605 Nachm. 03/28/17 - $GNGSA,A,2,12,13,15,17,18,19,24,28,,,,,1.3,0.9,0.9*21

2:54:48:606 Nachm. 03/28/17 - $GNGSA,A,2,71,82,,,,,,,,,,,1.3,0.9,0.9*23

2:54:49:586 Nachm. 03/28/17 - $GPGSV,3,1,11,01,05,025,23,10,18,303,14,12,35,227,30,13,27,158,30*7D

2:54:49:586 Nachm. 03/28/17 - $GPGSV,3,2,11,15,49,196,33,17,41,077,25,18,17,275,22,19,41,109,29*7A

2:54:49:586 Nachm. 03/28/17 - $GPGSV,3,3,11,24,64,286,31,28,14,053,18,32,01,322,*40

2:54:49:588 Nachm. 03/28/17 - $GLGSV,2,1,06,82,35,060,25,,,,22,,,,29,71,35,229,29*64

2:54:49:588 Nachm. 03/28/17 - $GLGSV,2,2,06,,,,23,65,10,341,*56

2:54:49:588 Nachm. 03/28/17 - $GPGGA,125445.0,5208.443884,N,01138.503911,E,1,09,0.8,67.5,M,45.0,M,,*67

2:54:49:588 Nachm. 03/28/17 - $GNGNS,125445.0,5208.443884,N,01138.503911,E,AA,11,0.8,67.5,45.0,,*5A

2:54:49:588 Nachm. 03/28/17 - $GPVTG,132.5,T,132.1,M,0.0,N,0.0,K,A*27

2:54:49:588 Nachm. 03/28/17 - $GPRMC,125445.0,A,5208.443884,N,01138.503911,E,0.0,132.5,280317,0.4,E,A*04

2:54:49:589 Nachm. 03/28/17 - $GPGSA,A,2,10,12,13,15,17,18,19,24,28,,,,1.2,0.8,0.9*3E

2:54:49:589 Nachm. 03/28/17 - $GNGSA,A,2,10,12,13,15,17,18,19,24,28,,,,1.2,0.8,0.9*20

2:54:49:589 Nachm. 03/28/17 - $GNGSA,A,2,71,82,,,,,,,,,,,1.2,0.8,0.9*23

2:54:50:587 Nachm. 03/28/17 - $GPGSV,3,1,11,01,05,025,21,10,18,303,14,12,35,227,28,13,27,158,28*7F

2:54:50:595 Nachm. 03/28/17 - $GPGSV,3,2,11,15,49,196,31,17,41,077,29,18,17,275,22,19,41,109,30*7C

2:54:50:595 Nachm. 03/28/17 - $GPGSV,3,3,11,24,64,286,31,28,14,053,18,32,01,322,*40

2:54:50:596 Nachm. 03/28/17 - $GLGSV,2,1,06,82,35,060,24,,,,23,,,,32,71,35,229,29*6E

2:54:50:604 Nachm. 03/28/17 - $GLGSV,2,2,06,,,,21,65,10,341,*54

2:54:50:604 Nachm. 03/28/17 - $GPGGA,125446.0,5208.443654,N,01138.502759,E,1,09,0.8,66.0,M,45.0,M,,*60

2:54:50:605 Nachm. 03/28/17 - $GNGNS,125446.0,5208.443654,N,01138.502759,E,AA,11,0.8,66.0,45.0,,*5D

2:54:50:608 Nachm. 03/28/17 - $GPVTG,132.5,T,132.1,M,0.0,N,0.0,K,A*27

2:54:50:609 Nachm. 03/28/17 - $GPRMC,125446.0,A,5208.443654,N,01138.502759,E,0.0,132.5,280317,0.4,E,A*07

2:54:50:609 Nachm. 03/28/17 - $GPGSA,A,2,10,12,13,15,17,18,19,24,28,,,,1.2,0.8,0.9*3E

2:54:50:609 Nachm. 03/28/17 - $GNGSA,A,2,10,12,13,15,17,18,19,24,28,,,,1.2,0.8,0.9*20

2:54:50:610 Nachm. 03/28/17 - $GNGSA,A,2,71,82,,,,,,,,,,,1.2,0.8,0.9*23

2:54:51:588 Nachm. 03/28/17 - $GPGSV,3,1,11,01,05,025,26,10,18,303,14,12,35,227,32,13,27,158,31*7B

2:54:51:588 Nachm. 03/28/17 - $GPGSV,3,2,11,15,49,196,33,17,41,077,28,18,17,275,22,19,41,109,29*77

2:54:51:595 Nachm. 03/28/17 - $GPGSV,3,3,11,24,64,286,28,28,14,053,18,32,01,322,*48

2:54:51:597 Nachm. 03/28/17 - $GLGSV,2,1,06,82,35,060,27,,,,23,,,,29,71,35,229,30*6F

2:54:51:603 Nachm. 03/28/17 - $GLGSV,2,2,06,,,,20,65,10,341,*55

2:54:51:604 Nachm. 03/28/17 - $GPGGA,125447.0,5208.444366,N,01138.503032,E,1,09,0.8,67.5,M,45.0,M,,*6D

2:54:51:606 Nachm. 03/28/17 - $GNGNS,125447.0,5208.444366,N,01138.503032,E,AA,11,0.8,67.5,45.0,,*50

2:54:51:607 Nachm. 03/28/17 - $GPVTG,132.5,T,132.1,M,0.0,N,0.0,K,A*27

2:54:51:608 Nachm. 03/28/17 - $GPRMC,125447.0,A,5208.444366,N,01138.503032,E,0.0,132.5,280317,0.4,E,A*0E

2:54:51:610 Nachm. 03/28/17 - $GPGSA,A,2,10,12,13,15,17,18,19,24,28,,,,1.2,0.8,0.9*3E

2:54:51:611 Nachm. 03/28/17 - $GNGSA,A,2,10,12,13,15,17,18,19,24,28,,,,1.2,0.8,0.9*20

2:54:51:615 Nachm. 03/28/17 - $GNGSA,A,2,71,82,,,,,,,,,,,1.2,0.8,0.9*23

2:54:52:586 Nachm. 03/28/17 - $GPGSV,3,1,11,01,05,025,24,10,18,303,14,12,35,227,32,13,27,158,31*79

2:54:52:587 Nachm. 03/28/17 - $GPGSV,3,2,11,15,49,196,33,17,41,077,26,18,17,275,17,19,41,109,30*77

2:54:52:588 Nachm. 03/28/17 - $GPGSV,3,3,11,24,64,286,27,28,14,053,17,32,01,322,*48

2:54:52:588 Nachm. 03/28/17 - $GLGSV,2,1,06,82,35,060,26,,,,24,,,,30,71,35,229,25*65

2:54:52:588 Nachm. 03/28/17 - $GLGSV,2,2,06,,,,22,65,10,341,*57

2:54:52:588 Nachm. 03/28/17 - $GPGGA,125448.0,5208.444697,N,01138.503218,E,1,09,0.8,67.8,M,45.0,M,,*6E

2:54:52:590 Nachm. 03/28/17 - $GNGNS,125448.0,5208.444697,N,01138.503218,E,AA,11,0.8,67.8,45.0,,*53

2:54:52:591 Nachm. 03/28/17 - $GPVTG,132.5,T,132.1,M,0.0,N,0.0,K,A*27

2:54:52:591 Nachm. 03/28/17 - $GPRMC,125448.0,A,5208.444697,N,01138.503218,E,0.0,132.5,280317,0.4,E,A*00

2:54:52:593 Nachm. 03/28/17 - $GPGSA,A,2,10,12,13,15,17,18,19,24,28,,,,1.2,0.8,0.9*3E

2:54:52:594 Nachm. 03/28/17 - $GNGSA,A,2,10,12,13,15,17,18,19,24,28,,,,1.2,0.8,0.9*20

2:54:52:595 Nachm. 03/28/17 - $GNGSA,A,2,71,82,,,,,,,,,,,1.2,0.8,0.9*23

2:54:53:585 Nachm. 03/28/17 - $GPGSV,3,1,11,01,05,025,24,10,18,303,19,12,35,227,32,13,27,158,30*75

2:54:53:586 Nachm. 03/28/17 - $GPGSV,3,2,11,15,49,196,33,17,41,077,25,18,17,275,20,19,41,109,30*70

2:54:53:586 Nachm. 03/28/17 - $GPGSV,3,3,11,24,64,286,27,28,14,053,18,32,01,322,*47

2:54:53:588 Nachm. 03/28/17 - $GLGSV,2,1,06,82,35,060,27,,,,25,,,,29,71,35,229,25*6D

2:54:53:591 Nachm. 03/28/17 - $GLGSV,2,2,06,,,,20,65,10,341,*55

2:54:53:591 Nachm. 03/28/17 - $GPGGA,125449.0,5208.444528,N,01138.503689,E,1,09,0.8,69.6,M,45.0,M,,*64

2:54:53:594 Nachm. 03/28/17 - $GNGNS,125449.0,5208.444528,N,01138.503689,E,AA,11,0.8,69.6,45.0,,*59

2:54:53:594 Nachm. 03/28/17 - $GPVTG,132.5,T,132.1,M,0.0,N,0.0,K,A*27

2:54:53:594 Nachm. 03/28/17 - $GPRMC,125449.0,A,5208.444528,N,01138.503689,E,0.0,132.5,280317,0.4,E,A*0A

2:54:53:598 Nachm. 03/28/17 - $GPGSA,A,2,10,12,13,15,17,18,19,24,28,,,,1.2,0.8,0.9*3E

2:54:53:598 Nachm. 03/28/17 - $GNGSA,A,2,10,12,13,15,17,18,19,24,28,,,,1.2,0.8,0.9*20

2:54:53:599 Nachm. 03/28/17 - $GNGSA,A,2,71,82,,,,,,,,,,,1.2,0.8,0.9*23

2:54:54:586 Nachm. 03/28/17 - $GPGSV,3,1,11,01,05,025,26,10,18,303,20,12,35,227,32,13,27,158,31*7C

2:54:54:588 Nachm. 03/28/17 - $GPGSV,3,2,11,15,49,196,34,17,41,077,25,18,17,275,20,19,41,109,30*77

2:54:54:589 Nachm. 03/28/17 - $GPGSV,3,3,11,24,64,286,28,28,14,053,17,32,01,322,*47

2:54:54:598 Nachm. 03/28/17 - $GLGSV,2,1,06,82,35,060,27,,,,24,,,,29,71,35,229,25*6C

2:54:54:606 Nachm. 03/28/17 - $GLGSV,2,2,06,,,,20,65,10,341,*55

2:54:54:618 Nachm. 03/28/17 - $GPGGA,125450.0,5208.444296,N,01138.504131,E,1,09,0.8,71.5,M,45.0,M,,*67

2:54:54:620 Nachm. 03/28/17 - $GNGNS,125450.0,5208.444296,N,01138.504131,E,AA,11,0.8,71.5,45.0,,*5A

2:54:54:620 Nachm. 03/28/17 - $GPVTG,132.5,T,132.1,M,0.0,N,0.0,K,A*27

2:54:54:620 Nachm. 03/28/17 - $GPRMC,125450.0,A,5208.444296,N,01138.504131,E,0.0,132.5,280317,0.4,E,A*03

2:54:54:621 Nachm. 03/28/17 - $GPGSA,A,2,10,12,13,15,17,18,19,24,28,,,,1.2,0.8,0.9*3E

2:54:54:621 Nachm. 03/28/17 - $GNGSA,A,2,10,12,13,15,17,18,19,24,28,,,,1.2,0.8,0.9*20

2:54:54:622 Nachm. 03/28/17 - $GNGSA,A,2,71,82,,,,,,,,,,,1.2,0.8,0.9*23

2:54:55:586 Nachm. 03/28/17 - $GPGSV,3,1,11,01,05,025,24,10,18,303,20,12,35,227,31,13,27,158,30*7C

2:54:55:588 Nachm. 03/28/17 - $GPGSV,3,2,11,15,49,196,33,17,41,077,25,18,17,275,21,19,41,109,29*79

2:54:55:588 Nachm. 03/28/17 - $GPGSV,3,3,11,24,64,286,27,28,14,053,17,32,01,322,*48

2:54:55:588 Nachm. 03/28/17 - $GLGSV,2,1,06,82,35,060,27,,,,25,,,,29,71,35,229,24*6C

2:54:55:590 Nachm. 03/28/17 - $GLGSV,2,2,06,,,,22,65,10,341,*57

2:54:55:591 Nachm. 03/28/17 - $GPGGA,125451.0,5208.444421,N,01138.504068,E,1,09,0.8,71.0,M,45.0,M,,*64

2:54:55:591 Nachm. 03/28/17 - $GNGNS,125451.0,5208.444421,N,01138.504068,E,AA,11,0.8,71.0,45.0,,*59

2:54:55:592 Nachm. 03/28/17 - $GPVTG,132.5,T,132.1,M,0.0,N,0.0,K,A*27

2:54:55:593 Nachm. 03/28/17 - $GPRMC,125451.0,A,5208.444421,N,01138.504068,E,0.0,132.5,280317,0.4,E,A*05

2:54:55:594 Nachm. 03/28/17 - $GPGSA,A,2,10,12,13,15,17,18,19,24,28,,,,1.2,0.8,0.9*3E

2:54:55:594 Nachm. 03/28/17 - $GNGSA,A,2,10,12,13,15,17,18,19,24,28,,,,1.2,0.8,0.9*20

2:54:55:594 Nachm. 03/28/17 - $GNGSA,A,2,71,82,,,,,,,,,,,1.2,0.8,0.9*23

2:54:56:589 Nachm. 03/28/17 - $GPGSV,3,1,11,01,05,025,24,10,18,303,20,12,35,227,32,13,27,158,31*7E

2:54:56:590 Nachm. 03/28/17 - $GPGSV,3,2,11,15,49,196,33,17,41,077,25,18,17,275,21,19,41,109,29*79

2:54:56:592 Nachm. 03/28/17 - $GPGSV,3,3,11,24,64,286,27,28,14,053,17,32,01,322,*48

2:54:56:593 Nachm. 03/28/17 - $GLGSV,2,1,06,82,35,060,27,,,,24,,,,29,71,35,229,25*6C

2:54:56:603 Nachm. 03/28/17 - $GLGSV,2,2,06,,,,23,65,10,341,*56

2:54:56:611 Nachm. 03/28/17 - $GPGGA,125452.0,5208.444269,N,01138.504267,E,1,09,0.8,71.9,M,45.0,M,,*69

2:54:56:611 Nachm. 03/28/17 - $GNGNS,125452.0,5208.444269,N,01138.504267,E,AA,11,0.8,71.9,45.0,,*54

2:54:56:612 Nachm. 03/28/17 - $GPVTG,132.5,T,132.1,M,0.0,N,0.0,K,A*27

2:54:56:612 Nachm. 03/28/17 - $GPRMC,125452.0,A,5208.444269,N,01138.504267,E,0.0,132.5,280317,0.4,E,A*01

2:54:56:612 Nachm. 03/28/17 - $GPGSA,A,2,10,12,13,15,17,18,19,24,28,,,,1.2,0.8,0.9*3E

2:54:56:613 Nachm. 03/28/17 - $GNGSA,A,2,10,12,13,15,17,18,19,24,28,,,,1.2,0.8,0.9*20

2:54:56:613 Nachm. 03/28/17 - $GNGSA,A,2,71,82,,,,,,,,,,,1.2,0.8,0.9*23

2:54:57:586 Nachm. 03/28/17 - $GPGSV,3,1,11,01,05,025,25,10,18,303,20,12,35,227,32,13,27,158,31*7F

2:54:57:589 Nachm. 03/28/17 - $GPGSV,3,2,11,15,49,196,34,17,41,077,25,18,17,275,21,19,41,109,30*76

2:54:57:597 Nachm. 03/28/17 - $GPGSV,3,3,11,24,64,286,27,28,14,053,15,32,01,322,*4A

2:54:57:598 Nachm. 03/28/17 - $GLGSV,2,1,06,82,35,060,26,,,,25,,,,30,71,35,229,25*64

2:54:57:599 Nachm. 03/28/17 - $GLGSV,2,2,06,,,,24,65,10,341,*51

2:54:57:606 Nachm. 03/28/17 - $GPGGA,125453.0,5208.444141,N,01138.504424,E,1,09,0.8,72.7,M,45.0,M,,*6D

2:54:57:611 Nachm. 03/28/17 - $GNGNS,125453.0,5208.444141,N,01138.504424,E,AA,11,0.8,72.7,45.0,,*50

2:54:57:611 Nachm. 03/28/17 - $GPVTG,132.5,T,132.1,M,0.0,N,0.0,K,A*27

2:54:57:612 Nachm. 03/28/17 - $GPRMC,125453.0,A,5208.444141,N,01138.504424,E,0.0,132.5,280317,0.4,E,A*08

2:54:57:612 Nachm. 03/28/17 - $GPGSA,A,2,10,12,13,15,17,18,19,24,28,,,,1.2,0.8,0.9*3E

2:54:57:612 Nachm. 03/28/17 - $GNGSA,A,2,10,12,13,15,17,18,19,24,28,,,,1.2,0.8,0.9*20

2:54:57:612 Nachm. 03/28/17 - $GNGSA,A,2,71,82,,,,,,,,,,,1.2,0.8,0.9*23

2:54:58:587 Nachm. 03/28/17 - $GPGSV,3,1,11,01,05,025,24,10,18,303,20,12,35,227,33,13,27,158,30*7E

2:54:58:589 Nachm. 03/28/17 - $GPGSV,3,2,11,15,49,196,31,17,41,077,31,19,41,109,29,24,64,286,29*71

2:54:58:589 Nachm. 03/28/17 - $GPGSV,3,3,11,28,14,053,17,18,17,275,,32,01,322,*4A

2:54:58:590 Nachm. 03/28/17 - $GLGSV,2,1,06,82,35,060,25,,,,21,,,,32,71,35,229,29*6D

2:54:58:590 Nachm. 03/28/17 - $GLGSV,2,2,06,,,,23,65,10,341,*56

2:54:58:593 Nachm. 03/28/17 - $GPGGA,125454.0,5208.444071,N,01138.504509,E,1,09,0.8,73.1,M,45.0,M,,*61

2:54:58:594 Nachm. 03/28/17 - $GNGNS,125454.0,5208.444071,N,01138.504509,E,AA,11,0.8,73.1,45.0,,*5C

2:54:58:599 Nachm. 03/28/17 - $GPVTG,132.5,T,132.1,M,0.0,N,0.0,K,A*27

2:54:58:602 Nachm. 03/28/17 - $GPRMC,125454.0,A,5208.444071,N,01138.504509,E,0.0,132.5,280317,0.4,E,A*03

2:54:58:603 Nachm. 03/28/17 - $GPGSA,A,2,10,12,13,15,17,18,19,24,28,,,,1.2,0.8,0.9*3E

2:54:58:604 Nachm. 03/28/17 - $GNGSA,A,2,10,12,13,15,17,18,19,24,28,,,,1.2,0.8,0.9*20

2:54:58:604 Nachm. 03/28/17 - $GNGSA,A,2,71,82,,,,,,,,,,,1.2,0.8,0.9*23

2:54:59:586 Nachm. 03/28/17 - $GPGSV,3,1,11,01,05,025,20,10,18,303,20,12,35,227,27,13,27,158,30*7F

2:54:59:587 Nachm. 03/28/17 - $GPGSV,3,2,11,15,49,196,33,17,41,077,32,19,41,109,29,24,64,286,25*7C

2:54:59:588 Nachm. 03/28/17 - $GPGSV,3,3,11,28,14,053,18,18,17,275,,32,01,322,*45

2:54:59:590 Nachm. 03/28/17 - $GLGSV,2,1,06,82,35,060,24,,,,21,,,,26,71,35,229,22*62

2:54:59:593 Nachm. 03/28/17 - $GLGSV,2,2,06,,,,24,65,10,341,*51

2:54:59:593 Nachm. 03/28/17 - $GPGGA,125455.0,5208.443996,N,01138.504590,E,1,09,0.8,73.6,M,45.0,M,,*60

2:54:59:593 Nachm. 03/28/17 - $GNGNS,125455.0,5208.443996,N,01138.504590,E,AA,11,0.8,73.6,45.0,,*5D

2:54:59:594 Nachm. 03/28/17 - $GPVTG,132.5,T,132.1,M,0.0,N,0.0,K,A*27

2:54:59:594 Nachm. 03/28/17 - $GPRMC,125455.0,A,5208.443996,N,01138.504590,E,0.0,132.5,280317,0.4,E,A*05

2:54:59:594 Nachm. 03/28/17 - $GPGSA,A,2,10,12,13,15,17,18,19,24,28,,,,1.2,0.8,0.9*3E

2:54:59:594 Nachm. 03/28/17 - $GNGSA,A,2,10,12,13,15,17,18,19,24,28,,,,1.2,0.8,0.9*20

2:54:59:594 Nachm. 03/28/17 - $GNGSA,A,2,71,82,,,,,,,,,,,1.2,0.8,0.9*23

2:55:00:586 Nachm. 03/28/17 - $GPGSV,3,1,11,01,05,025,18,10,18,303,20,12,35,227,30,13,27,158,32*70

2:55:00:588 Nachm. 03/28/17 - $GPGSV,3,2,11,15,49,196,32,17,41,077,28,19,41,109,28,24,64,286,29*7B

2:55:00:588 Nachm. 03/28/17 - $GPGSV,3,3,11,28,14,053,18,18,17,275,,32,01,322,*45

2:55:00:589 Nachm. 03/28/17 - $GLGSV,2,1,06,82,35,060,21,,,,21,,,,26,71,35,229,26*63

2:55:00:597 Nachm. 03/28/17 - $GLGSV,2,2,06,,,,25,65,10,341,*50

2:55:00:598 Nachm. 03/28/17 - $GPGGA,125456.0,5208.443920,N,01138.504643,E,1,09,0.8,74.0,M,45.0,M,,*62

2:55:00:598 Nachm. 03/28/17 - $GNGNS,125456.0,5208.443920,N,01138.504643,E,AA,11,0.8,74.0,45.0,,*5F

2:55:00:599 Nachm. 03/28/17 - $GPVTG,132.5,T,132.1,M,0.0,N,0.0,K,A*27

2:55:00:599 Nachm. 03/28/17 - $GPRMC,125456.0,A,5208.443920,N,01138.504643,E,0.0,132.5,280317,0.4,E,A*06

2:55:00:599 Nachm. 03/28/17 - $GPGSA,A,2,10,12,13,15,17,18,19,24,28,,,,1.2,0.8,0.9*3E

2:55:00:600 Nachm. 03/28/17 - $GNGSA,A,2,10,12,13,15,17,18,19,24,28,,,,1.2,0.8,0.9*20

2:55:00:600 Nachm. 03/28/17 - $GNGSA,A,2,71,82,,,,,,,,,,,1.2,0.8,0.9*23

2:55:01:587 Nachm. 03/28/17 - $GPGSV,3,1,11,01,05,025,18,10,18,303,20,12,35,227,27,13,27,158,34*70

2:55:01:588 Nachm. 03/28/17 - $GPGSV,3,2,11,15,49,196,33,17,41,077,20,19,41,109,25,24,64,286,29*7F

2:55:01:588 Nachm. 03/28/17 - $GPGSV,3,3,11,28,14,053,15,18,17,275,,32,01,322,*48

2:55:01:589 Nachm. 03/28/17 - $GLGSV,2,1,06,82,35,060,20,,,,25,,,,25,71,35,229,21*62

2:55:01:589 Nachm. 03/28/17 - $GLGSV,2,2,06,,,,18,65,10,341,*5E

2:55:01:591 Nachm. 03/28/17 - $GPGGA,125457.0,5208.443869,N,01138.504679,E,1,09,0.8,74.3,M,45.0,M,,*65

2:55:01:591 Nachm. 03/28/17 - $GNGNS,125457.0,5208.443869,N,01138.504679,E,AA,11,0.8,74.3,45.0,,*58

2:55:01:591 Nachm. 03/28/17 - $GPVTG,132.5,T,132.1,M,0.0,N,0.0,K,A*27

2:55:01:591 Nachm. 03/28/17 - $GPRMC,125457.0,A,5208.443869,N,01138.504679,E,0.0,132.5,280317,0.4,E,A*02

2:55:01:591 Nachm. 03/28/17 - $GPGSA,A,2,10,12,13,15,17,18,19,24,28,,,,1.2,0.8,0.9*3E

2:55:01:596 Nachm. 03/28/17 - $GNGSA,A,2,10,12,13,15,17,18,19,24,28,,,,1.2,0.8,0.9*20

2:55:01:596 Nachm. 03/28/17 - $GNGSA,A,2,71,82,,,,,,,,,,,1.2,0.8,0.9*23

2:55:02:587 Nachm. 03/28/17 - $GPGSV,3,1,11,01,05,025,18,10,18,303,20,12,35,227,23,13,27,158,31*71

2:55:02:589 Nachm. 03/28/17 - $GPGSV,3,2,11,15,49,196,32,17,41,077,20,19,41,109,25,24,64,286,23*74

2:55:02:590 Nachm. 03/28/17 - $GPGSV,3,3,11,28,14,053,15,18,17,275,,32,01,322,*48

2:55:02:591 Nachm. 03/28/17 - $GLGSV,2,1,06,82,35,060,20,,,,24,,,,25,71,35,229,28*6A

2:55:02:595 Nachm. 03/28/17 - $GLGSV,2,2,06,,,,26,65,10,341,*53

2:55:02:611 Nachm. 03/28/17 - $GPGGA,125458.0,5208.443835,N,01138.504699,E,1,09,0.8,74.4,M,45.0,M,,*6A

2:55:02:612 Nachm. 03/28/17 - $GNGNS,125458.0,5208.443835,N,01138.504699,E,AA,11,0.8,74.4,45.0,,*57

2:55:02:612 Nachm. 03/28/17 - $GPVTG,132.5,T,132.1,M,0.0,N,0.0,K,A*27

2:55:02:612 Nachm. 03/28/17 - $GPRMC,125458.0,A,5208.443835,N,01138.504699,E,0.0,132.5,280317,0.4,E,A*0A

2:55:02:612 Nachm. 03/28/17 - $GPGSA,A,2,10,12,13,15,17,18,19,24,28,,,,1.2,0.8,0.9*3E

2:55:02:613 Nachm. 03/28/17 - $GNGSA,A,2,10,12,13,15,17,18,19,24,28,,,,1.2,0.8,0.9*20

2:55:02:616 Nachm. 03/28/17 - $GNGSA,A,2,71,82,,,,,,,,,,,1.2,0.8,0.9*23

2:55:03:588 Nachm. 03/28/17 - $GPGSV,3,1,11,01,05,025,18,12,35,227,25,13,27,158,31,15,49,196,35*7C

2:55:03:589 Nachm. 03/28/17 - $GPGSV,3,2,11,17,41,077,20,19,41,109,22,24,64,286,27,28,14,053,15*7C

2:55:03:590 Nachm. 03/28/17 - $GPGSV,3,3,11,10,18,303,,18,17,275,,32,01,322,*4D

2:55:03:592 Nachm. 03/28/17 - $GLGSV,2,1,06,82,35,060,16,,,,25,,,,24,71,35,229,26*61

2:55:03:595 Nachm. 03/28/17 - $GLGSV,2,2,06,,,,23,65,10,341,*56

2:55:03:601 Nachm. 03/28/17 - $GPGGA,125459.0,5208.443807,N,01138.504717,E,1,09,0.8,74.6,M,45.0,M,,*6F

2:55:03:612 Nachm. 03/28/17 - $GNGNS,125459.0,5208.443807,N,01138.504717,E,AA,11,0.8,74.6,45.0,,*52

2:55:03:612 Nachm. 03/28/17 - $GPVTG,132.5,T,132.1,M,0.0,N,0.0,K,A*27

2:55:03:613 Nachm. 03/28/17 - $GPRMC,125459.0,A,5208.443807,N,01138.504717,E,0.0,132.5,280317,0.4,E,A*0D

2:55:03:613 Nachm. 03/28/17 - $GPGSA,A,2,10,12,13,15,17,18,19,24,28,,,,1.2,0.8,0.9*3E

2:55:03:614 Nachm. 03/28/17 - $GNGSA,A,2,10,12,13,15,17,18,19,24,28,,,,1.2,0.8,0.9*20

2:55:03:614 Nachm. 03/28/17 - $GNGSA,A,2,71,82,,,,,,,,,,,1.2,0.8,0.9*23

2:55:04:587 Nachm. 03/28/17 - $GPGSV,3,1,11,01,05,025,18,12,35,227,30,13,27,158,31,15,49,196,36*7B

2:55:04:589 Nachm. 03/28/17 - $GPGSV,3,2,11,17,41,077,22,19,41,109,20,24,64,286,30,28,14,053,15*7A

2:55:04:589 Nachm. 03/28/17 - $GPGSV,3,3,11,10,18,303,,18,17,275,,32,01,322,*4D

2:55:04:591 Nachm. 03/28/17 - $GLGSV,2,1,06,82,35,060,16,,,,26,,,,25,71,35,229,21*64

2:55:04:596 Nachm. 03/28/17 - $GLGSV,2,2,06,,,,18,65,10,341,*5E

2:55:04:596 Nachm. 03/28/17 - $GPGGA,125500.0,5208.443792,N,01138.504724,E,1,07,1.2,74.7,M,45.0,M,,*65

2:55:04:597 Nachm. 03/28/17 - $GNGNS,125500.0,5208.443792,N,01138.504724,E,AA,09,1.2,74.7,45.0,,*5F

2:55:04:598 Nachm. 03/28/17 - $GPVTG,132.5,T,132.1,M,0.0,N,0.0,K,A*27

2:55:04:599 Nachm. 03/28/17 - $GPRMC,125500.0,A,5208.443792,N,01138.504724,E,0.0,132.5,280317,0.4,E,A*03

2:55:04:600 Nachm. 03/28/17 - $GPGSA,A,2,12,13,15,17,19,24,28,,,,,,1.5,1.2,0.9*3A

2:55:04:600 Nachm. 03/28/17 - $GNGSA,A,2,12,13,15,17,19,24,28,,,,,,1.5,1.2,0.9*24

2:55:04:601 Nachm. 03/28/17 - $GNGSA,A,2,71,82,,,,,,,,,,,1.5,1.2,0.9*2F

2:55:05:590 Nachm. 03/28/17 - $GPGSV,3,1,11,01,05,025,18,12,35,227,34,13,27,158,28,15,49,196,36*77

2:55:05:591 Nachm. 03/28/17 - $GPGSV,3,2,11,17,41,077,28,19,41,109,29,24,64,286,31,28,14,053,17*7A

2:55:05:594 Nachm. 03/28/17 - $GPGSV,3,3,11,10,18,303,,18,17,275,,32,01,322,*4D

2:55:05:595 Nachm. 03/28/17 - $GLGSV,2,1,06,82,35,060,18,,,,27,,,,28,71,35,229,24*63

2:55:05:602 Nachm. 03/28/17 - $GLGSV,2,2,06,,,,20,65,10,341,*55

2:55:05:603 Nachm. 03/28/17 - $GPGGA,125501.0,5208.443797,N,01138.504726,E,1,07,1.2,74.7,M,45.0,M,,*63

2:55:05:610 Nachm. 03/28/17 - $GNGNS,125501.0,5208.443797,N,01138.504726,E,AA,09,1.2,74.7,45.0,,*59

2:55:05:610 Nachm. 03/28/17 - $GPVTG,132.5,T,132.1,M,0.0,N,0.0,K,A*27

2:55:05:611 Nachm. 03/28/17 - $GPRMC,125501.0,A,5208.443797,N,01138.504726,E,0.0,132.5,280317,0.4,E,A*05

2:55:05:611 Nachm. 03/28/17 - $GPGSA,A,2,12,13,15,17,19,24,28,,,,,,1.5,1.2,0.9*3A

2:55:05:611 Nachm. 03/28/17 - $GNGSA,A,2,12,13,15,17,19,24,28,,,,,,1.5,1.2,0.9*24

2:55:05:611 Nachm. 03/28/17 - $GNGSA,A,2,71,82,,,,,,,,,,,1.5,1.2,0.9*2F

2:55:06:586 Nachm. 03/28/17 - $GPGSV,3,1,11,01,05,025,21,12,35,227,35,13,27,158,31,15,49,196,32*70

2:55:06:588 Nachm. 03/28/17 - $GPGSV,3,2,11,17,41,077,26,19,41,109,32,24,64,286,23,28,14,053,17*7D

2:55:06:588 Nachm. 03/28/17 - $GPGSV,3,3,11,10,18,303,,18,17,275,,32,01,322,*4D

2:55:06:590 Nachm. 03/28/17 - $GLGSV,2,1,06,82,35,060,25,,,,25,,,,31,71,35,229,29*6A

2:55:06:590 Nachm. 03/28/17 - $GLGSV,2,2,06,,,,27,65,10,341,*52

2:55:06:593 Nachm. 03/28/17 - $GPGGA,125502.0,5208.443806,N,01138.504737,E,1,07,1.2,74.7,M,45.0,M,,*67

2:55:06:593 Nachm. 03/28/17 - $GNGNS,125502.0,5208.443806,N,01138.504737,E,AA,09,1.2,74.7,45.0,,*5D

2:55:06:593 Nachm. 03/28/17 - $GPVTG,132.5,T,132.1,M,0.0,N,0.0,K,A*27

2:55:06:593 Nachm. 03/28/17 - $GPRMC,125502.0,A,5208.443806,N,01138.504737,E,0.0,132.5,280317,0.4,E,A*01

2:55:06:594 Nachm. 03/28/17 - $GPGSA,A,2,12,13,15,17,19,24,28,,,,,,1.5,1.2,0.9*3A

2:55:06:594 Nachm. 03/28/17 - $GNGSA,A,2,12,13,15,17,19,24,28,,,,,,1.5,1.2,0.9*24

2:55:06:594 Nachm. 03/28/17 - $GNGSA,A,2,71,82,,,,,,,,,,,1.5,1.2,0.9*2F

2:55:07:587 Nachm. 03/28/17 - $GPGSV,3,1,11,01,05,025,22,12,35,227,35,13,27,158,29,15,49,196,34*7C

2:55:07:589 Nachm. 03/28/17 - $GPGSV,3,2,11,17,41,077,27,19,41,109,32,24,64,286,24,28,14,053,15*79

2:55:07:589 Nachm. 03/28/17 - $GPGSV,3,3,11,10,18,303,,18,17,275,,32,01,322,*4D

2:55:07:593 Nachm. 03/28/17 - $GLGSV,2,1,06,82,35,060,22,,,,26,,,,31,71,35,229,26*61

2:55:07:597 Nachm. 03/28/17 - $GLGSV,2,2,06,,,,27,65,10,341,*52

2:55:07:599 Nachm. 03/28/17 - $GPGGA,125503.0,5208.443819,N,01138.504744,E,1,07,1.2,74.7,M,45.0,M,,*6C

2:55:07:607 Nachm. 03/28/17 - $GNGNS,125503.0,5208.443819,N,01138.504744,E,AA,09,1.2,74.7,45.0,,*56

2:55:07:608 Nachm. 03/28/17 - $GPVTG,132.5,T,132.1,M,0.0,N,0.0,K,A*27

2:55:07:608 Nachm. 03/28/17 - $GPRMC,125503.0,A,5208.443819,N,01138.504744,E,0.0,132.5,280317,0.4,E,A*0A

2:55:07:609 Nachm. 03/28/17 - $GPGSA,A,2,12,13,15,17,19,24,28,,,,,,1.5,1.2,0.9*3A

2:55:07:611 Nachm. 03/28/17 - $GNGSA,A,2,12,13,15,17,19,24,28,,,,,,1.5,1.2,0.9*24

2:55:07:611 Nachm. 03/28/17 - $GNGSA,A,2,71,82,,,,,,,,,,,1.5,1.2,0.9*2F

2:55:08:590 Nachm. 03/28/17 - $GPGSV,3,1,11,01,05,025,20,12,35,227,33,13,27,158,28,15,49,196,36*7B

2:55:08:591 Nachm. 03/28/17 - $GPGSV,3,2,11,17,41,077,24,19,41,109,31,24,64,286,29,28,14,053,16*77

2:55:08:591 Nachm. 03/28/17 - $GPGSV,3,3,11,10,18,303,,18,17,275,,32,01,322,*4D

2:55:08:595 Nachm. 03/28/17 - $GLGSV,2,1,06,82,35,060,24,,,,26,,,,30,71,35,229,23*63

2:55:08:600 Nachm. 03/28/17 - $GLGSV,2,2,06,,,,25,65,10,341,*50

2:55:08:602 Nachm. 03/28/17 - $GPGGA,125504.0,5208.443822,N,01138.504746,E,1,07,1.2,74.7,M,45.0,M,,*61

2:55:08:609 Nachm. 03/28/17 - $GNGNS,125504.0,5208.443822,N,01138.504746,E,AA,09,1.2,74.7,45.0,,*5B

2:55:08:609 Nachm. 03/28/17 - $GPVTG,132.5,T,132.1,M,0.0,N,0.0,K,A*27

2:55:08:610 Nachm. 03/28/17 - $GPRMC,125504.0,A,5208.443822,N,01138.504746,E,0.0,132.5,280317,0.4,E,A*07

2:55:08:611 Nachm. 03/28/17 - $GPGSA,A,2,12,13,15,17,19,24,28,,,,,,1.5,1.2,0.9*3A

2:55:08:611 Nachm. 03/28/17 - $GNGSA,A,2,12,13,15,17,19,24,28,,,,,,1.5,1.2,0.9*24

2:55:08:612 Nachm. 03/28/17 - $GNGSA,A,2,71,82,,,,,,,,,,,1.5,1.2,0.9*2F

2:55:09:588 Nachm. 03/28/17 - $GPGSV,3,1,11,01,05,025,19,12,35,227,31,13,27,158,29,15,49,196,36*72

2:55:09:589 Nachm. 03/28/17 - $GPGSV,3,2,11,17,41,077,26,19,41,109,31,24,64,286,27,28,14,053,16*7B

2:55:09:589 Nachm. 03/28/17 - $GPGSV,3,3,11,10,18,303,,18,17,275,,32,01,322,*4D

2:55:09:593 Nachm. 03/28/17 - $GLGSV,2,1,06,82,35,060,26,,,,26,,,,29,71,35,229,24*6E

2:55:09:597 Nachm. 03/28/17 - $GLGSV,2,2,06,,,,25,65,10,341,*50

2:55:09:598 Nachm. 03/28/17 - $GPGGA,125505.0,5208.443828,N,01138.504748,E,1,07,1.2,74.6,M,45.0,M,,*65

2:55:09:600 Nachm. 03/28/17 - $GNGNS,125505.0,5208.443828,N,01138.504748,E,AA,09,1.2,74.6,45.0,,*5F

2:55:09:609 Nachm. 03/28/17 - $GPVTG,132.5,T,132.1,M,0.0,N,0.0,K,A*27

2:55:09:610 Nachm. 03/28/17 - $GPRMC,125505.0,A,5208.443828,N,01138.504748,E,0.0,132.5,280317,0.4,E,A*02

2:55:09:610 Nachm. 03/28/17 - $GPGSA,A,2,12,13,15,17,19,24,28,,,,,,1.5,1.2,0.9*3A

2:55:09:610 Nachm. 03/28/17 - $GNGSA,A,2,12,13,15,17,19,24,28,,,,,,1.5,1.2,0.9*24

2:55:09:610 Nachm. 03/28/17 - $GNGSA,A,2,71,82,,,,,,,,,,,1.5,1.2,0.9*2F

2:55:10:586 Nachm. 03/28/17 - $GPGSV,3,1,11,01,05,025,20,12,35,227,32,13,27,158,29,15,49,196,35*78

2:55:10:587 Nachm. 03/28/17 - $GPGSV,3,2,11,17,41,077,27,19,41,109,32,24,64,286,24,28,14,053,16*7A

2:55:10:587 Nachm. 03/28/17 - $GPGSV,3,3,11,10,18,303,,18,17,275,,32,01,322,*4D

2:55:10:590 Nachm. 03/28/17 - $GLGSV,2,1,06,82,35,060,26,,,,26,,,,29,71,35,229,26*6C

2:55:10:595 Nachm. 03/28/17 - $GLGSV,2,2,06,,,,26,65,10,341,*53

2:55:10:595 Nachm. 03/28/17 - $GPGGA,125506.0,5208.443836,N,01138.504749,E,1,07,1.2,74.6,M,45.0,M,,*68

2:55:10:595 Nachm. 03/28/17 - $GNGNS,125506.0,5208.443836,N,01138.504749,E,AA,09,1.2,74.6,45.0,,*52

2:55:10:597 Nachm. 03/28/17 - $GPVTG,132.5,T,132.1,M,0.0,N,0.0,K,A*27

2:55:10:598 Nachm. 03/28/17 - $GPRMC,125506.0,A,5208.443836,N,01138.504749,E,0.0,132.5,280317,0.4,E,A*0F

2:55:10:598 Nachm. 03/28/17 - $GPGSA,A,2,12,13,15,17,19,24,28,,,,,,1.5,1.2,0.9*3A

2:55:10:598 Nachm. 03/28/17 - $GNGSA,A,2,12,13,15,17,19,24,28,,,,,,1.5,1.2,0.9*24

2:55:10:599 Nachm. 03/28/17 - $GNGSA,A,2,71,82,,,,,,,,,,,1.5,1.2,0.9*2F

2:55:11:586 Nachm. 03/28/17 - $GPGSV,3,1,11,01,05,025,22,12,35,227,33,13,27,158,31,15,49,196,34*73

2:55:11:587 Nachm. 03/28/17 - $GPGSV,3,2,11,17,41,077,26,19,41,109,33,24,64,286,23,28,14,053,15*7E

2:55:11:587 Nachm. 03/28/17 - $GPGSV,3,3,11,10,18,303,,18,17,275,,32,01,322,*4D

2:55:11:588 Nachm. 03/28/17 - $GLGSV,2,1,06,82,35,060,29,,,,26,,,,31,71,35,229,29*65

2:55:11:588 Nachm. 03/28/17 - $GLGSV,2,2,06,,,,28,65,10,341,*5D

2:55:11:593 Nachm. 03/28/17 - $GPGGA,125507.0,5208.443830,N,01138.504744,E,1,07,1.2,74.6,M,45.0,M,,*62

2:55:11:594 Nachm. 03/28/17 - $GNGNS,125507.0,5208.443830,N,01138.504744,E,AA,09,1.2,74.6,45.0,,*58

2:55:11:595 Nachm. 03/28/17 - $GPVTG,132.5,T,132.1,M,0.0,N,0.0,K,A*27

2:55:11:596 Nachm. 03/28/17 - $GPRMC,125507.0,A,5208.443830,N,01138.504744,E,0.0,132.5,280317,0.4,E,A*05

2:55:11:598 Nachm. 03/28/17 - $GPGSA,A,2,12,13,15,17,19,24,28,,,,,,1.5,1.2,0.9*3A

2:55:11:598 Nachm. 03/28/17 - $GNGSA,A,2,12,13,15,17,19,24,28,,,,,,1.5,1.2,0.9*24

2:55:11:598 Nachm. 03/28/17 - $GNGSA,A,2,71,82,,,,,,,,,,,1.5,1.2,0.9*2F

2:55:12:586 Nachm. 03/28/17 - $GPGSV,3,1,11,01,05,025,20,12,35,227,33,13,27,158,30,15,49,196,33*77

2:55:12:588 Nachm. 03/28/17 - $GPGSV,3,2,11,17,41,077,26,19,41,109,33,24,64,286,20,28,14,053,19*71

2:55:12:588 Nachm. 03/28/17 - $GPGSV,3,3,11,10,18,303,,18,17,275,,32,01,322,*4D

2:55:12:589 Nachm. 03/28/17 - $GLGSV,2,1,06,82,35,060,28,,,,27,,,,31,71,35,229,28*64

2:55:12:589 Nachm. 03/28/17 - $GLGSV,2,2,06,,,,28,65,10,341,*5D

2:55:12:590 Nachm. 03/28/17 - $GPGGA,125508.0,5208.443831,N,01138.504791,E,1,07,1.0,74.3,M,45.0,M,,*63

2:55:12:599 Nachm. 03/28/17 - $GNGNS,125508.0,5208.443831,N,01138.504791,E,AA,10,1.0,74.3,45.0,,*51

2:55:12:599 Nachm. 03/28/17 - $GPVTG,132.5,T,132.1,M,0.0,N,0.0,K,A*27

2:55:12:600 Nachm. 03/28/17 - $GPRMC,125508.0,A,5208.443831,N,01138.504791,E,0.0,132.5,280317,0.4,E,A*03

2:55:12:604 Nachm. 03/28/17 - $GPGSA,A,2,12,13,15,17,19,24,28,,,,,,1.4,1.0,0.9*39

2:55:12:608 Nachm. 03/28/17 - $GNGSA,A,2,12,13,15,17,19,24,28,,,,,,1.4,1.0,0.9*27

2:55:12:609 Nachm. 03/28/17 - $GNGSA,A,2,71,82,83,,,,,,,,,,1.4,1.0,0.9*27

2:55:13:586 Nachm. 03/28/17 - $GPGSV,3,1,11,01,05,025,21,10,18,303,14,12,35,227,33,13,27,158,31*7D

2:55:13:588 Nachm. 03/28/17 - $GPGSV,3,2,11,15,49,196,31,17,41,077,22,19,41,109,33,24,64,286,27*76

2:55:13:588 Nachm. 03/28/17 - $GPGSV,3,3,11,28,14,053,17,18,17,275,,32,01,322,*4A

2:55:13:591 Nachm. 03/28/17 - $GLGSV,2,1,06,82,35,060,30,73,72,012,26,83,24,122,31,71,35,229,29*63

2:55:13:591 Nachm. 03/28/17 - $GLGSV,2,2,06,72,,,29,65,10,341,*59

2:55:13:591 Nachm. 03/28/17 - $GPGGA,125509.0,5208.443923,N,01138.504716,E,1,08,0.8,75.1,M,45.0,M,,*6A

2:55:13:591 Nachm. 03/28/17 - $GNGNS,125509.0,5208.443923,N,01138.504716,E,AA,12,0.8,75.1,45.0,,*55

2:55:13:591 Nachm. 03/28/17 - $GPVTG,132.5,T,132.1,M,0.0,N,0.0,K,A*27

2:55:13:592 Nachm. 03/28/17 - $GPRMC,125509.0,A,5208.443923,N,01138.504716,E,0.0,132.5,280317,0.4,E,A*0F

2:55:13:592 Nachm. 03/28/17 - $GPGSA,A,2,10,12,13,15,17,19,24,28,,,,,1.1,0.8,0.8*35

2:55:13:592 Nachm. 03/28/17 - $GNGSA,A,2,10,12,13,15,17,19,24,28,,,,,1.1,0.8,0.8*2B

2:55:13:592 Nachm. 03/28/17 - $GNGSA,A,2,71,73,82,83,,,,,,,,,1.1,0.8,0.8*2E

2:55:14:587 Nachm. 03/28/17 - $GPGSV,3,1,11,01,05,025,22,10,18,303,14,12,35,227,34,13,27,158,32*7A

2:55:14:588 Nachm. 03/28/17 - $GPGSV,3,2,11,15,49,196,30,17,41,077,23,19,41,109,33,24,64,286,30*70

2:55:14:588 Nachm. 03/28/17 - $GPGSV,3,3,11,28,14,053,18,18,17,275,,32,01,322,*45

2:55:14:589 Nachm. 03/28/17 - $GLGSV,2,1,06,82,35,060,29,73,72,012,23,83,24,122,31,71,35,229,29*6E

2:55:14:592 Nachm. 03/28/17 - $GLGSV,2,2,06,72,,,29,65,10,341,*59

2:55:14:592 Nachm. 03/28/17 - $GPGGA,125510.0,5208.443874,N,01138.504758,E,1,08,0.8,74.7,M,45.0,M,,*6C

2:55:14:593 Nachm. 03/28/17 - $GNGNS,125510.0,5208.443874,N,01138.504758,E,AA,12,0.8,74.7,45.0,,*53

2:55:14:593 Nachm. 03/28/17 - $GPVTG,132.5,T,132.1,M,0.0,N,0.0,K,A*27

2:55:14:602 Nachm. 03/28/17 - $GPRMC,125510.0,A,5208.443874,N,01138.504758,E,0.0,132.5,280317,0.4,E,A*0E

2:55:14:604 Nachm. 03/28/17 - $GPGSA,A,2,10,12,13,15,17,19,24,28,,,,,1.1,0.8,0.8*35

2:55:14:605 Nachm. 03/28/17 - $GNGSA,A,2,10,12,13,15,17,19,24,28,,,,,1.1,0.8,0.8*2B

2:55:14:605 Nachm. 03/28/17 - $GNGSA,A,2,71,73,82,83,,,,,,,,,1.1,0.8,0.8*2E

2:55:15:587 Nachm. 03/28/17 - $GPGSV,3,1,11,01,05,025,22,10,18,303,14,12,35,227,33,13,27,158,32*7D

2:55:15:588 Nachm. 03/28/17 - $GPGSV,3,2,11,15,49,196,31,17,41,077,24,19,41,109,34,24,64,286,28*78

2:55:15:588 Nachm. 03/28/17 - $GPGSV,3,3,11,28,14,053,17,18,17,275,,32,01,322,*4A

2:55:15:598 Nachm. 03/28/17 - $GLGSV,2,1,06,82,35,060,29,73,72,012,26,83,24,122,32,71,35,229,30*60

2:55:15:603 Nachm. 03/28/17 - $GLGSV,2,2,06,72,,,29,65,10,341,*59

2:55:15:605 Nachm. 03/28/17 - $GPGGA,125511.0,5208.443770,N,01138.504873,E,1,08,0.8,73.7,M,45.0,M,,*67

2:55:15:605 Nachm. 03/28/17 - $GNGNS,125511.0,5208.443770,N,01138.504873,E,AA,12,0.8,73.7,45.0,,*58

2:55:15:606 Nachm. 03/28/17 - $GPVTG,132.5,T,132.1,M,0.0,N,0.0,K,A*27

2:55:15:609 Nachm. 03/28/17 - $GPRMC,125511.0,A,5208.443770,N,01138.504873,E,0.0,132.5,280317,0.4,E,A*02

2:55:15:609 Nachm. 03/28/17 - $GPGSA,A,2,10,12,13,15,17,19,24,28,,,,,1.1,0.8,0.8*35

2:55:15:611 Nachm. 03/28/17 - $GNGSA,A,2,10,12,13,15,17,19,24,28,,,,,1.1,0.8,0.8*2B

2:55:15:612 Nachm. 03/28/17 - $GNGSA,A,2,71,73,82,83,,,,,,,,,1.1,0.8,0.8*2E

2:55:16:586 Nachm. 03/28/17 - $GPGSV,3,1,11,01,05,025,20,10,18,303,14,12,35,227,33,13,27,158,32*7F

2:55:16:589 Nachm. 03/28/17 - $GPGSV,3,2,11,15,49,196,32,17,41,077,22,19,41,109,33,24,64,286,26*74

2:55:16:590 Nachm. 03/28/17 - $GPGSV,3,3,11,28,14,053,19,18,17,275,,32,01,322,*44

2:55:16:590 Nachm. 03/28/17 - $GLGSV,2,1,06,82,35,060,29,73,72,012,25,83,24,122,31,71,35,229,30*60

2:55:16:593 Nachm. 03/28/17 - $GLGSV,2,2,06,72,,,29,65,10,341,*59

2:55:16:593 Nachm. 03/28/17 - $GPGGA,125512.0,5208.443831,N,01138.504838,E,1,08,0.8,74.2,M,45.0,M,,*63

2:55:16:594 Nachm. 03/28/17 - $GNGNS,125512.0,5208.443831,N,01138.504838,E,AA,12,0.8,74.2,45.0,,*5C

2:55:16:594 Nachm. 03/28/17 - $GPVTG,132.5,T,132.1,M,0.0,N,0.0,K,A*27

2:55:16:594 Nachm. 03/28/17 - $GPRMC,125512.0,A,5208.443831,N,01138.504838,E,0.0,132.5,280317,0.4,E,A*04

2:55:16:594 Nachm. 03/28/17 - $GPGSA,A,2,10,12,13,15,17,19,24,28,,,,,1.1,0.8,0.8*35

2:55:16:603 Nachm. 03/28/17 - $GNGSA,A,2,10,12,13,15,17,19,24,28,,,,,1.1,0.8,0.8*2B

2:55:16:604 Nachm. 03/28/17 - $GNGSA,A,2,71,73,82,83,,,,,,,,,1.1,0.8,0.8*2E

2:55:17:587 Nachm. 03/28/17 - $GPGSV,3,1,11,01,05,025,21,10,18,303,14,12,35,227,33,13,27,158,32*7E

2:55:17:588 Nachm. 03/28/17 - $GPGSV,3,2,11,15,49,196,32,17,41,077,21,19,41,109,33,24,64,286,24*75

2:55:17:594 Nachm. 03/28/17 - $GPGSV,3,3,11,28,14,053,18,18,17,275,,32,01,322,*45

2:55:17:594 Nachm. 03/28/17 - $GLGSV,2,1,06,82,35,060,28,73,72,012,24,83,24,122,31,71,35,229,31*61

2:55:17:594 Nachm. 03/28/17 - $GLGSV,2,2,06,72,,,29,65,10,341,*59

2:55:17:595 Nachm. 03/28/17 - $GPGGA,125513.0,5208.443916,N,01138.504777,E,1,08,0.8,75.0,M,45.0,M,,*61

2:55:17:598 Nachm. 03/28/17 - $GNGNS,125513.0,5208.443916,N,01138.504777,E,AA,12,0.8,75.0,45.0,,*5E

2:55:17:599 Nachm. 03/28/17 - $GPVTG,132.5,T,132.1,M,0.0,N,0.0,K,A*27

2:55:17:599 Nachm. 03/28/17 - $GPRMC,125513.0,A,5208.443916,N,01138.504777,E,0.0,132.5,280317,0.4,E,A*05

2:55:17:600 Nachm. 03/28/17 - $GPGSA,A,2,10,12,13,15,17,19,24,28,,,,,1.1,0.8,0.8*35

2:55:17:601 Nachm. 03/28/17 - $GNGSA,A,2,10,12,13,15,17,19,24,28,,,,,1.1,0.8,0.8*2B

2:55:17:601 Nachm. 03/28/17 - $GNGSA,A,2,71,73,82,83,,,,,,,,,1.1,0.8,0.8*2E

2:55:18:587 Nachm. 03/28/17 - $GPGSV,3,1,11,01,05,025,19,10,18,303,14,12,35,227,32,13,27,158,32*74

2:55:18:588 Nachm. 03/28/17 - $GPGSV,3,2,11,15,49,196,33,17,41,077,25,19,41,109,33,24,64,286,23*77

2:55:18:588 Nachm. 03/28/17 - $GPGSV,3,3,11,28,14,053,19,18,17,275,,32,01,322,*44

2:55:18:590 Nachm. 03/28/17 - $GLGSV,2,1,06,82,35,060,27,73,72,012,25,83,24,122,31,71,35,229,30*6E

2:55:18:591 Nachm. 03/28/17 - $GLGSV,2,2,06,72,,,29,65,10,341,*59

2:55:18:591 Nachm. 03/28/17 - $GPGGA,125514.0,5208.443830,N,01138.504870,E,1,08,0.8,74.1,M,45.0,M,,*6B

2:55:18:592 Nachm. 03/28/17 - $GNGNS,125514.0,5208.443830,N,01138.504870,E,AA,12,0.8,74.1,45.0,,*54

2:55:18:593 Nachm. 03/28/17 - $GPVTG,132.5,T,132.1,M,0.0,N,0.0,K,A*27

2:55:18:593 Nachm. 03/28/17 - $GPRMC,125514.0,A,5208.443830,N,01138.504870,E,0.0,132.5,280317,0.4,E,A*0F

2:55:18:594 Nachm. 03/28/17 - $GPGSA,A,2,10,12,13,15,17,19,24,28,,,,,1.1,0.8,0.8*35

2:55:18:594 Nachm. 03/28/17 - $GNGSA,A,2,10,12,13,15,17,19,24,28,,,,,1.1,0.8,0.8*2B

2:55:18:594 Nachm. 03/28/17 - $GNGSA,A,2,71,73,82,83,,,,,,,,,1.1,0.8,0.8*2E

2:55:19:588 Nachm. 03/28/17 - $GPGSV,3,1,11,01,05,025,20,10,18,303,14,12,35,227,32,13,27,158,31*7D

2:55:19:589 Nachm. 03/28/17 - $GPGSV,3,2,11,15,49,196,34,17,41,077,27,19,41,109,33,24,64,286,21*70

2:55:19:589 Nachm. 03/28/17 - $GPGSV,3,3,11,28,14,053,20,18,17,275,,32,01,322,*4E

2:55:19:608 Nachm. 03/28/17 - $GLGSV,2,1,06,82,35,060,26,73,72,012,25,83,24,122,30,71,35,229,30*6E

2:55:19:612 Nachm. 03/28/17 - $GLGSV,2,2,06,72,,,29,65,10,341,*59

2:55:19:612 Nachm. 03/28/17 - $GPGGA,125515.0,5208.443876,N,01138.504851,E,1,08,0.8,74.4,M,45.0,M,,*6E

2:55:19:613 Nachm. 03/28/17 - $GNGNS,125515.0,5208.443876,N,01138.504851,E,AA,12,0.8,74.4,45.0,,*51

2:55:19:613 Nachm. 03/28/17 - $GPVTG,132.5,T,132.1,M,0.0,N,0.0,K,A*27

2:55:19:613 Nachm. 03/28/17 - $GPRMC,125515.0,A,5208.443876,N,01138.504851,E,0.0,132.5,280317,0.4,E,A*0F

2:55:19:613 Nachm. 03/28/17 - $GPGSA,A,2,10,12,13,15,17,19,24,28,,,,,1.1,0.8,0.8*35

2:55:19:614 Nachm. 03/28/17 - $GNGSA,A,2,10,12,13,15,17,19,24,28,,,,,1.1,0.8,0.8*2B

2:55:19:614 Nachm. 03/28/17 - $GNGSA,A,2,71,73,82,83,,,,,,,,,1.1,0.8,0.8*2E

2:55:20:587 Nachm. 03/28/17 - $GPGSV,3,1,11,01,05,025,19,10,18,303,14,12,35,227,32,13,27,158,31*77

2:55:20:588 Nachm. 03/28/17 - $GPGSV,3,2,11,15,49,196,34,17,41,077,26,19,41,109,33,24,64,286,19*7A

2:55:20:591 Nachm. 03/28/17 - $GPGSV,3,3,11,28,14,053,20,18,17,275,,32,01,322,*4E

2:55:20:592 Nachm. 03/28/17 - $GLGSV,2,1,06,82,35,060,26,73,72,012,25,83,24,122,30,71,35,229,30*6E

2:55:20:597 Nachm. 03/28/17 - $GLGSV,2,2,06,72,,,29,65,10,341,*59

2:55:20:599 Nachm. 03/28/17 - $GPGGA,125516.0,5208.443828,N,01138.504917,E,1,08,0.8,73.8,M,45.0,M,,*6E

2:55:20:599 Nachm. 03/28/17 - $GNGNS,125516.0,5208.443828,N,01138.504917,E,AA,12,0.8,73.8,45.0,,*51

2:55:20:599 Nachm. 03/28/17 - $GPVTG,132.5,T,132.1,M,0.0,N,0.0,K,A*27

2:55:20:600 Nachm. 03/28/17 - $GPRMC,125516.0,A,5208.443828,N,01138.504917,E,0.0,132.5,280317,0.4,E,A*04

2:55:20:600 Nachm. 03/28/17 - $GPGSA,A,2,10,12,13,15,17,19,24,28,,,,,1.1,0.8,0.8*35

2:55:20:600 Nachm. 03/28/17 - $GNGSA,A,2,10,12,13,15,17,19,24,28,,,,,1.1,0.8,0.8*2B

2:55:20:601 Nachm. 03/28/17 - $GNGSA,A,2,71,73,82,83,,,,,,,,,1.1,0.8,0.8*2E

2:55:21:588 Nachm. 03/28/17 - $GPGSV,3,1,11,01,05,025,17,10,18,303,14,12,35,227,32,13,27,158,31*79

2:55:21:590 Nachm. 03/28/17 - $GPGSV,3,2,11,15,49,196,34,17,41,077,26,19,41,109,33,24,64,286,20*70

2:55:21:590 Nachm. 03/28/17 - $GPGSV,3,3,11,28,14,053,18,18,17,275,,32,01,322,*45

2:55:21:591 Nachm. 03/28/17 - $GLGSV,2,1,06,82,35,060,25,73,72,012,24,83,24,122,29,71,35,229,29*6C

2:55:21:591 Nachm. 03/28/17 - $GLGSV,2,2,06,72,,,29,65,10,341,*59

2:55:21:591 Nachm. 03/28/17 - $GPGGA,125517.0,5208.443780,N,01138.504994,E,1,08,0.8,73.1,M,45.0,M,,*60

2:55:21:591 Nachm. 03/28/17 - $GNGNS,125517.0,5208.443780,N,01138.504994,E,AA,12,0.8,73.1,45.0,,*5F

2:55:21:591 Nachm. 03/28/17 - $GPVTG,132.5,T,132.1,M,0.0,N,0.0,K,A*27

2:55:21:592 Nachm. 03/28/17 - $GPRMC,125517.0,A,5208.443780,N,01138.504994,E,0.0,132.5,280317,0.4,E,A*03

2:55:21:593 Nachm. 03/28/17 - $GPGSA,A,2,10,12,13,15,17,19,24,28,,,,,1.1,0.8,0.8*35

2:55:21:593 Nachm. 03/28/17 - $GNGSA,A,2,10,12,13,15,17,19,24,28,,,,,1.1,0.8,0.8*2B

2:55:21:594 Nachm. 03/28/17 - $GNGSA,A,2,71,73,82,83,,,,,,,,,1.1,0.8,0.8*2E

2:55:22:585 Nachm. 03/28/17 - $GPGSV,3,1,11,01,05,025,20,10,18,303,14,12,35,227,32,13,27,158,30*7C

2:55:22:586 Nachm. 03/28/17 - $GPGSV,3,2,11,15,49,196,33,17,41,077,27,19,41,109,33,24,64,286,20*76

2:55:22:591 Nachm. 03/28/17 - $GPGSV,3,3,11,28,14,053,20,18,17,275,,32,01,322,*4E

2:55:22:591 Nachm. 03/28/17 - $GLGSV,2,1,06,82,35,060,24,73,72,012,24,83,24,122,29,71,35,229,30*65

2:55:22:591 Nachm. 03/28/17 - $GLGSV,2,2,06,72,,,29,65,10,341,*59

2:55:22:591 Nachm. 03/28/17 - $GPGGA,125518.0,5208.443752,N,01138.505045,E,1,08,0.8,72.7,M,45.0,M,,*63

2:55:22:593 Nachm. 03/28/17 - $GNGNS,125518.0,5208.443752,N,01138.505045,E,AA,12,0.8,72.7,45.0,,*5C

2:55:22:593 Nachm. 03/28/17 - $GPVTG,132.5,T,132.1,M,0.0,N,0.0,K,A*27

2:55:22:594 Nachm. 03/28/17 - $GPRMC,125518.0,A,5208.443752,N,01138.505045,E,0.0,132.5,280317,0.4,E,A*07

2:55:22:597 Nachm. 03/28/17 - $GPGSA,A,2,10,12,13,15,17,19,24,28,,,,,1.1,0.8,0.8*35

2:55:22:598 Nachm. 03/28/17 - $GNGSA,A,2,10,12,13,15,17,19,24,28,,,,,1.1,0.8,0.8*2B

2:55:22:598 Nachm. 03/28/17 - $GNGSA,A,2,71,73,82,83,,,,,,,,,1.1,0.8,0.8*2E

2:55:23:588 Nachm. 03/28/17 - $GPGSV,3,1,11,01,05,025,20,10,18,303,14,12,35,227,32,13,27,158,29*74

2:55:23:590 Nachm. 03/28/17 - $GPGSV,3,2,11,15,49,196,33,17,41,077,28,19,41,109,33,24,64,286,21*78

2:55:23:591 Nachm. 03/28/17 - $GPGSV,3,3,11,28,14,053,21,18,17,275,,32,01,322,*4F

2:55:23:592 Nachm. 03/28/17 - $GLGSV,2,1,06,82,35,060,24,73,72,012,25,83,24,122,30,71,35,229,29*64

2:55:23:592 Nachm. 03/28/17 - $GLGSV,2,2,06,72,,,30,65,10,341,*51

2:55:23:594 Nachm. 03/28/17 - $GPGGA,125519.0,5208.443734,N,01138.505076,E,1,07,1.0,72.4,M,45.0,M,,*67

2:55:23:595 Nachm. 03/28/17 - $GNGNS,125519.0,5208.443734,N,01138.505076,E,AA,11,1.0,72.4,45.0,,*54

2:55:23:599 Nachm. 03/28/17 - $GPVTG,132.5,T,132.1,M,0.0,N,0.0,K,A*27

2:55:23:605 Nachm. 03/28/17 - $GPRMC,125519.0,A,5208.443734,N,01138.505076,E,0.0,132.5,280317,0.4,E,A*06

2:55:23:606 Nachm. 03/28/17 - $GPGSA,A,2,12,13,15,17,19,24,28,,,,,,1.3,1.0,0.9*3E

2:55:23:608 Nachm. 03/28/17 - $GNGSA,A,2,12,13,15,17,19,24,28,,,,,,1.3,1.0,0.9*20

2:55:23:609 Nachm. 03/28/17 - $GNGSA,A,2,71,73,82,83,,,,,,,,,1.3,1.0,0.9*24

2:55:24:586 Nachm. 03/28/17 - $GPGSV,3,1,11,01,05,025,21,10,18,303,14,12,35,227,32,13,27,158,30*7D

2:55:24:587 Nachm. 03/28/17 - $GPGSV,3,2,11,15,49,196,32,17,41,077,28,19,41,109,33,24,64,286,24*7C

2:55:24:587 Nachm. 03/28/17 - $GPGSV,3,3,11,28,14,053,22,18,17,275,,32,01,322,*4C

2:55:24:597 Nachm. 03/28/17 - $GLGSV,2,1,06,82,35,060,24,73,72,012,24,83,24,122,30,71,35,229,30*6D

2:55:24:598 Nachm. 03/28/17 - $GLGSV,2,2,06,72,,,30,65,10,341,*51

2:55:24:598 Nachm. 03/28/17 - $GPGGA,125520.0,5208.443744,N,01138.505074,E,1,07,1.0,72.4,M,45.0,M,,*68

2:55:24:599 Nachm. 03/28/17 - $GNGNS,125520.0,5208.443744,N,01138.505074,E,AA,11,1.0,72.4,45.0,,*5B

2:55:24:599 Nachm. 03/28/17 - $GPVTG,132.5,T,132.1,M,0.0,N,0.0,K,A*27

2:55:24:599 Nachm. 03/28/17 - $GPRMC,125520.0,A,5208.443744,N,01138.505074,E,0.0,132.5,280317,0.4,E,A*09

2:55:24:600 Nachm. 03/28/17 - $GPGSA,A,2,12,13,15,17,19,24,28,,,,,,1.3,1.0,0.9*3E

2:55:24:600 Nachm. 03/28/17 - $GNGSA,A,2,12,13,15,17,19,24,28,,,,,,1.3,1.0,0.9*20

2:55:24:600 Nachm. 03/28/17 - $GNGSA,A,2,71,73,82,83,,,,,,,,,1.3,1.0,0.9*24

2:55:25:585 Nachm. 03/28/17 - $GPGSV,3,1,11,01,05,025,20,10,18,303,14,12,35,227,32,13,27,158,29*74

2:55:25:587 Nachm. 03/28/17 - $GPGSV,3,2,11,15,49,196,33,17,41,077,28,18,17,275,16,19,41,109,33*7B

2:55:25:588 Nachm. 03/28/17 - $GPGSV,3,3,11,24,64,286,22,28,14,053,22,32,01,322,*4B

2:55:25:593 Nachm. 03/28/17 - $GLGSV,2,1,06,82,35,060,24,73,72,012,24,83,24,122,30,71,35,229,30*6D

2:55:25:595 Nachm. 03/28/17 - $GLGSV,2,2,06,72,,,30,65,10,341,*51

2:55:25:596 Nachm. 03/28/17 - $GPGGA,125521.0,5208.443732,N,01138.505086,E,1,08,0.8,72.3,M,45.0,M,,*64

2:55:25:598 Nachm. 03/28/17 - $GNGNS,125521.0,5208.443732,N,01138.505086,E,AA,12,0.8,72.3,45.0,,*5B

2:55:25:599 Nachm. 03/28/17 - $GPVTG,132.5,T,132.1,M,0.0,N,0.0,K,A*27

2:55:25:599 Nachm. 03/28/17 - $GPRMC,125521.0,A,5208.443732,N,01138.505086,E,0.0,132.5,280317,0.4,E,A*04

2:55:25:600 Nachm. 03/28/17 - $GPGSA,A,2,12,13,15,17,18,19,24,28,,,,,1.2,0.8,0.8*3E

2:55:25:600 Nachm. 03/28/17 - $GNGSA,A,2,12,13,15,17,18,19,24,28,,,,,1.2,0.8,0.8*20

2:55:25:601 Nachm. 03/28/17 - $GNGSA,A,2,71,73,82,83,,,,,,,,,1.2,0.8,0.8*2D

2:55:26:589 Nachm. 03/28/17 - $GPGSV,3,1,11,01,05,025,20,10,18,303,14,12,35,227,32,13,27,158,29*74

2:55:26:590 Nachm. 03/28/17 - $GPGSV,3,2,11,15,49,196,33,17,41,077,28,18,17,275,16,19,41,109,33*7B

2:55:26:591 Nachm. 03/28/17 - $GPGSV,3,3,11,24,64,286,22,28,14,053,21,32,01,322,*48

2:55:26:596 Nachm. 03/28/17 - $GLGSV,2,1,06,82,35,060,23,73,72,012,24,83,24,122,30,71,35,229,29*62

2:55:26:598 Nachm. 03/28/17 - $GLGSV,2,2,06,72,,,30,65,10,341,*51

2:55:26:601 Nachm. 03/28/17 - $GPGGA,125522.0,5208.443742,N,01138.505078,E,1,08,0.8,72.3,M,45.0,M,,*61

2:55:26:601 Nachm. 03/28/17 - $GNGNS,125522.0,5208.443742,N,01138.505078,E,AA,12,0.8,72.3,45.0,,*5E

2:55:26:601 Nachm. 03/28/17 - $GPVTG,132.5,T,132.1,M,0.0,N,0.0,K,A*27

2:55:26:601 Nachm. 03/28/17 - $GPRMC,125522.0,A,5208.443742,N,01138.505078,E,0.0,132.5,280317,0.4,E,A*01

2:55:26:602 Nachm. 03/28/17 - $GPGSA,A,2,12,13,15,17,18,19,24,28,,,,,1.2,0.8,0.8*3E

2:55:26:602 Nachm. 03/28/17 - $GNGSA,A,2,12,13,15,17,18,19,24,28,,,,,1.2,0.8,0.8*20

2:55:26:602 Nachm. 03/28/17 - $GNGSA,A,2,71,73,82,83,,,,,,,,,1.2,0.8,0.8*2D

2:55:27:587 Nachm. 03/28/17 - $GPGSV,3,1,11,01,05,025,20,10,18,303,12,12,35,227,31,13,27,158,29*71

2:55:27:588 Nachm. 03/28/17 - $GPGSV,3,2,11,15,49,196,32,17,41,077,27,18,17,275,16,19,41,109,33*75

2:55:27:589 Nachm. 03/28/17 - $GPGSV,3,3,11,24,64,286,19,28,14,053,21,32,01,322,*40

2:55:27:590 Nachm. 03/28/17 - $GLGSV,2,1,06,82,35,060,23,73,72,012,25,83,24,122,29,71,35,229,29*6B

2:55:27:590 Nachm. 03/28/17 - $GLGSV,2,2,06,72,,,29,65,10,341,*59

2:55:27:591 Nachm. 03/28/17 - $GPGGA,125523.0,5208.443736,N,01138.505081,E,1,09,0.8,72.3,M,45.0,M,,*64

2:55:27:601 Nachm. 03/28/17 - $GNGNS,125523.0,5208.443736,N,01138.505081,E,AA,13,0.8,72.3,45.0,,*5B

2:55:27:604 Nachm. 03/28/17 - $GPVTG,132.5,T,132.1,M,0.0,N,0.0,K,A*27

2:55:27:605 Nachm. 03/28/17 - $GPRMC,125523.0,A,5208.443736,N,01138.505081,E,0.0,132.5,280317,0.4,E,A*05

2:55:27:605 Nachm. 03/28/17 - $GPGSA,A,2,10,12,13,15,17,18,19,24,28,,,,1.1,0.8,0.8*3C

2:55:27:606 Nachm. 03/28/17 - $GNGSA,A,2,10,12,13,15,17,18,19,24,28,,,,1.1,0.8,0.8*22

2:55:27:607 Nachm. 03/28/17 - $GNGSA,A,2,71,73,82,83,,,,,,,,,1.1,0.8,0.8*2E

2:55:28:587 Nachm. 03/28/17 - $GPGSV,3,1,11,01,05,025,19,10,18,303,12,12,35,227,32,13,27,158,29*78

2:55:28:587 Nachm. 03/28/17 - $GPGSV,3,2,11,15,49,196,33,17,41,077,28,18,17,275,16,19,41,109,33*7B

2:55:28:589 Nachm. 03/28/17 - $GPGSV,3,3,11,24,64,286,20,28,14,053,20,32,01,322,*4B

2:55:28:589 Nachm. 03/28/17 - $GLGSV,2,1,06,82,35,060,22,73,72,012,25,83,24,122,30,71,35,229,29*62

2:55:28:590 Nachm. 03/28/17 - $GLGSV,2,2,06,72,,,29,65,10,341,*59

2:55:28:592 Nachm. 03/28/17 - $GPGGA,125524.0,5208.443740,N,01138.505078,E,1,09,0.8,72.2,M,45.0,M,,*65

2:55:28:592 Nachm. 03/28/17 - $GNGNS,125524.0,5208.443740,N,01138.505078,E,AA,13,0.8,72.2,45.0,,*5A

2:55:28:595 Nachm. 03/28/17 - $GPVTG,132.5,T,132.1,M,0.0,N,0.0,K,A*27

2:55:28:595 Nachm. 03/28/17 - $GPRMC,125524.0,A,5208.443740,N,01138.505078,E,0.0,132.5,280317,0.4,E,A*05

2:55:28:596 Nachm. 03/28/17 - $GPGSA,A,2,10,12,13,15,17,18,19,24,28,,,,1.1,0.8,0.8*3C

2:55:28:596 Nachm. 03/28/17 - $GNGSA,A,2,10,12,13,15,17,18,19,24,28,,,,1.1,0.8,0.8*22

2:55:28:596 Nachm. 03/28/17 - $GNGSA,A,2,71,73,82,83,,,,,,,,,1.1,0.8,0.8*2E

2:55:29:587 Nachm. 03/28/17 - $GPGSV,3,1,11,01,05,025,19,10,18,303,12,12,35,227,31,13,27,158,27*75

2:55:29:588 Nachm. 03/28/17 - $GPGSV,3,2,11,15,49,196,34,17,41,077,29,18,17,275,15,19,41,109,32*7F

2:55:29:588 Nachm. 03/28/17 - $GPGSV,3,3,11,24,64,286,19,28,14,053,20,32,01,322,*41

2:55:29:588 Nachm. 03/28/17 - $GLGSV,2,1,06,82,35,060,21,73,72,012,26,65,10,341,12,83,24,122,30*67

2:55:29:594 Nachm. 03/28/17 - $GLGSV,2,2,06,71,35,229,28,72,,,29*5E

2:55:29:595 Nachm. 03/28/17 - $GPGGA,125525.0,5208.443744,N,01138.505079,E,1,09,0.8,72.2,M,45.0,M,,*61

2:55:29:596 Nachm. 03/28/17 - $GNGNS,125525.0,5208.443744,N,01138.505079,E,AA,13,0.8,72.2,45.0,,*5E

2:55:29:598 Nachm. 03/28/17 - $GPVTG,132.5,T,132.1,M,0.0,N,0.0,K,A*27

2:55:29:602 Nachm. 03/28/17 - $GPRMC,125525.0,A,5208.443744,N,01138.505079,E,0.0,132.5,280317,0.4,E,A*01

2:55:29:602 Nachm. 03/28/17 - $GPGSA,A,2,10,12,13,15,17,18,19,24,28,,,,1.1,0.8,0.8*3C

2:55:29:602 Nachm. 03/28/17 - $GNGSA,A,2,10,12,13,15,17,18,19,24,28,,,,1.1,0.8,0.8*22

2:55:29:603 Nachm. 03/28/17 - $GNGSA,A,2,71,73,82,83,,,,,,,,,1.1,0.8,0.8*2E

2:55:30:587 Nachm. 03/28/17 - $GPGSV,3,1,11,01,05,025,17,10,18,303,12,12,35,227,31,13,27,158,27*7B

2:55:30:591 Nachm. 03/28/17 - $GPGSV,3,2,11,15,49,196,34,17,41,077,29,19,41,109,32,24,64,286,20*7E

2:55:30:591 Nachm. 03/28/17 - $GPGSV,3,3,11,28,14,053,19,18,17,275,,32,01,322,*44

2:55:30:595 Nachm. 03/28/17 - $GLGSV,2,1,06,82,35,060,21,73,72,012,25,65,10,341,12,83,24,122,30*64

2:55:30:597 Nachm. 03/28/17 - $GLGSV,2,2,06,71,35,229,27,72,,,29*51

2:55:30:598 Nachm. 03/28/17 - $GPGGA,125526.0,5208.443751,N,01138.505080,E,1,09,0.8,72.2,M,45.0,M,,*60

2:55:30:599 Nachm. 03/28/17 - $GNGNS,125526.0,5208.443751,N,01138.505080,E,AA,13,0.8,72.2,45.0,,*5F

2:55:30:601 Nachm. 03/28/17 - $GPVTG,132.5,T,132.1,M,0.0,N,0.0,K,A*27

2:55:30:602 Nachm. 03/28/17 - $GPRMC,125526.0,A,5208.443751,N,01138.505080,E,0.0,132.5,280317,0.4,E,A*00

2:55:30:603 Nachm. 03/28/17 - $GPGSA,A,2,10,12,13,15,17,18,19,24,28,,,,1.1,0.8,0.8*3C

2:55:30:604 Nachm. 03/28/17 - $GNGSA,A,2,10,12,13,15,17,18,19,24,28,,,,1.1,0.8,0.8*22

2:55:30:605 Nachm. 03/28/17 - $GNGSA,A,2,71,73,82,83,,,,,,,,,1.1,0.8,0.8*2E

2:55:31:588 Nachm. 03/28/17 - $GPGSV,3,1,11,01,05,025,20,10,18,303,12,12,35,227,32,13,27,158,28*73

2:55:31:590 Nachm. 03/28/17 - $GPGSV,3,2,11,15,49,196,35,17,41,077,30,19,41,109,33,24,64,286,20*76

2:55:31:590 Nachm. 03/28/17 - $GPGSV,3,3,11,28,14,053,20,18,17,275,,32,01,322,*4E

2:55:31:591 Nachm. 03/28/17 - $GLGSV,2,1,06,82,35,060,20,73,72,012,26,65,10,341,20,83,24,122,31*66

2:55:31:611 Nachm. 03/28/17 - $GLGSV,2,2,06,71,35,229,27,72,,,30*59

2:55:31:612 Nachm. 03/28/17 - $GPGGA,125527.0,5208.443754,N,01138.505078,E,1,09,0.8,72.2,M,45.0,M,,*63

2:55:31:612 Nachm. 03/28/17 - $GNGNS,125527.0,5208.443754,N,01138.505078,E,AA,13,0.8,72.2,45.0,,*5C

2:55:31:612 Nachm. 03/28/17 - $GPVTG,132.5,T,132.1,M,0.0,N,0.0,K,A*27

2:55:31:613 Nachm. 03/28/17 - $GPRMC,125527.0,A,5208.443754,N,01138.505078,E,0.0,132.5,280317,0.4,E,A*03

2:55:31:613 Nachm. 03/28/17 - $GPGSA,A,2,10,12,13,15,17,18,19,24,28,,,,1.1,0.8,0.8*3C

2:55:31:614 Nachm. 03/28/17 - $GNGSA,A,2,10,12,13,15,17,18,19,24,28,,,,1.1,0.8,0.8*22

2:55:31:615 Nachm. 03/28/17 - $GNGSA,A,2,71,73,82,83,,,,,,,,,1.1,0.8,0.8*2E

2:55:32:586 Nachm. 03/28/17 - $GPGSV,3,1,11,01,05,025,18,10,18,303,12,12,35,227,31,13,27,158,26*75

2:55:32:587 Nachm. 03/28/17 - $GPGSV,3,2,11,15,49,196,34,17,41,077,30,19,41,109,32,24,64,286,21*77

2:55:32:587 Nachm. 03/28/17 - $GPGSV,3,3,11,28,14,053,20,18,17,275,,32,01,322,*4E

2:55:32:588 Nachm. 03/28/17 - $GLGSV,2,1,06,82,35,060,20,73,72,012,26,65,10,341,19,83,24,122,30*6D

2:55:32:588 Nachm. 03/28/17 - $GLGSV,2,2,06,71,35,229,24,72,,,29*52

2:55:32:588 Nachm. 03/28/17 - $GPGGA,125528.0,5208.443758,N,01138.505077,E,1,09,0.8,72.2,M,45.0,M,,*6F

2:55:32:592 Nachm. 03/28/17 - $GNGNS,125528.0,5208.443758,N,01138.505077,E,AA,13,0.8,72.2,45.0,,*50

2:55:32:594 Nachm. 03/28/17 - $GPVTG,132.5,T,132.1,M,0.0,N,0.0,K,A*27

2:55:32:595 Nachm. 03/28/17 - $GPRMC,125528.0,A,5208.443758,N,01138.505077,E,0.0,132.5,280317,0.4,E,A*0F

2:55:32:598 Nachm. 03/28/17 - $GPGSA,A,2,10,12,13,15,17,18,19,24,28,,,,1.1,0.8,0.8*3C

2:55:32:602 Nachm. 03/28/17 - $GNGSA,A,2,10,12,13,15,17,18,19,24,28,,,,1.1,0.8,0.8*22

2:55:32:603 Nachm. 03/28/17 - $GNGSA,A,2,71,73,82,83,,,,,,,,,1.1,0.8,0.8*2E

2:55:33:587 Nachm. 03/28/17 - $GPGSV,3,1,11,01,05,025,19,10,18,303,12,12,35,227,31,13,27,158,28*7A

2:55:33:588 Nachm. 03/28/17 - $GPGSV,3,2,11,15,49,196,34,17,41,077,31,19,41,109,32,24,64,286,24*73

2:55:33:588 Nachm. 03/28/17 - $GPGSV,3,3,11,28,14,053,20,18,17,275,,32,01,322,*4E

2:55:33:590 Nachm. 03/28/17 - $GLGSV,2,1,06,82,35,060,19,73,72,012,26,65,10,341,20,83,24,122,30*6D

2:55:33:591 Nachm. 03/28/17 - $GLGSV,2,2,06,71,35,229,25,72,,,30*5B

2:55:33:591 Nachm. 03/28/17 - $GPGGA,125529.0,5208.443764,N,01138.505074,E,1,09,0.8,72.2,M,45.0,M,,*62

2:55:33:591 Nachm. 03/28/17 - $GNGNS,125529.0,5208.443764,N,01138.505074,E,AA,13,0.8,72.2,45.0,,*5D

2:55:33:593 Nachm. 03/28/17 - $GPVTG,132.5,T,132.1,M,0.0,N,0.0,K,A*27

2:55:33:601 Nachm. 03/28/17 - $GPRMC,125529.0,A,5208.443764,N,01138.505074,E,0.0,132.5,280317,0.4,E,A*02

2:55:33:602 Nachm. 03/28/17 - $GPGSA,A,2,10,12,13,15,17,18,19,24,28,,,,1.1,0.8,0.8*3C

2:55:33:603 Nachm. 03/28/17 - $GNGSA,A,2,10,12,13,15,17,18,19,24,28,,,,1.1,0.8,0.8*22

2:55:33:604 Nachm. 03/28/17 - $GNGSA,A,2,71,73,82,83,,,,,,,,,1.1,0.8,0.8*2E

2:55:34:588 Nachm. 03/28/17 - $GPGSV,3,1,11,01,05,025,18,12,35,227,32,13,27,158,28,15,49,196,35*72

2:55:34:589 Nachm. 03/28/17 - $GPGSV,3,2,11,17,41,077,31,19,41,109,33,24,64,286,19,28,14,053,21*76

2:55:34:589 Nachm. 03/28/17 - $GPGSV,3,3,11,10,18,303,,18,17,275,,32,01,322,*4D

2:55:34:593 Nachm. 03/28/17 - $GLGSV,2,1,06,82,35,060,20,73,72,012,26,65,10,341,19,83,24,122,31*6C

2:55:34:594 Nachm. 03/28/17 - $GLGSV,2,2,06,71,35,229,24,72,,,30*5A

2:55:34:596 Nachm. 03/28/17 - $GPGGA,125530.0,5208.443769,N,01138.505078,E,1,08,0.8,72.1,M,45.0,M,,*69

2:55:34:597 Nachm. 03/28/17 - $GNGNS,125530.0,5208.443769,N,01138.505078,E,AA,12,0.8,72.1,45.0,,*56

2:55:34:598 Nachm. 03/28/17 - $GPVTG,132.5,T,132.1,M,0.0,N,0.0,K,A*27

2:55:34:601 Nachm. 03/28/17 - $GPRMC,125530.0,A,5208.443769,N,01138.505078,E,0.0,132.5,280317,0.4,E,A*0B

2:55:34:606 Nachm. 03/28/17 - $GPGSA,A,2,12,13,15,17,18,19,24,28,,,,,1.2,0.8,0.8*3E

2:55:34:608 Nachm. 03/28/17 - $GNGSA,A,2,12,13,15,17,18,19,24,28,,,,,1.2,0.8,0.8*20

2:55:34:608 Nachm. 03/28/17 - $GNGSA,A,2,71,73,82,83,,,,,,,,,1.2,0.8,0.8*2D

2:55:35:587 Nachm. 03/28/17 - $GPGSV,3,1,11,01,05,025,17,12,35,227,31,13,27,158,28,15,49,196,35*7E

2:55:35:588 Nachm. 03/28/17 - $GPGSV,3,2,11,17,41,077,31,19,41,109,32,24,64,286,22,28,14,053,22*7C

2:55:35:588 Nachm. 03/28/17 - $GPGSV,3,3,11,10,18,303,,18,17,275,,32,01,322,*4D

2:55:35:588 Nachm. 03/28/17 - $GLGSV,2,1,06,82,35,060,20,73,72,012,25,65,10,341,19,83,24,122,31*6F

2:55:35:591 Nachm. 03/28/17 - $GLGSV,2,2,06,71,35,229,23,72,,,29*55

2:55:35:591 Nachm. 03/28/17 - $GPGGA,125531.0,5208.443771,N,01138.505079,E,1,08,0.8,72.1,M,45.0,M,,*60

2:55:35:591 Nachm. 03/28/17 - $GNGNS,125531.0,5208.443771,N,01138.505079,E,AA,12,0.8,72.1,45.0,,*5F

2:55:35:591 Nachm. 03/28/17 - $GPVTG,132.5,T,132.1,M,0.0,N,0.0,K,A*27

2:55:35:594 Nachm. 03/28/17 - $GPRMC,125531.0,A,5208.443771,N,01138.505079,E,0.0,132.5,280317,0.4,E,A*02

2:55:35:594 Nachm. 03/28/17 - $GPGSA,A,2,12,13,15,17,18,19,24,28,,,,,1.2,0.8,0.8*3E

2:55:35:594 Nachm. 03/28/17 - $GNGSA,A,2,12,13,15,17,18,19,24,28,,,,,1.2,0.8,0.8*20

2:55:35:595 Nachm. 03/28/17 - $GNGSA,A,2,71,73,82,83,,,,,,,,,1.2,0.8,0.8*2D

2:55:36:588 Nachm. 03/28/17 - $GPGSV,3,1,11,01,05,025,17,12,35,227,31,13,27,158,30,15,49,196,35*77

2:55:36:589 Nachm. 03/28/17 - $GPGSV,3,2,11,17,41,077,31,19,41,109,32,24,64,286,27,28,14,053,18*70

2:55:36:591 Nachm. 03/28/17 - $GPGSV,3,3,11,10,18,303,,18,17,275,,32,01,322,*4D

2:55:36:598 Nachm. 03/28/17 - $GLGSV,2,1,06,82,35,060,19,73,72,012,25,65,10,341,19,83,24,122,30*64

2:55:36:599 Nachm. 03/28/17 - $GLGSV,2,2,06,71,35,229,26,72,,,29*50

2:55:36:606 Nachm. 03/28/17 - $GPGGA,125532.0,5208.443694,N,01138.505150,E,1,07,0.9,72.3,M,45.0,M,,*6F

2:55:36:609 Nachm. 03/28/17 - $GNGNS,125532.0,5208.443694,N,01138.505150,E,AA,12,0.9,72.3,45.0,,*5F

2:55:36:611 Nachm. 03/28/17 - $GPVTG,132.5,T,132.1,M,0.0,N,0.0,K,A*27

2:55:36:612 Nachm. 03/28/17 - $GPRMC,125532.0,A,5208.443694,N,01138.505150,E,0.0,132.5,280317,0.4,E,A*01

2:55:36:613 Nachm. 03/28/17 - $GPGSA,A,2,12,13,15,17,19,24,28,,,,,,1.2,0.9,0.9*37

2:55:36:618 Nachm. 03/28/17 - $GNGSA,A,2,12,13,15,17,19,24,28,,,,,,1.2,0.9,0.9*29

2:55:36:619 Nachm. 03/28/17 - $GNGSA,A,2,71,72,73,82,83,,,,,,,,1.2,0.9,0.9*28

2:55:37:587 Nachm. 03/28/17 - $GPGSV,3,1,11,01,05,025,17,12,35,227,31,13,27,158,29,15,49,196,34*7E

2:55:37:589 Nachm. 03/28/17 - $GPGSV,3,2,11,17,41,077,31,19,41,109,32,24,64,286,27,28,14,053,17*7F

2:55:37:589 Nachm. 03/28/17 - $GPGSV,3,3,11,10,18,303,,18,17,275,,32,01,322,*4D

