3:03:57:584 Nachm. 03/28/17 - $GPGSV,3,1,12,10,17,299,24,12,39,230,18,13,23,158,14,17,41,071,35*73

3:03:57:585 Nachm. 03/28/17 - $GPGSV,3,2,12,18,15,271,21,19,43,104,26,24,69,286,28,28,10,054,14*7F

3:03:57:585 Nachm. 03/28/17 - $GPGSV,3,3,12,32,04,322,16,01,05,021,,15,45,194,,25,00,236,*75

3:03:57:585 Nachm. 03/28/17 - $GLGSV,2,1,07,74,33,279,23,82,35,053,28,73,70,026,28,65,14,338,21*6F

3:03:57:589 Nachm. 03/28/17 - $GLGSV,2,2,07,83,28,119,19,71,30,226,14,72,41,292,19*55

3:03:57:589 Nachm. 03/28/17 - $GPGGA,130353.0,5208.370333,N,01138.436112,E,1,09,0.7,40.2,M,45.0,M,,*62

3:03:57:589 Nachm. 03/28/17 - $GNGNS,130353.0,5208.370333,N,01138.436112,E,AA,15,0.7,40.2,45.0,,*5B

3:03:57:596 Nachm. 03/28/17 - $GPVTG,339.8,T,339.4,M,0.0,N,0.0,K,A*2F

3:03:57:597 Nachm. 03/28/17 - $GPRMC,130353.0,A,5208.370333,N,01138.436112,E,0.0,339.8,280317,0.4,E,A*08

3:03:57:598 Nachm. 03/28/17 - $GPGSA,A,2,10,12,13,15,17,18,19,24,28,,,,1.1,0.7,0.8*33

3:03:57:598 Nachm. 03/28/17 - $GNGSA,A,2,10,12,13,15,17,18,19,24,28,,,,1.1,0.7,0.8*2D

3:03:57:599 Nachm. 03/28/17 - $GNGSA,A,2,71,72,73,74,82,83,,,,,,,1.1,0.7,0.8*27

3:03:58:584 Nachm. 03/28/17 - $GPGSV,3,1,12,10,17,299,28,12,39,230,18,13,23,158,14,17,41,071,24*7F

3:03:58:585 Nachm. 03/28/17 - $GPGSV,3,2,12,18,15,271,16,19,43,104,30,24,69,286,29,28,10,054,20*7A

3:03:58:586 Nachm. 03/28/17 - $GPGSV,3,3,12,32,04,322,22,01,05,021,,15,45,194,,25,00,236,*72

3:03:58:587 Nachm. 03/28/17 - $GLGSV,2,1,07,74,33,279,26,82,35,053,32,73,70,026,30,65,14,338,16*6C

3:03:58:608 Nachm. 03/28/17 - $GLGSV,2,2,07,83,28,119,19,71,30,226,14,72,41,292,19*55

3:03:58:610 Nachm. 03/28/17 - $GPGGA,130354.0,5208.369747,N,01138.435904,E,1,08,0.7,42.1,M,45.0,M,,*66

3:03:58:610 Nachm. 03/28/17 - $GNGNS,130354.0,5208.369747,N,01138.435904,E,AA,14,0.7,42.1,45.0,,*5F

3:03:58:610 Nachm. 03/28/17 - $GPVTG,339.8,T,339.4,M,0.0,N,0.0,K,A*2F

3:03:58:610 Nachm. 03/28/17 - $GPRMC,130354.0,A,5208.369747,N,01138.435904,E,0.0,339.8,280317,0.4,E,A*0C

3:03:58:611 Nachm. 03/28/17 - $GPGSA,A,2,10,12,13,17,18,19,24,28,,,,,1.1,0.7,0.8*37

3:03:58:611 Nachm. 03/28/17 - $GNGSA,A,2,10,12,13,17,18,19,24,28,,,,,1.1,0.7,0.8*29

3:03:58:614 Nachm. 03/28/17 - $GNGSA,A,2,71,72,73,74,82,83,,,,,,,1.1,0.7,0.8*27

3:03:59:584 Nachm. 03/28/17 - $GPGSV,3,1,12,10,17,299,29,12,39,230,12,13,23,158,14,17,41,071,29*79

3:03:59:586 Nachm. 03/28/17 - $GPGSV,3,2,12,18,15,271,16,19,43,104,31,24,69,286,31,28,10,054,21*73

3:03:59:587 Nachm. 03/28/17 - $GPGSV,3,3,12,32,04,322,23,01,05,021,,15,45,194,,25,00,236,*73

3:03:59:591 Nachm. 03/28/17 - $GLGSV,2,1,07,74,33,279,25,82,35,053,33,73,70,026,31,65,14,338,16*6F

3:03:59:592 Nachm. 03/28/17 - $GLGSV,2,2,07,83,28,119,19,71,30,226,14,72,41,292,20*5F

3:03:59:595 Nachm. 03/28/17 - $GPGGA,130355.0,5208.369367,N,01138.435141,E,1,08,0.7,42.5,M,45.0,M,,*6C

3:03:59:599 Nachm. 03/28/17 - $GNGNS,130355.0,5208.369367,N,01138.435141,E,AA,14,0.7,42.5,45.0,,*55

3:03:59:600 Nachm. 03/28/17 - $GPVTG,339.8,T,339.4,M,0.0,N,0.0,K,A*2F

3:03:59:600 Nachm. 03/28/17 - $GPRMC,130355.0,A,5208.369367,N,01138.435141,E,0.0,339.8,280317,0.4,E,A*02

3:03:59:601 Nachm. 03/28/17 - $GPGSA,A,2,10,12,13,17,18,19,24,28,,,,,1.1,0.7,0.8*37

3:03:59:601 Nachm. 03/28/17 - $GNGSA,A,2,10,12,13,17,18,19,24,28,,,,,1.1,0.7,0.8*29

3:03:59:602 Nachm. 03/28/17 - $GNGSA,A,2,71,72,73,74,82,83,,,,,,,1.1,0.7,0.8*27

3:04:00:584 Nachm. 03/28/17 - $GPGSV,3,1,12,10,17,299,29,12,39,230,12,13,23,158,14,17,41,071,25*75

3:04:00:584 Nachm. 03/28/17 - $GPGSV,3,2,12,18,15,271,16,19,43,104,30,24,69,286,31,28,10,054,21*72

3:04:00:585 Nachm. 03/28/17 - $GPGSV,3,3,12,32,04,322,20,01,05,021,,15,45,194,,25,00,236,*70

3:04:00:587 Nachm. 03/28/17 - $GLGSV,2,1,07,74,33,279,23,82,35,053,34,73,70,026,30,65,14,338,16*6F

3:04:00:587 Nachm. 03/28/17 - $GLGSV,2,2,07,83,28,119,15,71,30,226,14,72,41,292,18*58

3:04:00:587 Nachm. 03/28/17 - $GPGGA,130356.0,5208.368612,N,01138.434804,E,1,08,0.7,42.3,M,45.0,M,,*66

3:04:00:587 Nachm. 03/28/17 - $GNGNS,130356.0,5208.368612,N,01138.434804,E,AA,14,0.7,42.3,45.0,,*5F

3:04:00:589 Nachm. 03/28/17 - $GPVTG,339.8,T,339.4,M,0.0,N,0.0,K,A*2F

3:04:00:590 Nachm. 03/28/17 - $GPRMC,130356.0,A,5208.368612,N,01138.434804,E,0.0,339.8,280317,0.4,E,A*0E

3:04:00:590 Nachm. 03/28/17 - $GPGSA,A,2,10,12,13,17,18,19,24,28,,,,,1.1,0.7,0.8*37

3:04:00:591 Nachm. 03/28/17 - $GNGSA,A,2,10,12,13,17,18,19,24,28,,,,,1.1,0.7,0.8*29

3:04:00:591 Nachm. 03/28/17 - $GNGSA,A,2,71,72,73,74,82,83,,,,,,,1.1,0.7,0.8*27

3:04:01:583 Nachm. 03/28/17 - $GPGSV,3,1,12,10,17,299,30,12,39,230,12,13,23,158,14,17,41,071,25*7D

3:04:01:584 Nachm. 03/28/17 - $GPGSV,3,2,12,18,15,271,16,19,43,104,30,24,69,286,31,28,10,054,21*72

3:04:01:585 Nachm. 03/28/17 - $GPGSV,3,3,12,32,04,322,21,01,05,021,,15,45,194,,25,00,236,*71

3:04:01:588 Nachm. 03/28/17 - $GLGSV,2,1,07,74,33,279,22,82,35,053,33,73,70,026,30,65,14,338,13*6C

3:04:01:589 Nachm. 03/28/17 - $GLGSV,2,2,07,83,28,119,17,71,30,226,14,72,41,292,18*5A

3:04:01:590 Nachm. 03/28/17 - $GPGGA,130357.0,5208.368060,N,01138.434239,E,1,08,0.7,43.4,M,45.0,M,,*66

3:04:01:595 Nachm. 03/28/17 - $GNGNS,130357.0,5208.368060,N,01138.434239,E,AA,14,0.7,43.4,45.0,,*5F

3:04:01:596 Nachm. 03/28/17 - $GPVTG,339.8,T,339.4,M,0.0,N,0.0,K,A*2F

3:04:01:598 Nachm. 03/28/17 - $GPRMC,130357.0,A,5208.368060,N,01138.434239,E,0.0,339.8,280317,0.4,E,A*08

3:04:01:598 Nachm. 03/28/17 - $GPGSA,A,2,10,12,13,17,18,19,24,28,,,,,1.1,0.7,0.8*37

3:04:01:599 Nachm. 03/28/17 - $GNGSA,A,2,10,12,13,17,18,19,24,28,,,,,1.1,0.7,0.8*29

3:04:01:599 Nachm. 03/28/17 - $GNGSA,A,2,71,72,73,74,82,83,,,,,,,1.1,0.7,0.8*27

3:04:02:584 Nachm. 03/28/17 - $GPGSV,3,1,12,10,17,299,29,12,39,230,16,13,23,158,14,17,41,071,22*76

3:04:02:585 Nachm. 03/28/17 - $GPGSV,3,2,12,18,15,271,16,19,43,104,31,24,69,286,31,28,10,054,20*72

3:04:02:586 Nachm. 03/28/17 - $GPGSV,3,3,12,32,04,322,23,01,05,021,,15,45,194,,25,00,236,*73

3:04:02:597 Nachm. 03/28/17 - $GLGSV,2,1,07,74,33,279,22,82,35,053,31,73,70,026,30,65,14,338,17*6A

3:04:02:604 Nachm. 03/28/17 - $GLGSV,2,2,07,83,28,119,17,71,30,226,14,72,41,292,16*54

3:04:02:612 Nachm. 03/28/17 - $GPGGA,130358.0,5208.367923,N,01138.434099,E,1,08,0.8,43.7,M,45.0,M,,*6C

3:04:02:612 Nachm. 03/28/17 - $GNGNS,130358.0,5208.367923,N,01138.434099,E,AA,13,0.8,43.7,45.0,,*52

3:04:02:613 Nachm. 03/28/17 - $GPVTG,339.8,T,339.4,M,0.0,N,0.0,K,A*2F

3:04:02:613 Nachm. 03/28/17 - $GPRMC,130358.0,A,5208.367923,N,01138.434099,E,0.0,339.8,280317,0.4,E,A*0E

3:04:02:614 Nachm. 03/28/17 - $GPGSA,A,2,10,12,13,17,18,19,24,28,,,,,1.1,0.8,0.8*38

3:04:02:614 Nachm. 03/28/17 - $GNGSA,A,2,10,12,13,17,18,19,24,28,,,,,1.1,0.8,0.8*26

3:04:02:615 Nachm. 03/28/17 - $GNGSA,A,2,72,73,74,82,83,,,,,,,,1.1,0.8,0.8*2E

3:04:03:586 Nachm. 03/28/17 - $GPGSV,3,1,12,10,17,299,29,12,39,230,21,13,23,158,13,17,41,071,25*72

3:04:03:587 Nachm. 03/28/17 - $GPGSV,3,2,12,18,15,271,16,19,43,104,29,24,69,286,26,28,10,054,20*7D

3:04:03:588 Nachm. 03/28/17 - $GPGSV,3,3,12,32,04,322,25,01,05,021,,15,45,194,,25,00,236,*75

3:04:03:609 Nachm. 03/28/17 - $GLGSV,2,1,07,74,33,279,24,82,35,053,27,73,70,026,30,65,14,338,17*6B

3:04:03:610 Nachm. 03/28/17 - $GLGSV,2,2,07,83,28,119,19,71,30,226,14,72,41,292,20*5F

3:04:03:610 Nachm. 03/28/17 - $GPGGA,130359.0,5208.368031,N,01138.433572,E,1,08,0.7,44.4,M,45.0,M,,*64

3:04:03:613 Nachm. 03/28/17 - $GNGNS,130359.0,5208.368031,N,01138.433572,E,AA,14,0.7,44.4,45.0,,*5D

3:04:03:613 Nachm. 03/28/17 - $GPVTG,339.8,T,339.4,M,0.0,N,0.0,K,A*2F

3:04:03:614 Nachm. 03/28/17 - $GPRMC,130359.0,A,5208.368031,N,01138.433572,E,0.0,339.8,280317,0.4,E,A*0D

3:04:03:614 Nachm. 03/28/17 - $GPGSA,A,2,10,12,13,17,18,19,24,28,,,,,1.1,0.7,0.8*37

3:04:03:614 Nachm. 03/28/17 - $GNGSA,A,2,10,12,13,17,18,19,24,28,,,,,1.1,0.7,0.8*29

3:04:03:615 Nachm. 03/28/17 - $GNGSA,A,2,71,72,73,74,82,83,,,,,,,1.1,0.7,0.8*27

3:04:04:584 Nachm. 03/28/17 - $GPGSV,3,1,12,10,17,299,29,12,39,230,23,13,23,158,13,17,41,071,21*74

3:04:04:584 Nachm. 03/28/17 - $GPGSV,3,2,12,18,15,271,12,19,43,104,31,24,69,286,32,28,10,054,17*71

3:04:04:586 Nachm. 03/28/17 - $GPGSV,3,3,12,32,04,322,23,01,05,021,,15,45,194,,25,00,236,*73

3:04:04:587 Nachm. 03/28/17 - $GLGSV,2,1,07,74,33,279,21,82,35,053,26,73,70,026,30,65,14,338,16*6E

3:04:04:587 Nachm. 03/28/17 - $GLGSV,2,2,07,83,28,119,19,71,30,226,14,72,41,292,21*5E

3:04:04:588 Nachm. 03/28/17 - $GPGGA,130400.0,5208.368155,N,01138.433529,E,1,08,0.7,44.9,M,45.0,M,,*6F

3:04:04:591 Nachm. 03/28/17 - $GNGNS,130400.0,5208.368155,N,01138.433529,E,AA,14,0.7,44.9,45.0,,*56

3:04:04:592 Nachm. 03/28/17 - $GPVTG,339.8,T,339.4,M,0.0,N,0.0,K,A*2F

3:04:04:617 Nachm. 03/28/17 - $GPRMC,130400.0,A,5208.368155,N,01138.433529,E,0.0,339.8,280317,0.4,E,A*0B

3:04:04:617 Nachm. 03/28/17 - $GPGSA,A,2,10,12,13,17,18,19,24,28,,,,,1.1,0.7,0.8*37

3:04:04:618 Nachm. 03/28/17 - $GNGSA,A,2,10,12,13,17,18,19,24,28,,,,,1.1,0.7,0.8*29

3:04:04:618 Nachm. 03/28/17 - $GNGSA,A,2,71,72,73,74,82,83,,,,,,,1.1,0.7,0.8*27

3:04:05:585 Nachm. 03/28/17 - $GPGSV,3,1,12,10,17,299,30,12,39,230,21,13,23,158,13,15,45,194,12*72

3:04:05:586 Nachm. 03/28/17 - $GPGSV,3,2,12,17,41,071,24,18,15,271,12,19,43,104,31,24,69,286,30*7C

3:04:05:593 Nachm. 03/28/17 - $GPGSV,3,3,12,28,10,054,19,32,04,322,23,01,05,021,,25,00,236,*78

3:04:05:595 Nachm. 03/28/17 - $GLGSV,2,1,07,74,33,279,24,82,35,053,30,73,70,026,29,65,14,338,19*6B

3:04:05:597 Nachm. 03/28/17 - $GLGSV,2,2,07,83,28,119,19,71,30,226,18,72,41,292,21*52

3:04:05:598 Nachm. 03/28/17 - $GPGGA,130401.0,5208.368182,N,01138.433424,E,1,09,0.7,45.3,M,45.0,M,,*62

3:04:05:600 Nachm. 03/28/17 - $GNGNS,130401.0,5208.368182,N,01138.433424,E,AA,15,0.7,45.3,45.0,,*5B

3:04:05:615 Nachm. 03/28/17 - $GPVTG,339.8,T,339.4,M,0.0,N,0.0,K,A*2F

3:04:05:617 Nachm. 03/28/17 - $GPRMC,130401.0,A,5208.368182,N,01138.433424,E,0.0,339.8,280317,0.4,E,A*0C

3:04:05:618 Nachm. 03/28/17 - $GPGSA,A,2,10,12,13,15,17,18,19,24,28,,,,1.1,0.7,0.8*33

3:04:05:619 Nachm. 03/28/17 - $GNGSA,A,2,10,12,13,15,17,18,19,24,28,,,,1.1,0.7,0.8*2D

3:04:05:620 Nachm. 03/28/17 - $GNGSA,A,2,71,72,73,74,82,83,,,,,,,1.1,0.7,0.8*27

3:04:06:584 Nachm. 03/28/17 - $GPGSV,3,1,12,10,17,299,30,12,39,230,20,13,23,158,13,15,45,194,12*73

3:04:06:585 Nachm. 03/28/17 - $GPGSV,3,2,12,17,41,071,28,18,15,271,15,19,43,104,30,24,69,286,29*7E

3:04:06:586 Nachm. 03/28/17 - $GPGSV,3,3,12,28,10,054,19,32,04,322,22,01,05,021,,25,00,236,*79

3:04:06:588 Nachm. 03/28/17 - $GLGSV,2,1,07,74,33,279,24,82,35,053,30,73,70,026,28,65,14,338,19*6A

3:04:06:588 Nachm. 03/28/17 - $GLGSV,2,2,07,83,28,119,15,71,30,226,20,72,41,292,22*56

3:04:06:588 Nachm. 03/28/17 - $GPGGA,130402.0,5208.368383,N,01138.433359,E,1,09,0.7,45.5,M,45.0,M,,*69

3:04:06:588 Nachm. 03/28/17 - $GNGNS,130402.0,5208.368383,N,01138.433359,E,AA,15,0.7,45.5,45.0,,*50

3:04:06:589 Nachm. 03/28/17 - $GPVTG,339.8,T,339.4,M,0.0,N,0.0,K,A*2F

3:04:06:589 Nachm. 03/28/17 - $GPRMC,130402.0,A,5208.368383,N,01138.433359,E,0.0,339.8,280317,0.4,E,A*01

3:04:06:589 Nachm. 03/28/17 - $GPGSA,A,2,10,12,13,15,17,18,19,24,28,,,,1.1,0.7,0.8*33

3:04:06:591 Nachm. 03/28/17 - $GNGSA,A,2,10,12,13,15,17,18,19,24,28,,,,1.1,0.7,0.8*2D

3:04:06:595 Nachm. 03/28/17 - $GNGSA,A,2,71,72,73,74,82,83,,,,,,,1.1,0.7,0.8*27

3:04:07:586 Nachm. 03/28/17 - $GPGSV,3,1,12,10,17,299,30,12,39,230,19,13,23,158,13,15,45,194,12*79

3:04:07:588 Nachm. 03/28/17 - $GPGSV,3,2,12,17,41,071,29,18,15,271,15,19,43,104,30,24,69,286,29*7F

3:04:07:591 Nachm. 03/28/17 - $GPGSV,3,3,12,28,10,054,19,32,04,322,21,01,05,021,,25,00,236,*7A

3:04:07:591 Nachm. 03/28/17 - $GLGSV,2,1,07,74,33,279,24,82,35,053,30,73,70,026,28,65,14,338,21*61

3:04:07:594 Nachm. 03/28/17 - $GLGSV,2,2,07,83,28,119,17,71,30,226,18,72,41,292,23*5E

3:04:07:595 Nachm. 03/28/17 - $GPGGA,130403.0,5208.368521,N,01138.433282,E,1,09,0.7,45.7,M,45.0,M,,*63

3:04:07:595 Nachm. 03/28/17 - $GNGNS,130403.0,5208.368521,N,01138.433282,E,AA,15,0.7,45.7,45.0,,*5A

3:04:07:596 Nachm. 03/28/17 - $GPVTG,339.8,T,339.4,M,0.0,N,0.0,K,A*2F

3:04:07:603 Nachm. 03/28/17 - $GPRMC,130403.0,A,5208.368521,N,01138.433282,E,0.0,339.8,280317,0.4,E,A*09

3:04:07:604 Nachm. 03/28/17 - $GPGSA,A,2,10,12,13,15,17,18,19,24,28,,,,1.1,0.7,0.8*33

3:04:07:604 Nachm. 03/28/17 - $GNGSA,A,2,10,12,13,15,17,18,19,24,28,,,,1.1,0.7,0.8*2D

3:04:07:605 Nachm. 03/28/17 - $GNGSA,A,2,71,72,73,74,82,83,,,,,,,1.1,0.7,0.8*27

3:04:08:585 Nachm. 03/28/17 - $GPGSV,3,1,12,10,17,299,30,12,39,230,21,13,23,158,13,15,45,194,12*72

3:04:08:594 Nachm. 03/28/17 - $GPGSV,3,2,12,17,41,071,29,18,15,271,15,19,43,104,30,24,69,286,29*7F

3:04:08:596 Nachm. 03/28/17 - $GPGSV,3,3,12,28,10,054,21,32,04,322,21,01,05,021,,25,00,236,*71

3:04:08:597 Nachm. 03/28/17 - $GLGSV,2,1,07,74,33,279,24,82,35,053,29,73,70,026,28,65,14,338,22*6A

3:04:08:604 Nachm. 03/28/17 - $GLGSV,2,2,07,83,28,119,17,71,30,226,19,72,41,292,22*5E

3:04:08:608 Nachm. 03/28/17 - $GPGGA,130404.0,5208.368691,N,01138.433272,E,1,09,0.7,45.9,M,45.0,M,,*6D

3:04:08:614 Nachm. 03/28/17 - $GNGNS,130404.0,5208.368691,N,01138.433272,E,AA,15,0.7,45.9,45.0,,*54

3:04:08:615 Nachm. 03/28/17 - $GPVTG,339.8,T,339.4,M,0.0,N,0.0,K,A*2F

3:04:08:616 Nachm. 03/28/17 - $GPRMC,130404.0,A,5208.368691,N,01138.433272,E,0.0,339.8,280317,0.4,E,A*09

3:04:08:618 Nachm. 03/28/17 - $GPGSA,A,2,10,12,13,15,17,18,19,24,28,,,,1.1,0.7,0.8*33

3:04:08:618 Nachm. 03/28/17 - $GNGSA,A,2,10,12,13,15,17,18,19,24,28,,,,1.1,0.7,0.8*2D

3:04:08:618 Nachm. 03/28/17 - $GNGSA,A,2,71,72,73,74,82,83,,,,,,,1.1,0.7,0.8*27

3:04:09:584 Nachm. 03/28/17 - $GPGSV,3,1,12,10,17,299,29,12,39,230,21,13,23,158,13,15,45,194,12*7A

3:04:09:585 Nachm. 03/28/17 - $GPGSV,3,2,12,17,41,071,29,18,15,271,14,19,43,104,28,24,69,286,28*76

3:04:09:586 Nachm. 03/28/17 - $GPGSV,3,3,12,28,10,054,21,32,04,322,20,01,05,021,,25,00,236,*70

3:04:09:593 Nachm. 03/28/17 - $GLGSV,2,1,07,74,33,279,26,82,35,053,28,73,70,026,28,65,14,338,24*6F

3:04:09:597 Nachm. 03/28/17 - $GLGSV,2,2,07,83,28,119,18,71,30,226,19,72,41,292,23*50

3:04:09:597 Nachm. 03/28/17 - $GPGGA,130405.0,5208.368819,N,01138.433290,E,1,09,0.7,46.0,M,45.0,M,,*64

3:04:09:598 Nachm. 03/28/17 - $GNGNS,130405.0,5208.368819,N,01138.433290,E,AA,15,0.7,46.0,45.0,,*5D

3:04:09:598 Nachm. 03/28/17 - $GPVTG,339.8,T,339.4,M,0.0,N,0.0,K,A*2F

3:04:09:599 Nachm. 03/28/17 - $GPRMC,130405.0,A,5208.368819,N,01138.433290,E,0.0,339.8,280317,0.4,E,A*0A

3:04:09:600 Nachm. 03/28/17 - $GPGSA,A,2,10,12,13,15,17,18,19,24,28,,,,1.1,0.7,0.8*33

3:04:09:601 Nachm. 03/28/17 - $GNGSA,A,2,10,12,13,15,17,18,19,24,28,,,,1.1,0.7,0.8*2D

3:04:09:601 Nachm. 03/28/17 - $GNGSA,A,2,71,72,73,74,82,83,,,,,,,1.1,0.7,0.8*27

3:04:10:585 Nachm. 03/28/17 - $GPGSV,3,1,12,10,17,299,29,12,39,230,20,13,23,158,13,15,45,194,12*7B

3:04:10:590 Nachm. 03/28/17 - $GPGSV,3,2,12,17,41,071,30,18,15,271,14,19,43,104,28,24,69,286,29*7F

3:04:10:592 Nachm. 03/28/17 - $GPGSV,3,3,12,28,10,054,18,32,04,322,20,01,05,021,,25,00,236,*7A

3:04:10:601 Nachm. 03/28/17 - $GLGSV,2,1,07,74,33,279,26,82,35,053,28,73,70,026,28,65,14,338,22*69

3:04:10:601 Nachm. 03/28/17 - $GLGSV,2,2,07,83,28,119,21,71,30,226,18,72,41,292,23*5B

3:04:10:601 Nachm. 03/28/17 - $GPGGA,130406.0,5208.368737,N,01138.433416,E,1,08,0.8,45.8,M,45.0,M,,*69

3:04:10:602 Nachm. 03/28/17 - $GNGNS,130406.0,5208.368737,N,01138.433416,E,AA,14,0.8,45.8,45.0,,*50

3:04:10:602 Nachm. 03/28/17 - $GPVTG,339.8,T,339.4,M,0.0,N,0.0,K,A*2F

3:04:10:602 Nachm. 03/28/17 - $GPRMC,130406.0,A,5208.368737,N,01138.433416,E,0.0,339.8,280317,0.4,E,A*02

3:04:10:602 Nachm. 03/28/17 - $GPGSA,A,2,10,12,15,17,18,19,24,28,,,,,1.1,0.8,0.8*3E

3:04:10:602 Nachm. 03/28/17 - $GNGSA,A,2,10,12,15,17,18,19,24,28,,,,,1.1,0.8,0.8*20

3:04:10:603 Nachm. 03/28/17 - $GNGSA,A,2,71,72,73,74,82,83,,,,,,,1.1,0.8,0.8*28

3:04:11:586 Nachm. 03/28/17 - $GPGSV,3,1,12,10,17,299,30,12,39,230,19,13,23,158,13,15,45,194,12*79

3:04:11:588 Nachm. 03/28/17 - $GPGSV,3,2,12,17,41,071,30,18,15,271,14,19,43,104,28,24,69,286,29*7F

3:04:11:592 Nachm. 03/28/17 - $GPGSV,3,3,12,28,10,054,19,32,04,322,20,01,05,021,,25,00,236,*7B

3:04:11:598 Nachm. 03/28/17 - $GLGSV,2,1,07,74,33,279,26,82,35,053,28,73,70,026,29,65,14,338,23*69

3:04:11:601 Nachm. 03/28/17 - $GLGSV,2,2,07,83,28,119,20,71,30,226,19,72,41,292,24*5C

3:04:11:602 Nachm. 03/28/17 - $GPGGA,130407.0,5208.368848,N,01138.433404,E,1,08,0.8,45.9,M,45.0,M,,*6D

3:04:11:605 Nachm. 03/28/17 - $GNGNS,130407.0,5208.368848,N,01138.433404,E,AA,14,0.8,45.9,45.0,,*54

3:04:11:606 Nachm. 03/28/17 - $GPVTG,339.8,T,339.4,M,0.0,N,0.0,K,A*2F

3:04:11:606 Nachm. 03/28/17 - $GPRMC,130407.0,A,5208.368848,N,01138.433404,E,0.0,339.8,280317,0.4,E,A*07

3:04:11:607 Nachm. 03/28/17 - $GPGSA,A,2,10,12,15,17,18,19,24,28,,,,,1.1,0.8,0.8*3E

3:04:11:607 Nachm. 03/28/17 - $GNGSA,A,2,10,12,15,17,18,19,24,28,,,,,1.1,0.8,0.8*20

3:04:11:607 Nachm. 03/28/17 - $GNGSA,A,2,71,72,73,74,82,83,,,,,,,1.1,0.8,0.8*28

3:04:12:585 Nachm. 03/28/17 - $GPGSV,3,1,12,10,17,299,30,12,39,230,21,13,23,158,13,15,45,194,12*72

3:04:12:592 Nachm. 03/28/17 - $GPGSV,3,2,12,17,41,071,30,18,15,271,14,19,43,104,27,24,69,286,29*70

3:04:12:594 Nachm. 03/28/17 - $GPGSV,3,3,12,28,10,054,20,32,04,322,18,01,05,021,,25,00,236,*7A

3:04:12:596 Nachm. 03/28/17 - $GLGSV,2,1,07,74,33,279,26,82,35,053,28,73,70,026,29,65,14,338,22*68

3:04:12:604 Nachm. 03/28/17 - $GLGSV,2,2,07,83,28,119,20,71,30,226,19,72,41,292,22*5A

3:04:12:611 Nachm. 03/28/17 - $GPGGA,130408.0,5208.368911,N,01138.433417,E,1,07,0.9,45.9,M,45.0,M,,*63

3:04:12:611 Nachm. 03/28/17 - $GNGNS,130408.0,5208.368911,N,01138.433417,E,AA,13,0.9,45.9,45.0,,*52

3:04:12:612 Nachm. 03/28/17 - $GPVTG,339.8,T,339.4,M,0.0,N,0.0,K,A*2F

3:04:12:612 Nachm. 03/28/17 - $GPRMC,130408.0,A,5208.368911,N,01138.433417,E,0.0,339.8,280317,0.4,E,A*07

3:04:12:613 Nachm. 03/28/17 - $GPGSA,A,2,10,12,17,18,19,24,28,,,,,,1.2,0.9,0.8*38

3:04:12:613 Nachm. 03/28/17 - $GNGSA,A,2,10,12,17,18,19,24,28,,,,,,1.2,0.9,0.8*26

3:04:12:614 Nachm. 03/28/17 - $GNGSA,A,2,71,72,73,74,82,83,,,,,,,1.2,0.9,0.8*2A

3:04:13:585 Nachm. 03/28/17 - $GPGSV,3,1,12,10,17,299,30,12,39,230,21,13,23,158,13,15,45,194,12*72

3:04:13:589 Nachm. 03/28/17 - $GPGSV,3,2,12,17,41,071,30,18,15,271,14,19,43,104,28,24,69,286,28*7E

3:04:13:597 Nachm. 03/28/17 - $GPGSV,3,3,12,28,10,054,21,32,04,322,20,01,05,021,,25,00,236,*70

3:04:13:598 Nachm. 03/28/17 - $GLGSV,2,1,07,74,33,279,25,82,35,053,28,73,70,026,29,65,14,338,23*6A

3:04:13:598 Nachm. 03/28/17 - $GLGSV,2,2,07,83,28,119,21,71,30,226,17,72,41,292,21*56

3:04:13:626 Nachm. 03/28/17 - $GPGGA,130409.0,5208.368987,N,01138.433445,E,1,07,0.9,46.0,M,45.0,M,,*60

3:04:13:643 Nachm. 03/28/17 - $GNGNS,130409.0,5208.368987,N,01138.433445,E,AA,13,0.9,46.0,45.0,,*51

3:04:13:643 Nachm. 03/28/17 - $GPVTG,339.8,T,339.4,M,0.0,N,0.0,K,A*2F

3:04:13:644 Nachm. 03/28/17 - $GPRMC,130409.0,A,5208.368987,N,01138.433445,E,0.0,339.8,280317,0.4,E,A*0E

3:04:13:644 Nachm. 03/28/17 - $GPGSA,A,2,10,12,17,18,19,24,28,,,,,,1.2,0.9,0.8*38

3:04:13:645 Nachm. 03/28/17 - $GNGSA,A,2,10,12,17,18,19,24,28,,,,,,1.2,0.9,0.8*26

3:04:13:646 Nachm. 03/28/17 - $GNGSA,A,2,71,72,73,74,82,83,,,,,,,1.2,0.9,0.8*2A

3:04:14:585 Nachm. 03/28/17 - $GPGSV,3,1,12,10,17,299,30,12,39,230,17,13,23,158,13,15,45,194,12*77

3:04:14:587 Nachm. 03/28/17 - $GPGSV,3,2,12,17,41,071,30,18,15,271,14,19,43,104,28,24,69,286,28*7E

3:04:14:593 Nachm. 03/28/17 - $GPGSV,3,3,12,28,10,054,20,32,04,322,20,01,05,021,,25,00,236,*71

3:04:14:596 Nachm. 03/28/17 - $GLGSV,2,1,07,74,33,279,25,82,35,053,29,73,70,026,29,65,14,338,22*6A

3:04:14:596 Nachm. 03/28/17 - $GLGSV,2,2,07,83,28,119,21,71,30,226,17,72,41,292,22*55

3:04:14:598 Nachm. 03/28/17 - $GPGGA,130410.0,5208.369047,N,01138.433455,E,1,07,0.9,46.0,M,45.0,M,,*6D

3:04:14:608 Nachm. 03/28/17 - $GNGNS,130410.0,5208.369047,N,01138.433455,E,AA,13,0.9,46.0,45.0,,*5C

3:04:14:614 Nachm. 03/28/17 - $GPVTG,339.8,T,339.4,M,0.0,N,0.0,K,A*2F

3:04:14:614 Nachm. 03/28/17 - $GPRMC,130410.0,A,5208.369047,N,01138.433455,E,0.0,339.8,280317,0.4,E,A*03

3:04:14:614 Nachm. 03/28/17 - $GPGSA,A,2,10,12,17,18,19,24,28,,,,,,1.2,0.9,0.8*38

3:04:14:615 Nachm. 03/28/17 - $GNGSA,A,2,10,12,17,18,19,24,28,,,,,,1.2,0.9,0.8*26

3:04:14:615 Nachm. 03/28/17 - $GNGSA,A,2,71,72,73,74,82,83,,,,,,,1.2,0.9,0.8*2A

3:04:15:585 Nachm. 03/28/17 - $GPGSV,3,1,12,10,17,299,29,12,39,230,16,13,23,158,13,15,45,194,12*7E

3:04:15:585 Nachm. 03/28/17 - $GPGSV,3,2,12,17,41,071,29,18,15,271,14,19,43,104,27,24,69,286,28*79

3:04:15:585 Nachm. 03/28/17 - $GPGSV,3,3,12,28,10,054,19,32,04,322,20,01,05,021,,25,00,236,*7B

3:04:15:593 Nachm. 03/28/17 - $GLGSV,2,1,07,74,33,279,25,82,35,053,27,73,70,026,28,65,14,338,22*65

3:04:15:594 Nachm. 03/28/17 - $GLGSV,2,2,07,83,28,119,18,71,30,226,17,72,41,292,21*5C

3:04:15:595 Nachm. 03/28/17 - $GPGGA,130411.0,5208.369096,N,01138.433453,E,1,07,0.9,46.1,M,45.0,M,,*67

3:04:15:595 Nachm. 03/28/17 - $GNGNS,130411.0,5208.369096,N,01138.433453,E,AA,13,0.9,46.1,45.0,,*56

3:04:15:596 Nachm. 03/28/17 - $GPVTG,339.8,T,339.4,M,0.0,N,0.0,K,A*2F

3:04:15:596 Nachm. 03/28/17 - $GPRMC,130411.0,A,5208.369096,N,01138.433453,E,0.0,339.8,280317,0.4,E,A*08

3:04:15:597 Nachm. 03/28/17 - $GPGSA,A,2,10,12,17,18,19,24,28,,,,,,1.2,0.9,0.8*38

3:04:15:597 Nachm. 03/28/17 - $GNGSA,A,2,10,12,17,18,19,24,28,,,,,,1.2,0.9,0.8*26

3:04:15:597 Nachm. 03/28/17 - $GNGSA,A,2,71,72,73,74,82,83,,,,,,,1.2,0.9,0.8*2A

3:04:16:586 Nachm. 03/28/17 - $GPGSV,3,1,12,10,17,299,30,12,39,230,16,13,23,158,13,15,45,194,12*76

3:04:16:587 Nachm. 03/28/17 - $GPGSV,3,2,12,17,41,071,27,18,15,271,13,19,43,104,30,24,69,286,29*77

3:04:16:590 Nachm. 03/28/17 - $GPGSV,3,3,12,28,10,054,20,32,04,322,21,01,05,021,,25,00,236,*70

3:04:16:594 Nachm. 03/28/17 - $GLGSV,2,1,07,74,33,279,22,82,35,053,26,73,70,026,29,65,14,338,20*60

3:04:16:595 Nachm. 03/28/17 - $GLGSV,2,2,07,83,28,119,19,71,30,226,17,72,41,292,21*5D

3:04:16:596 Nachm. 03/28/17 - $GPGGA,130412.0,5208.369127,N,01138.433454,E,1,07,0.9,46.2,M,45.0,M,,*6B

3:04:16:597 Nachm. 03/28/17 - $GNGNS,130412.0,5208.369127,N,01138.433454,E,AA,13,0.9,46.2,45.0,,*5A

3:04:16:609 Nachm. 03/28/17 - $GPVTG,339.8,T,339.4,M,0.0,N,0.0,K,A*2F

3:04:16:611 Nachm. 03/28/17 - $GPRMC,130412.0,A,5208.369127,N,01138.433454,E,0.0,339.8,280317,0.4,E,A*07

3:04:16:612 Nachm. 03/28/17 - $GPGSA,A,2,10,12,17,18,19,24,28,,,,,,1.2,0.9,0.8*38

3:04:16:613 Nachm. 03/28/17 - $GNGSA,A,2,10,12,17,18,19,24,28,,,,,,1.2,0.9,0.8*26

3:04:16:613 Nachm. 03/28/17 - $GNGSA,A,2,71,72,73,74,82,83,,,,,,,1.2,0.9,0.8*2A

3:04:17:584 Nachm. 03/28/17 - $GPGSV,3,1,12,10,17,299,30,12,39,230,16,13,23,158,13,15,45,194,12*76

3:04:17:585 Nachm. 03/28/17 - $GPGSV,3,2,12,17,41,071,27,18,15,271,13,19,43,104,30,24,69,286,29*77

3:04:17:589 Nachm. 03/28/17 - $GPGSV,3,3,12,28,10,054,20,32,04,322,19,01,05,021,,25,00,236,*7B

3:04:17:589 Nachm. 03/28/17 - $GLGSV,2,1,07,74,33,279,20,82,35,053,27,73,70,026,29,65,14,338,20*63

3:04:17:590 Nachm. 03/28/17 - $GLGSV,2,2,07,83,28,119,19,71,30,226,17,72,41,292,21*5D

3:04:17:591 Nachm. 03/28/17 - $GPGGA,130413.0,5208.369163,N,01138.433451,E,1,07,0.9,46.2,M,45.0,M,,*6F

3:04:17:591 Nachm. 03/28/17 - $GNGNS,130413.0,5208.369163,N,01138.433451,E,AA,13,0.9,46.2,45.0,,*5E

3:04:17:591 Nachm. 03/28/17 - $GPVTG,339.8,T,339.4,M,0.0,N,0.0,K,A*2F

3:04:17:591 Nachm. 03/28/17 - $GPRMC,130413.0,A,5208.369163,N,01138.433451,E,0.0,339.8,280317,0.4,E,A*03

3:04:17:591 Nachm. 03/28/17 - $GPGSA,A,2,10,12,17,18,19,24,28,,,,,,1.2,0.9,0.8*38

3:04:17:592 Nachm. 03/28/17 - $GNGSA,A,2,10,12,17,18,19,24,28,,,,,,1.2,0.9,0.8*26

3:04:17:592 Nachm. 03/28/17 - $GNGSA,A,2,71,72,73,74,82,83,,,,,,,1.2,0.9,0.8*2A

3:04:18:584 Nachm. 03/28/17 - $GPGSV,3,1,12,10,17,299,30,12,39,230,14,13,23,158,13,15,45,194,12*74

3:04:18:585 Nachm. 03/28/17 - $GPGSV,3,2,12,17,41,071,28,18,15,271,13,19,43,104,28,24,69,286,29*71

3:04:18:586 Nachm. 03/28/17 - $GPGSV,3,3,12,28,10,054,20,32,04,322,19,01,05,021,,25,00,236,*7B

3:04:18:588 Nachm. 03/28/17 - $GLGSV,2,1,07,74,33,279,18,82,35,053,27,73,70,026,28,65,14,338,18*62

3:04:18:588 Nachm. 03/28/17 - $GLGSV,2,2,07,83,28,119,19,71,30,226,13,72,41,292,19*52

3:04:18:590 Nachm. 03/28/17 - $GPGGA,130414.0,5208.369188,N,01138.433454,E,1,07,0.9,46.2,M,45.0,M,,*68

3:04:18:590 Nachm. 03/28/17 - $GNGNS,130414.0,5208.369188,N,01138.433454,E,AA,13,0.9,46.2,45.0,,*59

3:04:18:590 Nachm. 03/28/17 - $GPVTG,339.8,T,339.4,M,0.0,N,0.0,K,A*2F

3:04:18:590 Nachm. 03/28/17 - $GPRMC,130414.0,A,5208.369188,N,01138.433454,E,0.0,339.8,280317,0.4,E,A*04

3:04:18:591 Nachm. 03/28/17 - $GPGSA,A,2,10,12,17,18,19,24,28,,,,,,1.2,0.9,0.8*38

3:04:18:591 Nachm. 03/28/17 - $GNGSA,A,2,10,12,17,18,19,24,28,,,,,,1.2,0.9,0.8*26

3:04:18:591 Nachm. 03/28/17 - $GNGSA,A,2,71,72,73,74,82,83,,,,,,,1.2,0.9,0.8*2A

3:04:19:586 Nachm. 03/28/17 - $GPGSV,3,1,12,10,17,299,30,12,39,230,14,13,23,158,13,15,45,194,12*74

3:04:19:587 Nachm. 03/28/17 - $GPGSV,3,2,12,17,41,071,28,18,15,271,13,19,43,104,28,24,69,286,28*70

3:04:19:590 Nachm. 03/28/17 - $GPGSV,3,3,12,28,10,054,20,32,04,322,22,01,05,021,,25,00,236,*73

3:04:19:593 Nachm. 03/28/17 - $GLGSV,2,1,08,74,33,279,18,82,35,053,28,73,70,026,28,65,14,338,20*69

3:04:19:601 Nachm. 03/28/17 - $GLGSV,2,2,08,83,28,119,17,71,30,226,13,72,41,292,21,80,26,075,*66

3:04:19:615 Nachm. 03/28/17 - $GPGGA,130415.0,5208.369198,N,01138.433452,E,1,07,0.9,46.2,M,45.0,M,,*6E

3:04:19:616 Nachm. 03/28/17 - $GNGNS,130415.0,5208.369198,N,01138.433452,E,AA,13,0.9,46.2,45.0,,*5F

3:04:19:617 Nachm. 03/28/17 - $GPVTG,339.8,T,339.4,M,0.0,N,0.0,K,A*2F

3:04:19:618 Nachm. 03/28/17 - $GPRMC,130415.0,A,5208.369198,N,01138.433452,E,0.0,339.8,280317,0.4,E,A*02

3:04:19:618 Nachm. 03/28/17 - $GPGSA,A,2,10,12,17,18,19,24,28,,,,,,1.2,0.9,0.8*38

3:04:19:618 Nachm. 03/28/17 - $GNGSA,A,2,10,12,17,18,19,24,28,,,,,,1.2,0.9,0.8*26

3:04:19:619 Nachm. 03/28/17 - $GNGSA,A,2,71,72,73,74,82,83,,,,,,,1.2,0.9,0.8*2A

3:04:20:586 Nachm. 03/28/17 - $GPGSV,3,1,12,10,17,299,31,12,39,230,14,13,23,158,13,15,45,194,12*75

3:04:20:588 Nachm. 03/28/17 - $GPGSV,3,2,12,17,41,071,29,18,15,271,13,19,43,104,28,24,69,286,29*70

3:04:20:591 Nachm. 03/28/17 - $GPGSV,3,3,12,28,10,054,20,32,04,322,21,01,05,021,,25,00,236,*70

3:04:20:601 Nachm. 03/28/17 - $GLGSV,2,1,08,74,33,279,18,82,35,053,28,73,70,026,28,65,14,338,19*63

3:04:20:602 Nachm. 03/28/17 - $GLGSV,2,2,08,83,28,119,20,71,30,226,13,72,41,292,22,80,26,075,*61

3:04:20:606 Nachm. 03/28/17 - $GPGGA,130416.0,5208.369203,N,01138.433451,E,1,07,0.9,46.3,M,45.0,M,,*6E

3:04:20:609 Nachm. 03/28/17 - $GNGNS,130416.0,5208.369203,N,01138.433451,E,AA,13,0.9,46.3,45.0,,*5F

3:04:20:609 Nachm. 03/28/17 - $GPVTG,339.8,T,339.4,M,0.0,N,0.0,K,A*2F

3:04:20:610 Nachm. 03/28/17 - $GPRMC,130416.0,A,5208.369203,N,01138.433451,E,0.0,339.8,280317,0.4,E,A*03

3:04:20:610 Nachm. 03/28/17 - $GPGSA,A,2,10,12,17,18,19,24,28,,,,,,1.2,0.9,0.8*38

3:04:20:610 Nachm. 03/28/17 - $GNGSA,A,2,10,12,17,18,19,24,28,,,,,,1.2,0.9,0.8*26

3:04:20:611 Nachm. 03/28/17 - $GNGSA,A,2,71,72,73,74,82,83,,,,,,,1.2,0.9,0.8*2A

3:04:21:584 Nachm. 03/28/17 - $GPGSV,3,1,12,10,17,299,31,12,39,230,14,13,23,158,13,15,45,194,12*75

3:04:21:586 Nachm. 03/28/17 - $GPGSV,3,2,12,17,41,071,29,18,15,271,13,19,43,104,28,24,69,286,28*71

3:04:21:587 Nachm. 03/28/17 - $GPGSV,3,3,12,28,10,054,18,32,04,322,22,01,05,021,,25,00,236,*78

3:04:21:593 Nachm. 03/28/17 - $GLGSV,2,1,08,74,33,279,18,82,35,053,28,73,70,026,28,65,14,338,19*63

3:04:21:594 Nachm. 03/28/17 - $GLGSV,2,2,08,83,28,119,18,71,30,226,13,72,41,292,22,80,26,075,*6A

3:04:21:594 Nachm. 03/28/17 - $GPGGA,130417.0,5208.369204,N,01138.433445,E,1,07,0.9,46.3,M,45.0,M,,*6D

3:04:21:594 Nachm. 03/28/17 - $GNGNS,130417.0,5208.369204,N,01138.433445,E,AA,13,0.9,46.3,45.0,,*5C

3:04:21:594 Nachm. 03/28/17 - $GPVTG,339.8,T,339.4,M,0.0,N,0.0,K,A*2F

3:04:21:594 Nachm. 03/28/17 - $GPRMC,130417.0,A,5208.369204,N,01138.433445,E,0.0,339.8,280317,0.4,E,A*00

3:04:21:595 Nachm. 03/28/17 - $GPGSA,A,2,10,12,17,18,19,24,28,,,,,,1.2,0.9,0.8*38

3:04:21:595 Nachm. 03/28/17 - $GNGSA,A,2,10,12,17,18,19,24,28,,,,,,1.2,0.9,0.8*26

3:04:21:595 Nachm. 03/28/17 - $GNGSA,A,2,71,72,73,74,82,83,,,,,,,1.2,0.9,0.8*2A

3:04:22:584 Nachm. 03/28/17 - $GPGSV,3,1,12,10,17,299,30,12,39,230,14,13,23,158,13,15,45,194,12*74

3:04:22:585 Nachm. 03/28/17 - $GPGSV,3,2,12,17,41,071,29,18,15,271,13,19,43,104,28,24,69,286,29*70

3:04:22:585 Nachm. 03/28/17 - $GPGSV,3,3,12,28,10,054,19,32,04,322,20,01,05,021,,25,00,236,*7B

3:04:22:586 Nachm. 03/28/17 - $GLGSV,2,1,08,74,33,279,18,82,35,053,29,73,70,026,27,65,14,338,18*6C

3:04:22:592 Nachm. 03/28/17 - $GLGSV,2,2,08,83,28,119,19,71,30,226,13,72,41,292,23,80,26,075,*6A

3:04:22:594 Nachm. 03/28/17 - $GPGGA,130418.0,5208.369203,N,01138.433444,E,1,07,0.9,46.3,M,45.0,M,,*64

3:04:22:595 Nachm. 03/28/17 - $GNGNS,130418.0,5208.369203,N,01138.433444,E,AA,13,0.9,46.3,45.0,,*55

3:04:22:598 Nachm. 03/28/17 - $GPVTG,339.8,T,339.4,M,0.0,N,0.0,K,A*2F

3:04:22:598 Nachm. 03/28/17 - $GPRMC,130418.0,A,5208.369203,N,01138.433444,E,0.0,339.8,280317,0.4,E,A*09

3:04:22:599 Nachm. 03/28/17 - $GPGSA,A,2,10,12,17,18,19,24,28,,,,,,1.2,0.9,0.8*38

3:04:22:599 Nachm. 03/28/17 - $GNGSA,A,2,10,12,17,18,19,24,28,,,,,,1.2,0.9,0.8*26

3:04:22:599 Nachm. 03/28/17 - $GNGSA,A,2,71,72,73,74,82,83,,,,,,,1.2,0.9,0.8*2A

3:04:23:586 Nachm. 03/28/17 - $GPGSV,3,1,12,10,17,299,30,12,39,230,16,13,23,158,13,15,45,194,12*76

3:04:23:586 Nachm. 03/28/17 - $GPGSV,3,2,12,17,41,071,29,18,15,271,13,19,43,104,27,24,69,286,29*7F

3:04:23:587 Nachm. 03/28/17 - $GPGSV,3,3,12,28,10,054,19,32,04,322,21,01,05,021,,25,00,236,*7A

3:04:23:587 Nachm. 03/28/17 - $GLGSV,3,1,09,74,33,279,18,82,35,053,27,73,70,026,29,65,14,338,19*6D

3:04:23:588 Nachm. 03/28/17 - $GLGSV,3,2,09,83,28,119,18,71,30,226,13,72,41,292,23,80,26,075,*6B

3:04:23:597 Nachm. 03/28/17 - $GLGSV,3,3,09,81,08,009,*54

3:04:23:600 Nachm. 03/28/17 - $GPGGA,130419.0,5208.369203,N,01138.433445,E,1,06,0.9,46.3,M,45.0,M,,*65

3:04:23:604 Nachm. 03/28/17 - $GNGNS,130419.0,5208.369203,N,01138.433445,E,AA,12,0.9,46.3,45.0,,*54

3:04:23:604 Nachm. 03/28/17 - $GPVTG,339.8,T,339.4,M,0.0,N,0.0,K,A*2F

3:04:23:605 Nachm. 03/28/17 - $GPRMC,130419.0,A,5208.369203,N,01138.433445,E,0.0,339.8,280317,0.4,E,A*09

3:04:23:605 Nachm. 03/28/17 - $GPGSA,A,2,10,12,17,19,24,28,,,,,,,1.2,0.9,0.8*31

3:04:23:605 Nachm. 03/28/17 - $GNGSA,A,2,10,12,17,19,24,28,,,,,,,1.2,0.9,0.8*2F

3:04:23:607 Nachm. 03/28/17 - $GNGSA,A,2,71,72,73,74,82,83,,,,,,,1.2,0.9,0.8*2A

3:04:24:585 Nachm. 03/28/17 - $GPGSV,3,1,12,10,17,299,31,12,39,230,16,13,23,158,13,17,41,071,29*73

3:04:24:587 Nachm. 03/28/17 - $GPGSV,3,2,12,18,15,271,13,19,43,104,27,24,69,286,29,28,10,054,17*7D

3:04:24:589 Nachm. 03/28/17 - $GPGSV,3,3,12,32,04,322,19,01,05,021,,15,45,194,,25,00,236,*7A

3:04:24:589 Nachm. 03/28/17 - $GLGSV,3,1,09,74,33,279,18,82,35,053,27,73,70,026,28,65,14,338,19*6C

3:04:24:590 Nachm. 03/28/17 - $GLGSV,3,2,09,83,28,119,20,71,30,226,13,72,41,292,23,80,26,075,*60

3:04:24:593 Nachm. 03/28/17 - $GLGSV,3,3,09,81,08,009,*54

3:04:24:594 Nachm. 03/28/17 - $GPGGA,130420.0,5208.369203,N,01138.433444,E,1,06,0.9,46.3,M,45.0,M,,*6E

3:04:24:604 Nachm. 03/28/17 - $GNGNS,130420.0,5208.369203,N,01138.433444,E,AA,12,0.9,46.3,45.0,,*5F

3:04:24:604 Nachm. 03/28/17 - $GPVTG,339.8,T,339.4,M,0.0,N,0.0,K,A*2F

3:04:24:604 Nachm. 03/28/17 - $GPRMC,130420.0,A,5208.369203,N,01138.433444,E,0.0,339.8,280317,0.4,E,A*02

3:04:24:605 Nachm. 03/28/17 - $GPGSA,A,2,10,12,17,19,24,28,,,,,,,1.2,0.9,0.8*31

3:04:24:606 Nachm. 03/28/17 - $GNGSA,A,2,10,12,17,19,24,28,,,,,,,1.2,0.9,0.8*2F

3:04:24:607 Nachm. 03/28/17 - $GNGSA,A,2,71,72,73,74,82,83,,,,,,,1.2,0.9,0.8*2A

3:04:25:584 Nachm. 03/28/17 - $GPGSV,3,1,12,10,17,299,30,12,39,230,16,13,23,158,13,17,41,071,30*7A

3:04:25:585 Nachm. 03/28/17 - $GPGSV,3,2,12,18,15,271,13,19,43,104,26,24,69,286,30,28,10,054,17*74

3:04:25:585 Nachm. 03/28/17 - $GPGSV,3,3,12,32,04,322,19,01,05,021,,15,45,194,,25,00,236,*7A

3:04:25:590 Nachm. 03/28/17 - $GLGSV,3,1,09,74,33,279,18,82,35,053,27,73,70,026,27,65,14,338,17*6D

3:04:25:593 Nachm. 03/28/17 - $GLGSV,3,2,09,83,28,119,20,71,30,226,13,72,41,292,23,80,26,075,*60

3:04:25:594 Nachm. 03/28/17 - $GLGSV,3,3,09,81,08,009,*54

3:04:25:595 Nachm. 03/28/17 - $GPGGA,130421.0,5208.369204,N,01138.433445,E,1,06,1.0,46.3,M,45.0,M,,*61

3:04:25:595 Nachm. 03/28/17 - $GNGNS,130421.0,5208.369204,N,01138.433445,E,AA,10,1.0,46.3,45.0,,*52

3:04:25:596 Nachm. 03/28/17 - $GPVTG,339.8,T,339.4,M,0.0,N,0.0,K,A*2F

3:04:25:596 Nachm. 03/28/17 - $GPRMC,130421.0,A,5208.369204,N,01138.433445,E,0.0,339.8,280317,0.4,E,A*05

3:04:25:597 Nachm. 03/28/17 - $GPGSA,A,2,10,12,17,19,24,28,,,,,,,1.3,1.0,0.8*38

3:04:25:597 Nachm. 03/28/17 - $GNGSA,A,2,10,12,17,19,24,28,,,,,,,1.3,1.0,0.8*26

3:04:25:598 Nachm. 03/28/17 - $GNGSA,A,2,72,73,82,83,,,,,,,,,1.3,1.0,0.8*26

3:04:26:585 Nachm. 03/28/17 - $GPGSV,3,1,12,10,17,299,29,12,39,230,16,17,41,071,29,18,15,271,12*7D

3:04:26:586 Nachm. 03/28/17 - $GPGSV,3,2,12,19,43,104,26,24,69,286,29,28,10,054,16,32,04,322,19*78

3:04:26:592 Nachm. 03/28/17 - $GPGSV,3,3,12,01,05,021,,13,23,158,,15,45,194,,25,00,236,*7B

3:04:26:592 Nachm. 03/28/17 - $GLGSV,3,1,09,74,33,279,18,82,35,053,26,73,70,026,27,65,14,338,17*6C

3:04:26:595 Nachm. 03/28/17 - $GLGSV,3,2,09,83,28,119,20,71,30,226,13,72,41,292,22,80,26,075,*61

3:04:26:595 Nachm. 03/28/17 - $GLGSV,3,3,09,81,08,009,*54

3:04:26:596 Nachm. 03/28/17 - $GPGGA,130422.0,5208.369217,N,01138.433452,E,1,07,1.0,46.3,M,45.0,M,,*67

3:04:26:596 Nachm. 03/28/17 - $GNGNS,130422.0,5208.369217,N,01138.433452,E,AA,11,1.0,46.3,45.0,,*54

3:04:26:597 Nachm. 03/28/17 - $GPVTG,339.8,T,339.4,M,0.0,N,0.0,K,A*2F

3:04:26:597 Nachm. 03/28/17 - $GPRMC,130422.0,A,5208.369217,N,01138.433452,E,0.0,339.8,280317,0.4,E,A*02

3:04:26:597 Nachm. 03/28/17 - $GPGSA,A,2,10,12,17,18,19,24,28,,,,,,1.3,1.0,0.8*31

3:04:26:597 Nachm. 03/28/17 - $GNGSA,A,2,10,12,17,18,19,24,28,,,,,,1.3,1.0,0.8*2F

3:04:26:597 Nachm. 03/28/17 - $GNGSA,A,2,72,73,82,83,,,,,,,,,1.3,1.0,0.8*26

3:04:27:585 Nachm. 03/28/17 - $GPGSV,3,1,12,10,17,299,30,12,39,230,15,17,41,071,30,18,15,271,18*74

3:04:27:589 Nachm. 03/28/17 - $GPGSV,3,2,12,19,43,104,25,24,69,286,30,28,10,054,16,32,04,322,20*79

3:04:27:589 Nachm. 03/28/17 - $GPGSV,3,3,12,01,05,021,,13,23,158,,15,45,194,,25,00,236,*7B

3:04:27:589 Nachm. 03/28/17 - $GLGSV,3,1,09,74,33,279,18,82,35,053,27,73,70,026,27,65,14,338,13*69

3:04:27:590 Nachm. 03/28/17 - $GLGSV,3,2,09,83,28,119,17,71,30,226,13,72,41,292,23,80,26,075,*64

3:04:27:592 Nachm. 03/28/17 - $GLGSV,3,3,09,81,08,009,*54

3:04:27:594 Nachm. 03/28/17 - $GPGGA,130423.0,5208.369254,N,01138.433467,E,1,07,1.0,46.3,M,45.0,M,,*67

3:04:27:594 Nachm. 03/28/17 - $GNGNS,130423.0,5208.369254,N,01138.433467,E,AA,11,1.0,46.3,45.0,,*54

3:04:27:595 Nachm. 03/28/17 - $GPVTG,339.8,T,339.4,M,0.0,N,0.0,K,A*2F

3:04:27:595 Nachm. 03/28/17 - $GPRMC,130423.0,A,5208.369254,N,01138.433467,E,0.0,339.8,280317,0.4,E,A*02

3:04:27:595 Nachm. 03/28/17 - $GPGSA,A,2,10,12,17,18,19,24,28,,,,,,1.3,1.0,0.8*31

3:04:27:595 Nachm. 03/28/17 - $GNGSA,A,2,10,12,17,18,19,24,28,,,,,,1.3,1.0,0.8*2F

3:04:27:595 Nachm. 03/28/17 - $GNGSA,A,2,72,73,82,83,,,,,,,,,1.3,1.0,0.8*26

3:04:28:585 Nachm. 03/28/17 - $GPGSV,3,1,12,10,17,299,30,12,39,230,16,17,41,071,30,18,15,271,18*77

3:04:28:586 Nachm. 03/28/17 - $GPGSV,3,2,12,19,43,104,25,24,69,286,30,28,10,054,16,32,04,322,20*79

3:04:28:591 Nachm. 03/28/17 - $GPGSV,3,3,12,01,05,021,,13,23,158,,15,45,194,,25,00,236,*7B

3:04:28:593 Nachm. 03/28/17 - $GLGSV,3,1,09,74,33,279,18,82,35,053,27,73,70,026,27,65,14,338,13*69

3:04:28:600 Nachm. 03/28/17 - $GLGSV,3,2,09,83,28,119,17,71,30,226,13,72,41,292,23,80,26,075,*64

3:04:28:607 Nachm. 03/28/17 - $GLGSV,3,3,09,81,08,009,*54

3:04:28:607 Nachm. 03/28/17 - $GPGGA,130424.0,5208.369282,N,01138.433477,E,1,07,1.0,46.4,M,45.0,M,,*6D

3:04:28:608 Nachm. 03/28/17 - $GNGNS,130424.0,5208.369282,N,01138.433477,E,AA,11,1.0,46.4,45.0,,*5E

3:04:28:608 Nachm. 03/28/17 - $GPVTG,339.8,T,339.4,M,0.0,N,0.0,K,A*2F

3:04:28:609 Nachm. 03/28/17 - $GPRMC,130424.0,A,5208.369282,N,01138.433477,E,0.0,339.8,280317,0.4,E,A*0F

3:04:28:609 Nachm. 03/28/17 - $GPGSA,A,2,10,12,17,18,19,24,28,,,,,,1.3,1.0,0.8*31

3:04:28:610 Nachm. 03/28/17 - $GNGSA,A,2,10,12,17,18,19,24,28,,,,,,1.3,1.0,0.8*2F

3:04:28:610 Nachm. 03/28/17 - $GNGSA,A,2,72,73,82,83,,,,,,,,,1.3,1.0,0.8*26

3:04:29:584 Nachm. 03/28/17 - $GPGSV,3,1,12,10,17,299,29,12,39,230,16,17,41,071,30,18,15,271,17*70

3:04:29:585 Nachm. 03/28/17 - $GPGSV,3,2,12,19,43,104,24,24,69,286,29,28,10,054,16,32,04,322,19*7A

3:04:29:586 Nachm. 03/28/17 - $GPGSV,3,3,12,01,05,021,,13,23,158,,15,45,194,,25,00,236,*7B

3:04:29:587 Nachm. 03/28/17 - $GLGSV,3,1,09,74,33,279,18,82,35,053,26,73,70,026,28,65,14,338,16*62

3:04:29:588 Nachm. 03/28/17 - $GLGSV,3,2,09,83,28,119,19,71,30,226,13,72,41,292,23,80,26,075,*6A

3:04:29:590 Nachm. 03/28/17 - $GLGSV,3,3,09,81,08,009,*54

3:04:29:590 Nachm. 03/28/17 - $GPGGA,130425.0,5208.369308,N,01138.433488,E,1,07,1.0,46.4,M,45.0,M,,*6F

3:04:29:590 Nachm. 03/28/17 - $GNGNS,130425.0,5208.369308,N,01138.433488,E,AA,11,1.0,46.4,45.0,,*5C

3:04:29:591 Nachm. 03/28/17 - $GPVTG,339.8,T,339.4,M,0.0,N,0.0,K,A*2F

3:04:29:594 Nachm. 03/28/17 - $GPRMC,130425.0,A,5208.369308,N,01138.433488,E,0.0,339.8,280317,0.4,E,A*0D

3:04:29:595 Nachm. 03/28/17 - $GPGSA,A,2,10,12,17,18,19,24,28,,,,,,1.3,1.0,0.8*31

3:04:29:595 Nachm. 03/28/17 - $GNGSA,A,2,10,12,17,18,19,24,28,,,,,,1.3,1.0,0.8*2F

3:04:29:595 Nachm. 03/28/17 - $GNGSA,A,2,72,73,82,83,,,,,,,,,1.3,1.0,0.8*26

3:04:30:585 Nachm. 03/28/17 - $GPGSV,3,1,12,10,17,299,30,12,39,230,16,17,41,071,31,18,15,271,17*79

3:04:30:585 Nachm. 03/28/17 - $GPGSV,3,2,12,19,43,104,25,24,69,286,28,28,10,054,16,32,04,322,20*70

3:04:30:590 Nachm. 03/28/17 - $GPGSV,3,3,12,01,05,021,,13,23,158,,15,45,194,,25,00,236,*7B

3:04:30:590 Nachm. 03/28/17 - $GLGSV,3,1,09,74,33,279,8,82,35,053,25,73,70,026,27,65,14,338,17*5E

3:04:30:590 Nachm. 03/28/17 - $GLGSV,3,2,09,83,28,119,17,71,30,226,10,72,41,292,23,80,26,075,*67

3:04:30:592 Nachm. 03/28/17 - $GLGSV,3,3,09,81,08,009,*54

3:04:30:592 Nachm. 03/28/17 - $GPGGA,130426.0,5208.369309,N,01138.433485,E,1,07,0.9,46.4,M,45.0,M,,*68

3:04:30:593 Nachm. 03/28/17 - $GNGNS,130426.0,5208.369309,N,01138.433485,E,AA,13,0.9,46.4,45.0,,*59

3:04:30:593 Nachm. 03/28/17 - $GPVTG,339.8,T,339.4,M,0.0,N,0.0,K,A*2F

3:04:30:593 Nachm. 03/28/17 - $GPRMC,130426.0,A,5208.369309,N,01138.433485,E,0.0,339.8,280317,0.4,E,A*02

3:04:30:593 Nachm. 03/28/17 - $GPGSA,A,2,10,12,17,18,19,24,28,,,,,,1.2,0.9,0.8*38

3:04:30:593 Nachm. 03/28/17 - $GNGSA,A,2,10,12,17,18,19,24,28,,,,,,1.2,0.9,0.8*26

3:04:30:594 Nachm. 03/28/17 - $GNGSA,A,2,71,72,73,74,82,83,,,,,,,1.2,0.9,0.8*2A

3:04:31:585 Nachm. 03/28/17 - $GPGSV,3,1,12,10,17,299,28,12,39,230,14,17,41,071,31,18,15,271,17*72

3:04:31:586 Nachm. 03/28/17 - $GPGSV,3,2,12,19,43,104,26,24,69,286,29,28,10,054,16,32,04,322,19*78

3:04:31:590 Nachm. 03/28/17 - $GPGSV,3,3,12,01,05,021,,13,23,158,,15,45,194,,25,00,236,*7B

3:04:31:591 Nachm. 03/28/17 - $GLGSV,3,1,09,74,33,279,8,82,35,053,22,73,70,026,28,80,26,075,13*52

3:04:31:602 Nachm. 03/28/17 - $GLGSV,3,2,09,65,14,338,17,83,28,119,20,71,30,226,10,72,41,292,22*64

3:04:31:604 Nachm. 03/28/17 - $GLGSV,3,3,09,81,08,009,*54

3:04:31:605 Nachm. 03/28/17 - $GPGGA,130427.0,5208.369318,N,01138.433490,E,1,07,0.9,46.5,M,45.0,M,,*6C

3:04:31:609 Nachm. 03/28/17 - $GNGNS,130427.0,5208.369318,N,01138.433490,E,AA,13,0.9,46.5,45.0,,*5D

3:04:31:610 Nachm. 03/28/17 - $GPVTG,339.8,T,339.4,M,0.0,N,0.0,K,A*2F

3:04:31:610 Nachm. 03/28/17 - $GPRMC,130427.0,A,5208.369318,N,01138.433490,E,0.0,339.8,280317,0.4,E,A*07

3:04:31:610 Nachm. 03/28/17 - $GPGSA,A,2,10,12,17,18,19,24,28,,,,,,1.2,0.9,0.8*38

3:04:31:611 Nachm. 03/28/17 - $GNGSA,A,2,10,12,17,18,19,24,28,,,,,,1.2,0.9,0.8*26

3:04:31:611 Nachm. 03/28/17 - $GNGSA,A,2,71,72,73,74,82,83,,,,,,,1.2,0.9,0.8*2A

3:04:32:584 Nachm. 03/28/17 - $GPGSV,3,1,12,10,17,299,27,12,39,230,14,17,41,071,30,18,15,271,17*7C

3:04:32:585 Nachm. 03/28/17 - $GPGSV,3,2,12,19,43,104,27,24,69,286,27,28,10,054,16,32,04,322,20*7D

3:04:32:591 Nachm. 03/28/17 - $GPGSV,3,3,12,01,05,021,,13,23,158,,15,45,194,,25,00,236,*7B

3:04:32:593 Nachm. 03/28/17 - $GLGSV,3,1,09,74,33,279,17,82,35,053,24,73,70,026,28,80,26,075,17*6E

3:04:32:593 Nachm. 03/28/17 - $GLGSV,3,2,09,65,14,338,17,83,28,119,19,71,30,226,10,72,41,292,20*6C

3:04:32:594 Nachm. 03/28/17 - $GLGSV,3,3,09,81,08,009,*54

3:04:32:594 Nachm. 03/28/17 - $GPGGA,130428.0,5208.369317,N,01138.433487,E,1,07,0.9,46.5,M,45.0,M,,*6A

3:04:32:594 Nachm. 03/28/17 - $GNGNS,130428.0,5208.369317,N,01138.433487,E,AA,13,0.9,46.5,45.0,,*5B

3:04:32:594 Nachm. 03/28/17 - $GPVTG,339.8,T,339.4,M,0.0,N,0.0,K,A*2F

3:04:32:594 Nachm. 03/28/17 - $GPRMC,130428.0,A,5208.369317,N,01138.433487,E,0.0,339.8,280317,0.4,E,A*01

3:04:32:596 Nachm. 03/28/17 - $GPGSA,A,2,10,12,17,18,19,24,28,,,,,,1.2,0.9,0.8*38

3:04:32:599 Nachm. 03/28/17 - $GNGSA,A,2,10,12,17,18,19,24,28,,,,,,1.2,0.9,0.8*26

3:04:32:599 Nachm. 03/28/17 - $GNGSA,A,2,71,72,73,74,82,83,,,,,,,1.2,0.9,0.8*2A

3:04:33:584 Nachm. 03/28/17 - $GPGSV,3,1,12,10,17,299,26,12,39,230,15,17,41,071,30,18,15,271,17*7C

3:04:33:587 Nachm. 03/28/17 - $GPGSV,3,2,12,19,43,104,27,24,69,286,29,28,10,054,16,32,04,322,20*73

3:04:33:588 Nachm. 03/28/17 - $GPGSV,3,3,12,01,05,021,,13,23,158,,15,45,194,,25,00,236,*7B

3:04:33:593 Nachm. 03/28/17 - $GLGSV,3,1,09,74,33,279,18,82,35,053,22,73,70,026,29,80,26,075,17*66

3:04:33:593 Nachm. 03/28/17 - $GLGSV,3,2,09,65,14,338,17,83,28,119,18,71,30,226,16,72,41,292,20*6B

3:04:33:594 Nachm. 03/28/17 - $GLGSV,3,3,09,81,08,009,*54

3:04:33:594 Nachm. 03/28/17 - $GPGGA,130429.0,5208.369313,N,01138.433485,E,1,06,0.9,46.5,M,45.0,M,,*6C

3:04:33:594 Nachm. 03/28/17 - $GNGNS,130429.0,5208.369313,N,01138.433485,E,AA,12,0.9,46.5,45.0,,*5D

3:04:33:595 Nachm. 03/28/17 - $GPVTG,339.8,T,339.4,M,0.0,N,0.0,K,A*2F

3:04:33:595 Nachm. 03/28/17 - $GPRMC,130429.0,A,5208.369313,N,01138.433485,E,0.0,339.8,280317,0.4,E,A*06

3:04:33:595 Nachm. 03/28/17 - $GPGSA,A,2,10,12,17,18,19,24,,,,,,,1.3,0.9,0.8*33

3:04:33:596 Nachm. 03/28/17 - $GNGSA,A,2,10,12,17,18,19,24,,,,,,,1.3,0.9,0.8*2D

3:04:33:596 Nachm. 03/28/17 - $GNGSA,A,2,71,72,73,74,82,83,,,,,,,1.3,0.9,0.8*2B


