3:06:36:582 Nachm. 03/28/17 - $GPGSV,3,1,12,01,05,019,19,10,17,299,29,12,40,230,17,13,22,158,13*7E

3:06:36:584 Nachm. 03/28/17 - $GPGSV,3,2,12,15,45,194,14,17,41,070,24,19,45,102,13,24,70,286,24*76

3:06:36:584 Nachm. 03/28/17 - $GPGSV,3,3,12,28,09,054,17,32,05,322,16,18,14,271,,25,00,236,*76

3:06:36:584 Nachm. 03/28/17 - $GLGSV,3,1,09,74,35,281,16,82,35,052,32,73,69,030,24,80,26,075,25*6A

3:06:36:585 Nachm. 03/28/17 - $GLGSV,3,2,09,65,15,338,23,83,29,118,16,81,07,008,15,72,41,291,16*63

3:06:36:586 Nachm. 03/28/17 - $GLGSV,3,3,09,71,29,226,*57

3:06:36:586 Nachm. 03/28/17 - $GPGGA,130632.0,5208.362590,N,01138.498085,E,1,08,0.8,85.7,M,45.0,M,,*65

3:06:36:587 Nachm. 03/28/17 - $GNGNS,130632.0,5208.362590,N,01138.498085,E,AA,13,0.8,85.7,45.0,,*5B

3:06:36:588 Nachm. 03/28/17 - $GPVTG,121.5,T,121.1,M,0.0,N,0.0,K,A*27

3:06:36:589 Nachm. 03/28/17 - $GPRMC,130632.0,A,5208.362590,N,01138.498085,E,0.0,121.5,280317,0.4,E,A*0B

3:06:36:589 Nachm. 03/28/17 - $GPGSA,A,2,10,12,13,15,17,19,24,28,,,,,1.1,0.8,0.8*35

3:06:36:589 Nachm. 03/28/17 - $GNGSA,A,2,10,12,13,15,17,19,24,28,,,,,1.1,0.8,0.8*2B

3:06:36:589 Nachm. 03/28/17 - $GNGSA,A,2,72,73,74,82,83,,,,,,,,1.1,0.8,0.8*2E

3:06:37:583 Nachm. 03/28/17 - $GPGSV,3,1,12,01,05,019,19,10,17,299,30,12,40,230,17,13,22,158,13*76

3:06:37:583 Nachm. 03/28/17 - $GPGSV,3,2,12,15,45,194,14,17,41,070,20,19,45,102,13,24,70,286,20*76

3:06:37:583 Nachm. 03/28/17 - $GPGSV,3,3,12,28,09,054,17,32,05,322,17,18,14,271,,25,00,236,*77

3:06:37:584 Nachm. 03/28/17 - $GLGSV,3,1,09,74,35,281,16,82,35,052,17,73,69,030,24,80,26,075,18*63

3:06:37:584 Nachm. 03/28/17 - $GLGSV,3,2,09,65,15,338,23,83,29,118,16,81,07,008,15,72,41,291,21*67

3:06:37:584 Nachm. 03/28/17 - $GLGSV,3,3,09,71,29,226,*57

3:06:37:585 Nachm. 03/28/17 - $GPGGA,130633.0,5208.362135,N,01138.498086,E,1,08,0.8,86.3,M,45.0,M,,*6B

3:06:37:586 Nachm. 03/28/17 - $GNGNS,130633.0,5208.362135,N,01138.498086,E,AA,13,0.8,86.3,45.0,,*55

3:06:37:586 Nachm. 03/28/17 - $GPVTG,121.5,T,121.1,M,0.0,N,0.0,K,A*27

3:06:37:586 Nachm. 03/28/17 - $GPRMC,130633.0,A,5208.362135,N,01138.498086,E,0.0,121.5,280317,0.4,E,A*02

3:06:37:586 Nachm. 03/28/17 - $GPGSA,A,2,10,12,13,15,17,19,24,28,,,,,1.1,0.8,0.8*35

3:06:37:586 Nachm. 03/28/17 - $GNGSA,A,2,10,12,13,15,17,19,24,28,,,,,1.1,0.8,0.8*2B

3:06:37:586 Nachm. 03/28/17 - $GNGSA,A,2,72,73,74,82,83,,,,,,,,1.1,0.8,0.8*2E

3:06:38:582 Nachm. 03/28/17 - $GPGSV,3,1,12,01,05,019,18,10,17,299,26,12,40,230,17,13,22,158,13*70

3:06:38:586 Nachm. 03/28/17 - $GPGSV,3,2,12,15,45,194,13,17,41,070,18,19,45,102,13,24,70,286,24*7E

3:06:38:586 Nachm. 03/28/17 - $GPGSV,3,3,12,28,09,054,16,32,05,322,17,18,14,271,,25,00,236,*76

3:06:38:586 Nachm. 03/28/17 - $GLGSV,3,1,09,74,35,281,16,82,35,052,18,73,69,030,25,80,26,075,23*65

3:06:38:587 Nachm. 03/28/17 - $GLGSV,3,2,09,65,15,338,24,83,29,118,16,81,07,008,15,72,41,291,25*64

3:06:38:587 Nachm. 03/28/17 - $GLGSV,3,3,09,71,29,226,*57

3:06:38:587 Nachm. 03/28/17 - $GPGGA,130634.0,5208.362278,N,01138.498499,E,1,07,1.0,87.5,M,45.0,M,,*6D

3:06:38:587 Nachm. 03/28/17 - $GNGNS,130634.0,5208.362278,N,01138.498499,E,AA,11,1.0,87.5,45.0,,*5E

3:06:38:588 Nachm. 03/28/17 - $GPVTG,121.5,T,121.1,M,0.0,N,0.0,K,A*27

3:06:38:588 Nachm. 03/28/17 - $GPRMC,130634.0,A,5208.362278,N,01138.498499,E,0.0,121.5,280317,0.4,E,A*05

3:06:38:588 Nachm. 03/28/17 - $GPGSA,A,2,10,12,15,17,19,24,28,,,,,,1.4,1.0,0.9*3A

3:06:38:589 Nachm. 03/28/17 - $GNGSA,A,2,10,12,15,17,19,24,28,,,,,,1.4,1.0,0.9*24

3:06:38:589 Nachm. 03/28/17 - $GNGSA,A,2,72,73,74,82,,,,,,,,,1.4,1.0,0.9*28

3:06:39:582 Nachm. 03/28/17 - $GPGSV,3,1,12,01,05,019,18,10,17,299,29,12,40,230,17,13,22,158,13*7F

3:06:39:583 Nachm. 03/28/17 - $GPGSV,3,2,12,17,41,070,20,19,45,102,13,24,70,286,26,28,09,054,16*79

3:06:39:587 Nachm. 03/28/17 - $GPGSV,3,3,12,32,05,322,17,15,45,194,,18,14,271,,25,00,236,*7A

3:06:39:589 Nachm. 03/28/17 - $GLGSV,3,1,09,74,35,281,16,82,35,052,16,73,69,030,25,80,26,075,23*6B

3:06:39:590 Nachm. 03/28/17 - $GLGSV,3,2,09,65,15,338,24,83,29,118,16,81,07,008,15,72,41,291,25*64

3:06:39:591 Nachm. 03/28/17 - $GLGSV,3,3,09,71,29,226,*57

3:06:39:591 Nachm. 03/28/17 - $GPGGA,130635.0,5208.362340,N,01138.498762,E,1,07,1.0,87.8,M,45.0,M,,*6C

3:06:39:591 Nachm. 03/28/17 - $GNGNS,130635.0,5208.362340,N,01138.498762,E,AA,11,1.0,87.8,45.0,,*5F

3:06:39:593 Nachm. 03/28/17 - $GPVTG,121.5,T,121.1,M,0.0,N,0.0,K,A*27

3:06:39:593 Nachm. 03/28/17 - $GPRMC,130635.0,A,5208.362340,N,01138.498762,E,0.0,121.5,280317,0.4,E,A*09

3:06:39:593 Nachm. 03/28/17 - $GPGSA,A,2,10,12,15,17,19,24,28,,,,,,1.4,1.0,0.9*3A

3:06:39:594 Nachm. 03/28/17 - $GNGSA,A,2,10,12,15,17,19,24,28,,,,,,1.4,1.0,0.9*24

3:06:39:594 Nachm. 03/28/17 - $GNGSA,A,2,72,73,74,82,,,,,,,,,1.4,1.0,0.9*28

3:06:40:583 Nachm. 03/28/17 - $GPGSV,3,1,12,01,05,019,16,10,17,299,29,12,40,230,17,13,22,158,13*71

3:06:40:583 Nachm. 03/28/17 - $GPGSV,3,2,12,17,41,070,27,19,45,102,13,24,70,286,28,28,09,054,16*70

3:06:40:583 Nachm. 03/28/17 - $GPGSV,3,3,12,32,05,322,18,15,45,194,,18,14,271,,25,00,236,*75

3:06:40:590 Nachm. 03/28/17 - $GLGSV,3,1,09,74,35,281,16,82,35,052,22,73,69,030,27,80,26,075,24*69

3:06:40:590 Nachm. 03/28/17 - $GLGSV,3,2,09,65,15,338,25,83,29,118,16,81,07,008,15,72,41,291,17*64

3:06:40:590 Nachm. 03/28/17 - $GLGSV,3,3,09,71,29,226,*57

3:06:40:590 Nachm. 03/28/17 - $GPGGA,130636.0,5208.362559,N,01138.498651,E,1,07,1.0,88.7,M,45.0,M,,*60

3:06:40:590 Nachm. 03/28/17 - $GNGNS,130636.0,5208.362559,N,01138.498651,E,AA,11,1.0,88.7,45.0,,*53

3:06:40:592 Nachm. 03/28/17 - $GPVTG,121.5,T,121.1,M,0.0,N,0.0,K,A*27

3:06:40:592 Nachm. 03/28/17 - $GPRMC,130636.0,A,5208.362559,N,01138.498651,E,0.0,121.5,280317,0.4,E,A*05

3:06:40:593 Nachm. 03/28/17 - $GPGSA,A,2,10,12,15,17,19,24,28,,,,,,1.4,1.0,0.9*3A

3:06:40:593 Nachm. 03/28/17 - $GNGSA,A,2,10,12,15,17,19,24,28,,,,,,1.4,1.0,0.9*24

3:06:40:593 Nachm. 03/28/17 - $GNGSA,A,2,72,73,74,82,,,,,,,,,1.4,1.0,0.9*28

3:06:41:582 Nachm. 03/28/17 - $GPGSV,3,1,12,01,05,019,16,10,17,299,30,12,40,230,17,13,22,158,13*79

3:06:41:583 Nachm. 03/28/17 - $GPGSV,3,2,12,15,45,194,18,17,41,070,28,19,45,102,13,24,70,286,27*75

3:06:41:583 Nachm. 03/28/17 - $GPGSV,3,3,12,28,09,054,17,32,05,322,20,18,14,271,,25,00,236,*73

3:06:41:588 Nachm. 03/28/17 - $GLGSV,3,1,09,74,35,281,16,82,35,052,26,73,69,030,26,80,26,075,25*6D

3:06:41:589 Nachm. 03/28/17 - $GLGSV,3,2,09,65,15,338,23,83,29,118,12,81,07,008,12,72,41,291,21*64

3:06:41:590 Nachm. 03/28/17 - $GLGSV,3,3,09,71,29,226,*57

3:06:41:591 Nachm. 03/28/17 - $GPGGA,130637.0,5208.362637,N,01138.498855,E,1,07,0.9,88.9,M,45.0,M,,*66

3:06:41:592 Nachm. 03/28/17 - $GNGNS,130637.0,5208.362637,N,01138.498855,E,AA,12,0.9,88.9,45.0,,*56

3:06:41:592 Nachm. 03/28/17 - $GPVTG,121.5,T,121.1,M,0.0,N,0.0,K,A*27

3:06:41:593 Nachm. 03/28/17 - $GPRMC,130637.0,A,5208.362637,N,01138.498855,E,0.0,121.5,280317,0.4,E,A*05

3:06:41:593 Nachm. 03/28/17 - $GPGSA,A,2,10,12,15,17,19,24,28,,,,,,1.2,0.9,0.8*35

3:06:41:593 Nachm. 03/28/17 - $GNGSA,A,2,10,12,15,17,19,24,28,,,,,,1.2,0.9,0.8*2B

3:06:41:594 Nachm. 03/28/17 - $GNGSA,A,2,72,73,74,82,83,,,,,,,,1.2,0.9,0.8*2C

3:06:42:584 Nachm. 03/28/17 - $GPGSV,3,1,12,01,05,019,18,10,17,299,32,12,40,230,17,13,22,158,13*75

3:06:42:585 Nachm. 03/28/17 - $GPGSV,3,2,12,15,45,194,18,17,41,070,31,19,45,102,13,24,70,286,29*73

3:06:42:585 Nachm. 03/28/17 - $GPGSV,3,3,12,28,09,054,17,32,05,322,20,18,14,271,,25,00,236,*73

3:06:42:599 Nachm. 03/28/17 - $GLGSV,3,1,09,74,35,281,16,82,35,052,29,73,69,030,22,80,26,075,27*64

3:06:42:602 Nachm. 03/28/17 - $GLGSV,3,2,09,65,15,338,19,83,29,118,12,81,07,008,12,72,41,291,24*68

3:06:42:603 Nachm. 03/28/17 - $GLGSV,3,3,09,71,29,226,*57

3:06:42:605 Nachm. 03/28/17 - $GPGGA,130638.0,5208.362589,N,01138.498964,E,1,05,1.0,88.8,M,45.0,M,,*67

3:06:42:606 Nachm. 03/28/17 - $GNGNS,130638.0,5208.362589,N,01138.498964,E,AA,10,1.0,88.8,45.0,,*57

3:06:42:608 Nachm. 03/28/17 - $GPVTG,121.5,T,121.1,M,0.0,N,0.0,K,A*27

3:06:42:608 Nachm. 03/28/17 - $GPRMC,130638.0,A,5208.362589,N,01138.498964,E,0.0,121.5,280317,0.4,E,A*0F

3:06:42:609 Nachm. 03/28/17 - $GPGSA,A,2,10,15,17,24,28,,,,,,,,1.3,1.0,0.8*37

3:06:42:609 Nachm. 03/28/17 - $GNGSA,A,2,10,15,17,24,28,,,,,,,,1.3,1.0,0.8*29

3:06:42:609 Nachm. 03/28/17 - $GNGSA,A,2,72,73,74,82,83,,,,,,,,1.3,1.0,0.8*25

3:06:43:583 Nachm. 03/28/17 - $GPGSV,3,1,12,01,05,019,18,10,17,299,33,12,40,230,17,13,22,158,13*74

3:06:43:583 Nachm. 03/28/17 - $GPGSV,3,2,12,15,45,194,18,17,41,070,28,19,45,102,13,24,70,286,31*72

3:06:43:585 Nachm. 03/28/17 - $GPGSV,3,3,12,28,09,054,16,32,05,322,20,18,14,271,,25,00,236,*72

3:06:43:585 Nachm. 03/28/17 - $GLGSV,3,1,09,74,35,281,16,82,35,052,25,73,69,030,25,80,26,075,25*6D

3:06:43:585 Nachm. 03/28/17 - $GLGSV,3,2,09,65,15,338,19,83,29,118,12,81,07,008,12,72,41,291,23*6F

3:06:43:586 Nachm. 03/28/17 - $GLGSV,3,3,09,71,29,226,*57

3:06:43:586 Nachm. 03/28/17 - $GPGGA,130639.0,5208.362593,N,01138.498897,E,1,05,1.0,89.0,M,45.0,M,,*69

3:06:43:590 Nachm. 03/28/17 - $GNGNS,130639.0,5208.362593,N,01138.498897,E,AA,09,1.0,89.0,45.0,,*51

3:06:43:591 Nachm. 03/28/17 - $GPVTG,121.5,T,121.1,M,0.0,N,0.0,K,A*27

3:06:43:591 Nachm. 03/28/17 - $GPRMC,130639.0,A,5208.362593,N,01138.498897,E,0.0,121.5,280317,0.4,E,A*08

3:06:43:592 Nachm. 03/28/17 - $GPGSA,A,2,10,15,17,24,28,,,,,,,,1.3,1.0,0.8*37

3:06:43:592 Nachm. 03/28/17 - $GNGSA,A,2,10,15,17,24,28,,,,,,,,1.3,1.0,0.8*29

3:06:43:593 Nachm. 03/28/17 - $GNGSA,A,2,72,73,82,83,,,,,,,,,1.3,1.0,0.8*26

3:06:44:584 Nachm. 03/28/17 - $GPGSV,3,1,12,01,05,019,19,10,17,299,32,12,40,230,17,13,22,158,13*74

3:06:44:584 Nachm. 03/28/17 - $GPGSV,3,2,12,15,45,194,18,17,41,070,28,19,45,102,13,24,70,286,30*73

3:06:44:584 Nachm. 03/28/17 - $GPGSV,3,3,12,28,09,054,16,32,05,322,16,18,14,271,,25,00,236,*77

3:06:44:590 Nachm. 03/28/17 - $GLGSV,3,1,09,74,35,281,16,82,35,052,25,73,69,030,24,80,26,075,22*6B

3:06:44:594 Nachm. 03/28/17 - $GLGSV,3,2,09,65,15,338,15,83,29,118,12,81,07,008,12,72,41,291,21*61

3:06:44:594 Nachm. 03/28/17 - $GLGSV,3,3,09,71,29,226,*57

3:06:44:594 Nachm. 03/28/17 - $GPGGA,130640.0,5208.362596,N,01138.498908,E,1,05,1.0,89.0,M,45.0,M,,*65

3:06:44:595 Nachm. 03/28/17 - $GNGNS,130640.0,5208.362596,N,01138.498908,E,AA,09,1.0,89.0,45.0,,*5D

3:06:44:595 Nachm. 03/28/17 - $GPVTG,121.5,T,121.1,M,0.0,N,0.0,K,A*27

3:06:44:595 Nachm. 03/28/17 - $GPRMC,130640.0,A,5208.362596,N,01138.498908,E,0.0,121.5,280317,0.4,E,A*04

3:06:44:595 Nachm. 03/28/17 - $GPGSA,A,2,10,15,17,24,28,,,,,,,,1.3,1.0,0.8*37

3:06:44:595 Nachm. 03/28/17 - $GNGSA,A,2,10,15,17,24,28,,,,,,,,1.3,1.0,0.8*29

3:06:44:596 Nachm. 03/28/17 - $GNGSA,A,2,72,73,82,83,,,,,,,,,1.3,1.0,0.8*26

3:06:45:584 Nachm. 03/28/17 - $GPGSV,3,1,12,01,05,019,18,10,17,299,32,12,40,230,17,13,22,158,13*75

3:06:45:584 Nachm. 03/28/17 - $GPGSV,3,2,12,15,45,194,18,17,41,070,27,19,45,102,13,24,70,286,30*7C

3:06:45:584 Nachm. 03/28/17 - $GPGSV,3,3,12,28,09,054,16,32,05,322,16,18,14,271,,25,00,236,*77

3:06:45:589 Nachm. 03/28/17 - $GLGSV,3,1,09,74,35,281,16,82,35,052,23,73,69,030,25,80,26,075,23*6D

3:06:45:590 Nachm. 03/28/17 - $GLGSV,3,2,09,65,15,338,23,83,29,118,12,81,07,008,12,72,41,291,22*67

3:06:45:591 Nachm. 03/28/17 - $GLGSV,3,3,09,71,29,226,*57

3:06:45:591 Nachm. 03/28/17 - $GPGGA,130641.0,5208.362610,N,01138.498924,E,1,05,1.0,89.0,M,45.0,M,,*67

3:06:45:592 Nachm. 03/28/17 - $GNGNS,130641.0,5208.362610,N,01138.498924,E,AA,09,1.0,89.0,45.0,,*5F

3:06:45:592 Nachm. 03/28/17 - $GPVTG,121.5,T,121.1,M,0.0,N,0.0,K,A*27

3:06:45:592 Nachm. 03/28/17 - $GPRMC,130641.0,A,5208.362610,N,01138.498924,E,0.0,121.5,280317,0.4,E,A*06

3:06:45:592 Nachm. 03/28/17 - $GPGSA,A,2,10,15,17,24,28,,,,,,,,1.3,1.0,0.8*37

3:06:45:592 Nachm. 03/28/17 - $GNGSA,A,2,10,15,17,24,28,,,,,,,,1.3,1.0,0.8*29

3:06:45:594 Nachm. 03/28/17 - $GNGSA,A,2,72,73,82,83,,,,,,,,,1.3,1.0,0.8*26

3:06:46:584 Nachm. 03/28/17 - $GPGSV,3,1,12,01,05,019,18,10,17,299,32,12,40,230,17,13,22,158,13*75

3:06:46:587 Nachm. 03/28/17 - $GPGSV,3,2,12,15,45,194,18,17,41,070,27,19,45,102,13,24,70,286,29*74

3:06:46:592 Nachm. 03/28/17 - $GPGSV,3,3,12,28,09,054,16,32,05,322,18,18,14,271,,25,00,236,*79

3:06:46:604 Nachm. 03/28/17 - $GLGSV,3,1,09,74,35,281,16,82,35,052,24,73,69,030,24,80,26,075,22*6A

3:06:46:618 Nachm. 03/28/17 - $GLGSV,3,2,09,65,15,338,25,83,29,118,12,81,07,008,12,72,41,291,22*61

3:06:46:619 Nachm. 03/28/17 - $GLGSV,3,3,09,71,29,226,*57

3:06:46:619 Nachm. 03/28/17 - $GPGGA,130642.0,5208.362603,N,01138.498942,E,1,05,1.0,89.0,M,45.0,M,,*66

3:06:46:619 Nachm. 03/28/17 - $GNGNS,130642.0,5208.362603,N,01138.498942,E,AA,09,1.0,89.0,45.0,,*5E

3:06:46:619 Nachm. 03/28/17 - $GPVTG,121.5,T,121.1,M,0.0,N,0.0,K,A*27

3:06:46:619 Nachm. 03/28/17 - $GPRMC,130642.0,A,5208.362603,N,01138.498942,E,0.0,121.5,280317,0.4,E,A*07

3:06:46:620 Nachm. 03/28/17 - $GPGSA,A,2,10,15,17,24,28,,,,,,,,1.3,1.0,0.8*37

3:06:46:620 Nachm. 03/28/17 - $GNGSA,A,2,10,15,17,24,28,,,,,,,,1.3,1.0,0.8*29

3:06:46:620 Nachm. 03/28/17 - $GNGSA,A,2,72,73,82,83,,,,,,,,,1.3,1.0,0.8*26

3:06:47:587 Nachm. 03/28/17 - $GPGSV,3,1,12,01,05,019,16,10,17,299,31,12,40,230,17,13,22,158,13*78

3:06:47:588 Nachm. 03/28/17 - $GPGSV,3,2,12,15,45,194,18,17,41,070,26,19,45,102,11,24,70,286,29*77

3:06:47:589 Nachm. 03/28/17 - $GPGSV,3,3,12,28,09,054,16,32,05,322,18,18,14,271,,25,00,236,*79

3:06:47:608 Nachm. 03/28/17 - $GLGSV,3,1,09,74,35,281,16,82,35,052,24,73,69,030,22,80,26,075,19*64

3:06:47:611 Nachm. 03/28/17 - $GLGSV,3,2,09,65,15,338,23,83,29,118,12,81,07,008,12,72,41,291,19*6F

3:06:47:612 Nachm. 03/28/17 - $GLGSV,3,3,09,71,29,226,*57

3:06:47:612 Nachm. 03/28/17 - $GPGGA,130643.0,5208.362592,N,01138.498949,E,1,06,1.0,89.0,M,45.0,M,,*64

3:06:47:613 Nachm. 03/28/17 - $GNGNS,130643.0,5208.362592,N,01138.498949,E,AA,10,1.0,89.0,45.0,,*57

3:06:47:619 Nachm. 03/28/17 - $GPVTG,121.5,T,121.1,M,0.0,N,0.0,K,A*27

3:06:47:620 Nachm. 03/28/17 - $GPRMC,130643.0,A,5208.362592,N,01138.498949,E,0.0,121.5,280317,0.4,E,A*06

3:06:47:620 Nachm. 03/28/17 - $GPGSA,A,2,10,15,17,19,24,28,,,,,,,1.3,1.0,0.8*3F

3:06:47:620 Nachm. 03/28/17 - $GNGSA,A,2,10,15,17,19,24,28,,,,,,,1.3,1.0,0.8*21

3:06:47:621 Nachm. 03/28/17 - $GNGSA,A,2,72,73,82,83,,,,,,,,,1.3,1.0,0.8*26

3:06:48:583 Nachm. 03/28/17 - $GPGSV,3,1,12,01,05,019,18,10,17,299,31,12,40,230,17,13,22,158,13*76

3:06:48:587 Nachm. 03/28/17 - $GPGSV,3,2,12,15,45,194,18,17,41,070,28,19,45,102,11,24,70,286,29*79

3:06:48:588 Nachm. 03/28/17 - $GPGSV,3,3,12,28,09,054,16,32,05,322,19,18,14,271,,25,00,236,*78

3:06:48:588 Nachm. 03/28/17 - $GLGSV,3,1,09,74,35,281,16,82,35,052,26,73,69,030,21,80,26,075,21*6E

3:06:48:590 Nachm. 03/28/17 - $GLGSV,3,2,09,65,15,338,25,83,29,118,12,81,07,008,12,72,41,291,21*62

3:06:48:590 Nachm. 03/28/17 - $GLGSV,3,3,09,71,29,226,*57

3:06:48:591 Nachm. 03/28/17 - $GPGGA,130644.0,5208.362595,N,01138.498960,E,1,05,1.9,89.0,M,45.0,M,,*65

3:06:48:591 Nachm. 03/28/17 - $GNGNS,130644.0,5208.362595,N,01138.498960,E,AA,08,1.9,89.0,45.0,,*5C

3:06:48:591 Nachm. 03/28/17 - $GPVTG,121.5,T,121.1,M,0.0,N,0.0,K,A*27

3:06:48:591 Nachm. 03/28/17 - $GPRMC,130644.0,A,5208.362595,N,01138.498960,E,0.0,121.5,280317,0.4,E,A*0D

3:06:48:591 Nachm. 03/28/17 - $GPGSA,A,2,10,17,19,24,28,,,,,,,,2.1,1.9,0.9*32

3:06:48:599 Nachm. 03/28/17 - $GNGSA,A,2,10,17,19,24,28,,,,,,,,2.1,1.9,0.9*2C

3:06:48:599 Nachm. 03/28/17 - $GNGSA,A,2,72,73,82,,,,,,,,,,2.1,1.9,0.9*24

3:06:49:584 Nachm. 03/28/17 - $GPGSV,3,1,12,01,05,019,18,10,17,299,32,12,40,230,17,13,22,158,13*75

3:06:49:584 Nachm. 03/28/17 - $GPGSV,3,2,12,15,45,194,18,17,41,070,28,19,45,102,11,24,70,286,30*71

3:06:49:584 Nachm. 03/28/17 - $GPGSV,3,3,12,28,09,054,16,32,05,322,18,18,14,271,,25,00,236,*79

3:06:49:591 Nachm. 03/28/17 - $GLGSV,3,1,09,74,35,281,16,82,35,052,26,73,69,030,21,80,26,075,22*6D

3:06:49:593 Nachm. 03/28/17 - $GLGSV,3,2,09,65,15,338,25,83,29,118,12,81,07,008,12,72,41,291,20*63

3:06:49:594 Nachm. 03/28/17 - $GLGSV,3,3,09,71,29,226,*57

3:06:49:594 Nachm. 03/28/17 - $GPGGA,130645.0,5208.362583,N,01138.498978,E,1,05,1.9,89.0,M,45.0,M,,*6A

3:06:49:594 Nachm. 03/28/17 - $GNGNS,130645.0,5208.362583,N,01138.498978,E,AA,08,1.9,89.0,45.0,,*53

3:06:49:594 Nachm. 03/28/17 - $GPVTG,121.5,T,121.1,M,0.0,N,0.0,K,A*27

3:06:49:594 Nachm. 03/28/17 - $GPRMC,130645.0,A,5208.362583,N,01138.498978,E,0.0,121.5,280317,0.4,E,A*02

3:06:49:595 Nachm. 03/28/17 - $GPGSA,A,2,10,17,19,24,28,,,,,,,,2.1,1.9,0.9*32

3:06:49:595 Nachm. 03/28/17 - $GNGSA,A,2,10,17,19,24,28,,,,,,,,2.1,1.9,0.9*2C

3:06:49:595 Nachm. 03/28/17 - $GNGSA,A,2,72,73,82,,,,,,,,,,2.1,1.9,0.9*24

3:06:50:585 Nachm. 03/28/17 - $GPGSV,3,1,12,01,05,019,16,10,17,299,32,12,40,230,17,15,45,194,18*77

3:06:50:586 Nachm. 03/28/17 - $GPGSV,3,2,12,17,41,070,28,19,45,102,11,24,70,286,30,28,09,054,13*71

3:06:50:595 Nachm. 03/28/17 - $GPGSV,3,3,12,32,05,322,18,13,22,158,,18,14,271,,25,00,236,*72

3:06:50:604 Nachm. 03/28/17 - $GLGSV,3,1,09,74,35,281,16,82,35,052,26,73,69,030,21,80,26,075,22*6D

3:06:50:610 Nachm. 03/28/17 - $GLGSV,3,2,09,65,15,338,26,83,29,118,12,81,07,008,12,72,41,291,21*61

3:06:50:610 Nachm. 03/28/17 - $GLGSV,3,3,09,71,29,226,*57

3:06:50:610 Nachm. 03/28/17 - $GPGGA,130646.0,5208.362562,N,01138.498962,E,1,05,1.9,89.1,M,45.0,M,,*6C

3:06:50:611 Nachm. 03/28/17 - $GNGNS,130646.0,5208.362562,N,01138.498962,E,AA,08,1.9,89.1,45.0,,*55

3:06:50:611 Nachm. 03/28/17 - $GPVTG,121.5,T,121.1,M,0.0,N,0.0,K,A*27

3:06:50:611 Nachm. 03/28/17 - $GPRMC,130646.0,A,5208.362562,N,01138.498962,E,0.0,121.5,280317,0.4,E,A*05

3:06:50:611 Nachm. 03/28/17 - $GPGSA,A,2,10,17,19,24,28,,,,,,,,2.1,1.9,0.9*32

3:06:50:611 Nachm. 03/28/17 - $GNGSA,A,2,10,17,19,24,28,,,,,,,,2.1,1.9,0.9*2C

3:06:50:612 Nachm. 03/28/17 - $GNGSA,A,2,72,73,82,,,,,,,,,,2.1,1.9,0.9*24

3:06:51:583 Nachm. 03/28/17 - $GPGSV,3,1,12,01,05,019,17,10,17,299,31,12,40,230,17,15,45,194,18*75

3:06:51:583 Nachm. 03/28/17 - $GPGSV,3,2,12,17,41,070,28,19,45,102,11,24,70,286,30,28,09,054,17*75

3:06:51:583 Nachm. 03/28/17 - $GPGSV,3,3,12,32,05,322,18,13,22,158,,18,14,271,,25,00,236,*72

3:06:51:592 Nachm. 03/28/17 - $GLGSV,3,1,09,74,35,281,16,82,35,052,25,73,69,030,21,80,26,075,21*6D

3:06:51:593 Nachm. 03/28/17 - $GLGSV,3,2,09,65,15,338,26,83,29,118,12,81,07,008,12,72,41,291,22*62

3:06:51:594 Nachm. 03/28/17 - $GLGSV,3,3,09,71,29,226,*57

3:06:51:594 Nachm. 03/28/17 - $GPGGA,130647.0,5208.362553,N,01138.498937,E,1,05,1.9,89.2,M,45.0,M,,*6C

3:06:51:595 Nachm. 03/28/17 - $GNGNS,130647.0,5208.362553,N,01138.498937,E,AA,08,1.9,89.2,45.0,,*55

3:06:51:595 Nachm. 03/28/17 - $GPVTG,121.5,T,121.1,M,0.0,N,0.0,K,A*27

3:06:51:596 Nachm. 03/28/17 - $GPRMC,130647.0,A,5208.362553,N,01138.498937,E,0.0,121.5,280317,0.4,E,A*06

3:06:51:597 Nachm. 03/28/17 - $GPGSA,A,2,10,17,19,24,28,,,,,,,,2.1,1.9,0.9*32

3:06:51:597 Nachm. 03/28/17 - $GNGSA,A,2,10,17,19,24,28,,,,,,,,2.1,1.9,0.9*2C

3:06:51:597 Nachm. 03/28/17 - $GNGSA,A,2,72,73,82,,,,,,,,,,2.1,1.9,0.9*24

3:06:52:584 Nachm. 03/28/17 - $GPGSV,3,1,12,01,05,019,17,10,17,299,31,12,40,230,17,15,45,194,18*75

3:06:52:588 Nachm. 03/28/17 - $GPGSV,3,2,12,17,41,070,25,19,45,102,11,24,70,286,30,28,09,054,18*77

3:06:52:588 Nachm. 03/28/17 - $GPGSV,3,3,12,32,05,322,18,13,22,158,,18,14,271,,25,00,236,*72

3:06:52:590 Nachm. 03/28/17 - $GLGSV,3,1,09,74,35,281,16,82,35,052,22,73,69,030,22,80,26,075,21*69

3:06:52:590 Nachm. 03/28/17 - $GLGSV,3,2,09,65,15,338,25,83,29,118,12,81,07,008,12,72,41,291,19*69

3:06:52:591 Nachm. 03/28/17 - $GLGSV,3,3,09,71,29,226,*57

3:06:52:597 Nachm. 03/28/17 - $GPGGA,130648.0,5208.362549,N,01138.498931,E,1,05,1.9,89.2,M,45.0,M,,*6E

3:06:52:599 Nachm. 03/28/17 - $GNGNS,130648.0,5208.362549,N,01138.498931,E,AA,08,1.9,89.2,45.0,,*57

3:06:52:600 Nachm. 03/28/17 - $GPVTG,121.5,T,121.1,M,0.0,N,0.0,K,A*27

3:06:52:602 Nachm. 03/28/17 - $GPRMC,130648.0,A,5208.362549,N,01138.498931,E,0.0,121.5,280317,0.4,E,A*04

3:06:52:603 Nachm. 03/28/17 - $GPGSA,A,2,10,17,19,24,28,,,,,,,,2.1,1.9,0.9*32

3:06:52:604 Nachm. 03/28/17 - $GNGSA,A,2,10,17,19,24,28,,,,,,,,2.1,1.9,0.9*2C

3:06:52:604 Nachm. 03/28/17 - $GNGSA,A,2,72,73,82,,,,,,,,,,2.1,1.9,0.9*24

3:06:53:584 Nachm. 03/28/17 - $GPGSV,3,1,12,01,05,019,17,10,17,299,31,12,40,230,17,15,45,194,18*75

3:06:53:585 Nachm. 03/28/17 - $GPGSV,3,2,12,17,41,070,24,19,45,102,11,24,70,286,29,28,09,054,18*7E

3:06:53:585 Nachm. 03/28/17 - $GPGSV,3,3,12,32,05,322,18,13,22,158,,18,14,271,,25,00,236,*72

3:06:53:617 Nachm. 03/28/17 - $GLGSV,3,1,09,74,35,281,16,82,35,052,22,73,69,030,24,80,26,075,24*6A

3:06:53:620 Nachm. 03/28/17 - $GLGSV,3,2,09,65,15,338,21,83,29,118,12,81,07,008,7,72,41,291,17*57

3:06:53:621 Nachm. 03/28/17 - $GLGSV,3,3,09,71,29,226,*57

3:06:53:621 Nachm. 03/28/17 - $GPGGA,130649.0,5208.362545,N,01138.498917,E,1,05,1.9,89.3,M,45.0,M,,*66

3:06:53:622 Nachm. 03/28/17 - $GNGNS,130649.0,5208.362545,N,01138.498917,E,AA,08,1.9,89.3,45.0,,*5F

3:06:53:623 Nachm. 03/28/17 - $GPVTG,121.5,T,121.1,M,0.0,N,0.0,K,A*27

3:06:53:623 Nachm. 03/28/17 - $GPRMC,130649.0,A,5208.362545,N,01138.498917,E,0.0,121.5,280317,0.4,E,A*0D

3:06:53:624 Nachm. 03/28/17 - $GPGSA,A,2,10,17,19,24,28,,,,,,,,2.1,1.9,0.9*32

3:06:53:624 Nachm. 03/28/17 - $GNGSA,A,2,10,17,19,24,28,,,,,,,,2.1,1.9,0.9*2C

3:06:53:625 Nachm. 03/28/17 - $GNGSA,A,2,72,73,82,,,,,,,,,,2.1,1.9,0.9*24

3:06:54:583 Nachm. 03/28/17 - $GPGSV,3,1,12,01,05,019,15,10,17,299,30,12,40,230,17,15,45,194,18*76

3:06:54:584 Nachm. 03/28/17 - $GPGSV,3,2,12,17,41,070,26,19,45,102,11,24,70,286,28,28,09,054,21*77

3:06:54:585 Nachm. 03/28/17 - $GPGSV,3,3,12,32,05,322,18,13,22,158,,18,14,271,,25,00,236,*72

3:06:54:592 Nachm. 03/28/17 - $GLGSV,3,1,09,74,35,281,16,82,35,052,18,73,69,030,25,80,26,075,26*60

3:06:54:593 Nachm. 03/28/17 - $GLGSV,3,2,09,65,15,338,18,83,29,118,12,81,07,008,7,72,41,291,21*58

3:06:54:594 Nachm. 03/28/17 - $GLGSV,3,3,09,71,29,226,*57

3:06:54:595 Nachm. 03/28/17 - $GPGGA,130650.0,5208.362533,N,01138.498920,E,1,04,3.1,89.3,M,45.0,M,,*60

3:06:54:595 Nachm. 03/28/17 - $GNGNS,130650.0,5208.362533,N,01138.498920,E,AA,07,3.1,89.3,45.0,,*57

3:06:54:596 Nachm. 03/28/17 - $GPVTG,121.5,T,121.1,M,0.0,N,0.0,K,A*27

3:06:54:597 Nachm. 03/28/17 - $GPRMC,130650.0,A,5208.362533,N,01138.498920,E,0.0,121.5,280317,0.4,E,A*00

3:06:54:598 Nachm. 03/28/17 - $GPGSA,A,2,10,17,24,28,,,,,,,,,3.3,3.1,1.0*3B

3:06:54:599 Nachm. 03/28/17 - $GNGSA,A,2,10,17,24,28,,,,,,,,,3.3,3.1,1.0*25

3:06:54:599 Nachm. 03/28/17 - $GNGSA,A,2,72,73,82,,,,,,,,,,3.3,3.1,1.0*25

3:06:55:583 Nachm. 03/28/17 - $GPGSV,3,1,12,01,05,019,15,10,17,299,31,12,40,230,17,15,45,194,18*77

3:06:55:587 Nachm. 03/28/17 - $GPGSV,3,2,12,17,41,070,23,19,45,102,12,24,70,286,29,28,09,054,18*7A

3:06:55:587 Nachm. 03/28/17 - $GPGSV,3,3,12,32,05,322,18,13,22,158,,18,14,271,,25,00,236,*72

3:06:55:589 Nachm. 03/28/17 - $GLGSV,3,1,09,74,35,281,16,82,35,052,18,73,69,030,26,80,26,075,27*62

3:06:55:589 Nachm. 03/28/17 - $GLGSV,3,2,09,65,15,338,18,83,29,118,12,81,07,008,7,72,41,291,21*58

3:06:55:589 Nachm. 03/28/17 - $GLGSV,3,3,09,71,29,226,*57

3:06:55:589 Nachm. 03/28/17 - $GPGGA,130651.0,5208.362513,N,01138.498921,E,1,05,1.9,89.3,M,45.0,M,,*69

3:06:55:590 Nachm. 03/28/17 - $GNGNS,130651.0,5208.362513,N,01138.498921,E,AA,08,1.9,89.3,45.0,,*50

3:06:55:590 Nachm. 03/28/17 - $GPVTG,121.5,T,121.1,M,0.0,N,0.0,K,A*27

3:06:55:590 Nachm. 03/28/17 - $GPRMC,130651.0,A,5208.362513,N,01138.498921,E,0.0,121.5,280317,0.4,E,A*02

3:06:55:594 Nachm. 03/28/17 - $GPGSA,A,2,10,17,19,24,28,,,,,,,,2.1,1.9,0.9*32

3:06:55:594 Nachm. 03/28/17 - $GNGSA,A,2,10,17,19,24,28,,,,,,,,2.1,1.9,0.9*2C

3:06:55:594 Nachm. 03/28/17 - $GNGSA,A,2,72,73,82,,,,,,,,,,2.1,1.9,0.9*24

3:06:56:585 Nachm. 03/28/17 - $GPGSV,3,1,12,01,05,019,17,10,17,299,32,12,40,230,17,15,45,194,18*76

3:06:56:592 Nachm. 03/28/17 - $GPGSV,3,2,12,17,41,070,29,19,45,102,12,24,70,286,31,28,09,054,19*78

3:06:56:598 Nachm. 03/28/17 - $GPGSV,3,3,12,32,05,322,18,13,22,158,,18,14,271,,25,00,236,*72

3:06:56:600 Nachm. 03/28/17 - $GLGSV,3,1,09,74,35,281,16,82,35,052,25,73,69,030,22,80,26,075,27*68

3:06:56:602 Nachm. 03/28/17 - $GLGSV,3,2,09,65,15,338,15,83,29,118,12,81,07,008,7,72,41,291,19*5E

3:06:56:609 Nachm. 03/28/17 - $GLGSV,3,3,09,71,29,226,*57

3:06:56:610 Nachm. 03/28/17 - $GPGGA,130652.0,5208.362508,N,01138.498941,E,1,05,1.9,89.3,M,45.0,M,,*66

3:06:56:610 Nachm. 03/28/17 - $GNGNS,130652.0,5208.362508,N,01138.498941,E,AA,08,1.9,89.3,45.0,,*5F

3:06:56:611 Nachm. 03/28/17 - $GPVTG,121.5,T,121.1,M,0.0,N,0.0,K,A*27

3:06:56:612 Nachm. 03/28/17 - $GPRMC,130652.0,A,5208.362508,N,01138.498941,E,0.0,121.5,280317,0.4,E,A*0D

3:06:56:613 Nachm. 03/28/17 - $GPGSA,A,2,10,17,19,24,28,,,,,,,,2.1,1.9,0.9*32

3:06:56:613 Nachm. 03/28/17 - $GNGSA,A,2,10,17,19,24,28,,,,,,,,2.1,1.9,0.9*2C

3:06:56:614 Nachm. 03/28/17 - $GNGSA,A,2,72,73,82,,,,,,,,,,2.1,1.9,0.9*24

3:06:57:583 Nachm. 03/28/17 - $GPGSV,3,1,12,01,05,019,17,10,17,299,32,12,40,230,13,15,45,194,18*72

3:06:57:584 Nachm. 03/28/17 - $GPGSV,3,2,12,17,41,070,30,19,45,102,17,24,70,286,30,28,09,054,16*7B

3:06:57:584 Nachm. 03/28/17 - $GPGSV,3,3,12,32,05,322,18,13,22,158,,18,14,271,,25,00,236,*72

3:06:57:594 Nachm. 03/28/17 - $GLGSV,3,1,09,74,35,281,16,82,35,052,26,73,69,030,22,80,26,075,26*6A

3:06:57:594 Nachm. 03/28/17 - $GLGSV,3,2,09,65,15,338,15,83,29,118,12,81,07,008,13,72,41,291,20*61

3:06:57:597 Nachm. 03/28/17 - $GLGSV,3,3,09,71,29,226,*57

3:06:57:598 Nachm. 03/28/17 - $GPGGA,130653.0,5208.362394,N,01138.498992,E,1,06,1.3,89.2,M,45.0,M,,*62

3:06:57:598 Nachm. 03/28/17 - $GNGNS,130653.0,5208.362394,N,01138.498992,E,AA,09,1.3,89.2,45.0,,*59

3:06:57:598 Nachm. 03/28/17 - $GPVTG,121.5,T,121.1,M,0.0,N,0.0,K,A*27

3:06:57:599 Nachm. 03/28/17 - $GPRMC,130653.0,A,5208.362394,N,01138.498992,E,0.0,121.5,280317,0.4,E,A*01

3:06:57:599 Nachm. 03/28/17 - $GPGSA,A,2,10,12,17,19,24,28,,,,,,,1.6,1.3,0.9*3F

3:06:57:599 Nachm. 03/28/17 - $GNGSA,A,2,10,12,17,19,24,28,,,,,,,1.6,1.3,0.9*21

3:06:57:600 Nachm. 03/28/17 - $GNGSA,A,2,72,73,82,,,,,,,,,,1.6,1.3,0.9*2A

3:06:58:585 Nachm. 03/28/17 - $GPGSV,3,1,12,01,05,019,16,10,17,299,31,12,40,230,13,15,45,194,18*70

3:06:58:586 Nachm. 03/28/17 - $GPGSV,3,2,12,17,41,070,29,19,45,102,17,24,70,286,30,28,09,054,16*73

3:06:58:586 Nachm. 03/28/17 - $GPGSV,3,3,12,32,05,322,18,13,22,158,,18,14,271,,25,00,236,*72

3:06:58:597 Nachm. 03/28/17 - $GLGSV,3,1,09,74,35,281,16,82,35,052,27,73,69,030,21,80,26,075,27*69

3:06:58:597 Nachm. 03/28/17 - $GLGSV,3,2,09,65,15,338,18,83,29,118,12,81,07,008,13,72,41,291,19*66

3:06:58:598 Nachm. 03/28/17 - $GLGSV,3,3,09,71,29,226,*57

3:06:58:598 Nachm. 03/28/17 - $GPGGA,130654.0,5208.362417,N,01138.499006,E,1,06,1.3,89.2,M,45.0,M,,*6C

3:06:58:599 Nachm. 03/28/17 - $GNGNS,130654.0,5208.362417,N,01138.499006,E,AA,09,1.3,89.2,45.0,,*57

3:06:58:599 Nachm. 03/28/17 - $GPVTG,121.5,T,121.1,M,0.0,N,0.0,K,A*27

3:06:58:600 Nachm. 03/28/17 - $GPRMC,130654.0,A,5208.362417,N,01138.499006,E,0.0,121.5,280317,0.4,E,A*0F

3:06:58:600 Nachm. 03/28/17 - $GPGSA,A,2,10,12,17,19,24,28,,,,,,,1.6,1.3,0.9*3F

3:06:58:601 Nachm. 03/28/17 - $GNGSA,A,2,10,12,17,19,24,28,,,,,,,1.6,1.3,0.9*21

3:06:58:602 Nachm. 03/28/17 - $GNGSA,A,2,72,73,82,,,,,,,,,,1.6,1.3,0.9*2A

3:06:59:583 Nachm. 03/28/17 - $GPGSV,3,1,12,01,05,019,17,10,17,299,32,12,40,230,17,15,45,194,18*76

3:06:59:585 Nachm. 03/28/17 - $GPGSV,3,2,12,17,41,070,28,19,45,102,17,24,70,286,30,28,09,054,17*73

3:06:59:585 Nachm. 03/28/17 - $GPGSV,3,3,12,32,05,322,18,13,22,158,,18,14,271,,25,00,236,*72

3:06:59:594 Nachm. 03/28/17 - $GLGSV,3,1,09,74,35,281,16,82,35,052,25,73,69,030,24,80,26,075,26*6F

3:06:59:595 Nachm. 03/28/17 - $GLGSV,3,2,09,65,15,338,21,83,29,118,12,81,07,008,13,72,41,291,17*62

3:06:59:595 Nachm. 03/28/17 - $GLGSV,3,3,09,71,29,226,*57

3:06:59:596 Nachm. 03/28/17 - $GPGGA,130655.0,5208.362020,N,01138.499006,E,1,06,1.3,88.9,M,45.0,M,,*67

3:06:59:596 Nachm. 03/28/17 - $GNGNS,130655.0,5208.362020,N,01138.499006,E,AA,09,1.3,88.9,45.0,,*5C

3:06:59:598 Nachm. 03/28/17 - $GPVTG,121.5,T,121.1,M,0.0,N,0.0,K,A*27

3:06:59:599 Nachm. 03/28/17 - $GPRMC,130655.0,A,5208.362020,N,01138.499006,E,0.0,121.5,280317,0.4,E,A*0E

3:06:59:599 Nachm. 03/28/17 - $GPGSA,A,2,10,12,17,19,24,28,,,,,,,1.6,1.3,0.9*3F

3:06:59:599 Nachm. 03/28/17 - $GNGSA,A,2,10,12,17,19,24,28,,,,,,,1.6,1.3,0.9*21

3:06:59:600 Nachm. 03/28/17 - $GNGSA,A,2,72,73,82,,,,,,,,,,1.6,1.3,0.9*2A

3:07:00:583 Nachm. 03/28/17 - $GPGSV,3,1,12,01,05,019,17,10,17,299,32,12,40,230,18,15,45,194,14*75

3:07:00:583 Nachm. 03/28/17 - $GPGSV,3,2,12,17,41,070,27,19,45,102,16,24,70,286,30,28,09,054,17*7D

3:07:00:588 Nachm. 03/28/17 - $GPGSV,3,3,12,32,05,322,18,13,22,158,,18,14,271,,25,00,236,*72

3:07:00:590 Nachm. 03/28/17 - $GLGSV,3,1,09,82,35,052,23,73,69,030,25,80,26,075,25,65,15,338,21*6E

3:07:00:595 Nachm. 03/28/17 - $GLGSV,3,2,09,83,29,118,13,81,07,008,13,72,41,291,17,,35,281,*62

3:07:00:595 Nachm. 03/28/17 - $GLGSV,3,3,09,71,29,226,*57

3:07:00:595 Nachm. 03/28/17 - $GPGGA,130656.0,5208.362179,N,01138.498956,E,1,07,0.9,89.1,M,45.0,M,,*67

3:07:00:595 Nachm. 03/28/17 - $GNGNS,130656.0,5208.362179,N,01138.498956,E,AA,11,0.9,89.1,45.0,,*54

3:07:00:598 Nachm. 03/28/17 - $GPVTG,121.5,T,121.1,M,0.0,N,0.0,K,A*27

3:07:00:598 Nachm. 03/28/17 - $GPRMC,130656.0,A,5208.362179,N,01138.498956,E,0.0,121.5,280317,0.4,E,A*0D

3:07:00:599 Nachm. 03/28/17 - $GPGSA,A,2,10,12,15,17,19,24,28,,,,,,1.2,0.9,0.8*35

3:07:00:599 Nachm. 03/28/17 - $GNGSA,A,2,10,12,15,17,19,24,28,,,,,,1.2,0.9,0.8*2B

3:07:00:599 Nachm. 03/28/17 - $GNGSA,A,2,72,73,82,83,,,,,,,,,1.2,0.9,0.8*2F

3:07:01:584 Nachm. 03/28/17 - $GPGSV,3,1,12,01,05,019,18,10,17,299,32,12,40,230,18,15,45,194,14*7A

3:07:01:585 Nachm. 03/28/17 - $GPGSV,3,2,12,17,41,070,24,19,45,102,18,24,70,286,30,28,09,054,17*70

3:07:01:586 Nachm. 03/28/17 - $GPGSV,3,3,12,32,05,322,18,13,22,158,,18,14,271,,25,00,236,*72

3:07:01:588 Nachm. 03/28/17 - $GLGSV,3,1,09,82,35,052,22,73,69,030,26,80,26,075,23,65,15,338,21*6A

3:07:01:588 Nachm. 03/28/17 - $GLGSV,3,2,09,83,29,118,13,81,07,008,13,72,41,291,18,74,35,281,*6E

3:07:01:588 Nachm. 03/28/17 - $GLGSV,3,3,09,71,29,226,*57

3:07:01:594 Nachm. 03/28/17 - $GPGGA,130657.0,5208.362199,N,01138.498915,E,1,07,0.9,89.1,M,45.0,M,,*6F

3:07:01:595 Nachm. 03/28/17 - $GNGNS,130657.0,5208.362199,N,01138.498915,E,AA,11,0.9,89.1,45.0,,*5C

3:07:01:595 Nachm. 03/28/17 - $GPVTG,121.5,T,121.1,M,0.0,N,0.0,K,A*27

3:07:01:598 Nachm. 03/28/17 - $GPRMC,130657.0,A,5208.362199,N,01138.498915,E,0.0,121.5,280317,0.4,E,A*05

3:07:01:599 Nachm. 03/28/17 - $GPGSA,A,2,10,12,15,17,19,24,28,,,,,,1.2,0.9,0.8*35

3:07:01:600 Nachm. 03/28/17 - $GNGSA,A,2,10,12,15,17,19,24,28,,,,,,1.2,0.9,0.8*2B

3:07:01:600 Nachm. 03/28/17 - $GNGSA,A,2,72,73,82,83,,,,,,,,,1.2,0.9,0.8*2F

3:07:02:585 Nachm. 03/28/17 - $GPGSV,3,1,12,01,05,019,19,10,17,299,32,12,40,230,18,15,45,194,14*7B

3:07:02:586 Nachm. 03/28/17 - $GPGSV,3,2,12,17,41,070,25,19,45,102,18,24,70,286,29,28,09,054,17*79

3:07:02:594 Nachm. 03/28/17 - $GPGSV,3,3,12,32,05,322,18,13,22,158,,18,14,271,,25,00,236,*72

3:07:02:610 Nachm. 03/28/17 - $GLGSV,3,1,09,82,35,052,21,73,69,030,26,80,26,075,21,65,15,338,16*6F

3:07:02:612 Nachm. 03/28/17 - $GLGSV,3,2,09,83,29,118,16,81,07,008,13,72,41,291,16,74,35,281,*65

3:07:02:612 Nachm. 03/28/17 - $GLGSV,3,3,09,71,29,226,*57

3:07:02:613 Nachm. 03/28/17 - $GPGGA,130658.0,5208.362257,N,01138.498910,E,1,07,0.9,89.2,M,45.0,M,,*67

3:07:02:613 Nachm. 03/28/17 - $GNGNS,130658.0,5208.362257,N,01138.498910,E,AA,11,0.9,89.2,45.0,,*54

3:07:02:613 Nachm. 03/28/17 - $GPVTG,121.5,T,121.1,M,0.0,N,0.0,K,A*27

3:07:02:613 Nachm. 03/28/17 - $GPRMC,130658.0,A,5208.362257,N,01138.498910,E,0.0,121.5,280317,0.4,E,A*0E

3:07:02:613 Nachm. 03/28/17 - $GPGSA,A,2,10,12,15,17,19,24,28,,,,,,1.2,0.9,0.8*35

3:07:02:614 Nachm. 03/28/17 - $GNGSA,A,2,10,12,15,17,19,24,28,,,,,,1.2,0.9,0.8*2B

3:07:02:614 Nachm. 03/28/17 - $GNGSA,A,2,72,73,82,83,,,,,,,,,1.2,0.9,0.8*2F

3:07:03:583 Nachm. 03/28/17 - $GPGSV,3,1,12,01,05,019,19,10,17,299,32,12,40,230,18,15,45,194,15*7A

3:07:03:585 Nachm. 03/28/17 - $GPGSV,3,2,12,17,41,070,26,19,45,102,15,24,70,286,29,28,09,054,14*74

3:07:03:585 Nachm. 03/28/17 - $GPGSV,3,3,12,32,05,322,12,13,22,158,,18,14,271,,25,00,236,*78

3:07:03:595 Nachm. 03/28/17 - $GLGSV,3,1,09,82,35,052,21,73,69,030,28,80,26,075,21,65,15,338,21*65

3:07:03:600 Nachm. 03/28/17 - $GLGSV,3,2,09,83,29,118,16,81,07,008,12,72,41,291,18,74,35,281,*6A

3:07:03:601 Nachm. 03/28/17 - $GLGSV,3,3,09,71,29,226,*57

3:07:03:602 Nachm. 03/28/17 - $GPGGA,130659.0,5208.362242,N,01138.498855,E,1,07,0.9,89.2,M,45.0,M,,*62

3:07:03:603 Nachm. 03/28/17 - $GNGNS,130659.0,5208.362242,N,01138.498855,E,AA,11,0.9,89.2,45.0,,*51

3:07:03:604 Nachm. 03/28/17 - $GPVTG,121.5,T,121.1,M,0.0,N,0.0,K,A*27

3:07:03:605 Nachm. 03/28/17 - $GPRMC,130659.0,A,5208.362242,N,01138.498855,E,0.0,121.5,280317,0.4,E,A*0B

3:07:03:606 Nachm. 03/28/17 - $GPGSA,A,2,10,12,15,17,19,24,28,,,,,,1.2,0.9,0.8*35

3:07:03:607 Nachm. 03/28/17 - $GNGSA,A,2,10,12,15,17,19,24,28,,,,,,1.2,0.9,0.8*2B

3:07:03:607 Nachm. 03/28/17 - $GNGSA,A,2,72,73,82,83,,,,,,,,,1.2,0.9,0.8*2F

3:07:04:584 Nachm. 03/28/17 - $GPGSV,3,1,12,01,05,019,18,10,17,299,31,12,40,230,19,15,45,194,14*78

3:07:04:585 Nachm. 03/28/17 - $GPGSV,3,2,12,17,41,070,26,19,45,102,15,24,70,286,29,28,09,054,16*76

3:07:04:588 Nachm. 03/28/17 - $GPGSV,3,3,12,32,05,322,12,13,22,158,,18,14,271,,25,00,236,*78

3:07:04:589 Nachm. 03/28/17 - $GLGSV,3,1,09,82,35,052,23,73,69,030,28,80,26,075,19,65,15,338,22*6F

3:07:04:594 Nachm. 03/28/17 - $GLGSV,3,2,09,83,29,118,16,81,07,008,12,72,41,291,18,74,35,281,*6A

3:07:04:598 Nachm. 03/28/17 - $GLGSV,3,3,09,71,29,226,*57

3:07:04:603 Nachm. 03/28/17 - $GPGGA,130700.0,5208.362380,N,01138.498844,E,1,07,0.9,89.4,M,45.0,M,,*66

3:07:04:603 Nachm. 03/28/17 - $GNGNS,130700.0,5208.362380,N,01138.498844,E,AA,11,0.9,89.4,45.0,,*55

3:07:04:604 Nachm. 03/28/17 - $GPVTG,121.5,T,121.1,M,0.0,N,0.0,K,A*27

3:07:04:605 Nachm. 03/28/17 - $GPRMC,130700.0,A,5208.362380,N,01138.498844,E,0.0,121.5,280317,0.4,E,A*09

3:07:04:606 Nachm. 03/28/17 - $GPGSA,A,2,10,12,15,17,19,24,28,,,,,,1.2,0.9,0.8*35

3:07:04:611 Nachm. 03/28/17 - $GNGSA,A,2,10,12,15,17,19,24,28,,,,,,1.2,0.9,0.8*2B

3:07:04:612 Nachm. 03/28/17 - $GNGSA,A,2,72,73,82,83,,,,,,,,,1.2,0.9,0.8*2F

3:07:05:584 Nachm. 03/28/17 - $GPGSV,3,1,12,01,05,019,18,10,17,299,30,12,40,230,20,15,45,194,14*73

3:07:05:585 Nachm. 03/28/17 - $GPGSV,3,2,12,17,41,070,27,19,45,102,15,24,70,286,30,28,09,054,18*71

3:07:05:585 Nachm. 03/28/17 - $GPGSV,3,3,12,32,05,322,12,13,22,158,,18,14,271,,25,00,236,*78

3:07:05:587 Nachm. 03/28/17 - $GLGSV,3,1,09,82,35,052,24,73,69,030,26,80,26,075,19,65,15,338,23*67

3:07:05:587 Nachm. 03/28/17 - $GLGSV,3,2,09,83,29,118,16,81,07,008,12,72,41,291,17,74,35,281,*65

3:07:05:588 Nachm. 03/28/17 - $GLGSV,3,3,09,71,29,226,*57

3:07:05:588 Nachm. 03/28/17 - $GPGGA,130701.0,5208.362603,N,01138.498785,E,1,07,0.9,89.6,M,45.0,M,,*69

3:07:05:590 Nachm. 03/28/17 - $GNGNS,130701.0,5208.362603,N,01138.498785,E,AA,11,0.9,89.6,45.0,,*5A

3:07:05:593 Nachm. 03/28/17 - $GPVTG,121.5,T,121.1,M,0.0,N,0.0,K,A*27

3:07:05:594 Nachm. 03/28/17 - $GPRMC,130701.0,A,5208.362603,N,01138.498785,E,0.0,121.5,280317,0.4,E,A*04

3:07:05:594 Nachm. 03/28/17 - $GPGSA,A,2,10,12,15,17,19,24,28,,,,,,1.2,0.9,0.8*35

3:07:05:595 Nachm. 03/28/17 - $GNGSA,A,2,10,12,15,17,19,24,28,,,,,,1.2,0.9,0.8*2B

3:07:05:595 Nachm. 03/28/17 - $GNGSA,A,2,72,73,82,83,,,,,,,,,1.2,0.9,0.8*2F

3:07:06:584 Nachm. 03/28/17 - $GPGSV,3,1,12,01,05,019,17,10,17,299,30,12,40,230,20,15,45,194,14*7C

3:07:06:585 Nachm. 03/28/17 - $GPGSV,3,2,12,17,41,070,28,19,45,102,15,24,70,286,30,28,09,054,18*7E

3:07:06:591 Nachm. 03/28/17 - $GPGSV,3,3,12,32,05,322,12,13,22,158,,18,14,271,,25,00,236,*78

3:07:06:592 Nachm. 03/28/17 - $GLGSV,3,1,09,82,35,052,25,73,69,030,27,80,26,075,15,65,15,338,24*6C

3:07:06:593 Nachm. 03/28/17 - $GLGSV,3,2,09,83,29,118,16,81,07,008,13,72,41,291,20,74,35,281,*60

3:07:06:600 Nachm. 03/28/17 - $GLGSV,3,3,09,71,29,226,*57

3:07:06:609 Nachm. 03/28/17 - $GPGGA,130702.0,5208.362670,N,01138.498782,E,1,07,0.9,89.7,M,45.0,M,,*68

3:07:06:609 Nachm. 03/28/17 - $GNGNS,130702.0,5208.362670,N,01138.498782,E,AA,11,0.9,89.7,45.0,,*5B

3:07:06:610 Nachm. 03/28/17 - $GPVTG,121.5,T,121.1,M,0.0,N,0.0,K,A*27

3:07:06:610 Nachm. 03/28/17 - $GPRMC,130702.0,A,5208.362670,N,01138.498782,E,0.0,121.5,280317,0.4,E,A*04

3:07:06:610 Nachm. 03/28/17 - $GPGSA,A,2,10,12,15,17,19,24,28,,,,,,1.2,0.9,0.8*35

3:07:06:611 Nachm. 03/28/17 - $GNGSA,A,2,10,12,15,17,19,24,28,,,,,,1.2,0.9,0.8*2B

3:07:06:611 Nachm. 03/28/17 - $GNGSA,A,2,72,73,82,83,,,,,,,,,1.2,0.9,0.8*2F

3:07:07:583 Nachm. 03/28/17 - $GPGSV,3,1,12,01,05,019,17,10,17,299,30,12,40,230,20,15,45,194,14*7C

3:07:07:584 Nachm. 03/28/17 - $GPGSV,3,2,12,17,41,070,28,19,45,102,15,24,70,286,30,28,09,054,15*73

3:07:07:584 Nachm. 03/28/17 - $GPGSV,3,3,12,32,05,322,12,13,22,158,,18,14,271,,25,00,236,*78

3:07:07:588 Nachm. 03/28/17 - $GLGSV,3,1,09,82,35,052,23,73,69,030,26,80,26,075,19,65,15,338,25*66

3:07:07:592 Nachm. 03/28/17 - $GLGSV,3,2,09,83,29,118,17,81,07,008,13,72,41,291,18,74,35,281,*6A

3:07:07:593 Nachm. 03/28/17 - $GLGSV,3,3,09,71,29,226,*57

3:07:07:593 Nachm. 03/28/17 - $GPGGA,130703.0,5208.362662,N,01138.498795,E,1,07,0.9,89.8,M,45.0,M,,*63

3:07:07:594 Nachm. 03/28/17 - $GNGNS,130703.0,5208.362662,N,01138.498795,E,AA,11,0.9,89.8,45.0,,*50

3:07:07:594 Nachm. 03/28/17 - $GPVTG,121.5,T,121.1,M,0.0,N,0.0,K,A*27

3:07:07:597 Nachm. 03/28/17 - $GPRMC,130703.0,A,5208.362662,N,01138.498795,E,0.0,121.5,280317,0.4,E,A*00

3:07:07:597 Nachm. 03/28/17 - $GPGSA,A,2,10,12,15,17,19,24,28,,,,,,1.2,0.9,0.8*35

3:07:07:597 Nachm. 03/28/17 - $GNGSA,A,2,10,12,15,17,19,24,28,,,,,,1.2,0.9,0.8*2B

3:07:07:598 Nachm. 03/28/17 - $GNGSA,A,2,72,73,82,83,,,,,,,,,1.2,0.9,0.8*2F

3:07:08:583 Nachm. 03/28/17 - $GPGSV,3,1,12,01,05,019,17,10,17,299,29,12,40,230,19,15,45,194,14*7E

3:07:08:583 Nachm. 03/28/17 - $GPGSV,3,2,12,17,41,070,27,19,45,102,14,24,70,286,30,28,09,054,15*7D

3:07:08:583 Nachm. 03/28/17 - $GPGSV,3,3,12,32,05,322,12,13,22,158,,18,14,271,,25,00,236,*78

3:07:08:594 Nachm. 03/28/17 - $GLGSV,3,1,09,82,35,052,24,73,69,030,26,80,26,075,21,65,15,338,24*6B

3:07:08:595 Nachm. 03/28/17 - $GLGSV,3,2,09,83,29,118,17,81,07,008,13,72,41,291,19,74,35,281,*6B

3:07:08:596 Nachm. 03/28/17 - $GLGSV,3,3,09,71,29,226,*57

3:07:08:596 Nachm. 03/28/17 - $GPGGA,130704.0,5208.362912,N,01138.498786,E,1,07,0.9,90.0,M,45.0,M,,*6E

3:07:08:597 Nachm. 03/28/17 - $GNGNS,130704.0,5208.362912,N,01138.498786,E,AA,11,0.9,90.0,45.0,,*5D

3:07:08:597 Nachm. 03/28/17 - $GPVTG,121.5,T,121.1,M,0.0,N,0.0,K,A*27

3:07:08:597 Nachm. 03/28/17 - $GPRMC,130704.0,A,5208.362912,N,01138.498786,E,0.0,121.5,280317,0.4,E,A*0D

3:07:08:598 Nachm. 03/28/17 - $GPGSA,A,2,10,12,15,17,19,24,28,,,,,,1.2,0.9,0.8*35

3:07:08:598 Nachm. 03/28/17 - $GNGSA,A,2,10,12,15,17,19,24,28,,,,,,1.2,0.9,0.8*2B

3:07:08:598 Nachm. 03/28/17 - $GNGSA,A,2,72,73,82,83,,,,,,,,,1.2,0.9,0.8*2F

3:07:09:583 Nachm. 03/28/17 - $GPGSV,3,1,12,01,05,019,15,10,17,299,28,12,40,230,20,15,45,194,14*77

3:07:09:584 Nachm. 03/28/17 - $GPGSV,3,2,12,17,41,070,27,19,45,102,14,24,70,286,29,28,09,054,15*75

3:07:09:584 Nachm. 03/28/17 - $GPGSV,3,3,12,32,05,322,12,13,22,158,,18,14,271,,25,00,236,*78

3:07:09:592 Nachm. 03/28/17 - $GLGSV,3,1,09,82,35,052,25,73,69,030,28,80,26,075,23,65,15,338,23*61

3:07:09:593 Nachm. 03/28/17 - $GLGSV,3,2,09,83,29,118,16,81,07,008,13,72,41,291,19,74,35,281,*6A

3:07:09:593 Nachm. 03/28/17 - $GLGSV,3,3,09,71,29,226,*57

3:07:09:593 Nachm. 03/28/17 - $GPGGA,130705.0,5208.363143,N,01138.498751,E,1,07,0.9,90.3,M,45.0,M,,*6B

3:07:09:593 Nachm. 03/28/17 - $GNGNS,130705.0,5208.363143,N,01138.498751,E,AA,11,0.9,90.3,45.0,,*58

3:07:09:596 Nachm. 03/28/17 - $GPVTG,121.5,T,121.1,M,0.0,N,0.0,K,A*27

3:07:09:601 Nachm. 03/28/17 - $GPRMC,130705.0,A,5208.363143,N,01138.498751,E,0.0,121.5,280317,0.4,E,A*0B

3:07:09:602 Nachm. 03/28/17 - $GPGSA,A,2,10,12,15,17,19,24,28,,,,,,1.2,0.9,0.8*35

3:07:09:602 Nachm. 03/28/17 - $GNGSA,A,2,10,12,15,17,19,24,28,,,,,,1.2,0.9,0.8*2B

3:07:09:602 Nachm. 03/28/17 - $GNGSA,A,2,72,73,82,83,,,,,,,,,1.2,0.9,0.8*2F

3:07:10:583 Nachm. 03/28/17 - $GPGSV,3,1,12,01,05,019,15,10,17,299,28,12,40,230,19,15,45,194,14*7D

3:07:10:583 Nachm. 03/28/17 - $GPGSV,3,2,12,17,41,070,27,19,45,102,14,24,70,286,29,28,09,054,15*75

3:07:10:583 Nachm. 03/28/17 - $GPGSV,3,3,12,32,05,322,12,13,22,158,,18,14,271,,25,00,236,*78

3:07:10:583 Nachm. 03/28/17 - $GLGSV,3,1,09,74,35,281,12,82,35,052,23,73,69,030,28,80,26,075,24*63

3:07:10:585 Nachm. 03/28/17 - $GLGSV,3,2,09,65,15,338,23,83,29,118,16,81,07,008,13,72,41,291,16*65

3:07:10:586 Nachm. 03/28/17 - $GLGSV,3,3,09,71,29,226,*57

3:07:10:586 Nachm. 03/28/17 - $GPGGA,130706.0,5208.363216,N,01138.498746,E,1,07,0.9,90.4,M,45.0,M,,*6A

3:07:10:588 Nachm. 03/28/17 - $GNGNS,130706.0,5208.363216,N,01138.498746,E,AA,12,0.9,90.4,45.0,,*5A

3:07:10:591 Nachm. 03/28/17 - $GPVTG,121.5,T,121.1,M,0.0,N,0.0,K,A*27

3:07:10:597 Nachm. 03/28/17 - $GPRMC,130706.0,A,5208.363216,N,01138.498746,E,0.0,121.5,280317,0.4,E,A*0D

3:07:10:597 Nachm. 03/28/17 - $GPGSA,A,2,10,12,15,17,19,24,28,,,,,,1.2,0.9,0.8*35

3:07:10:598 Nachm. 03/28/17 - $GNGSA,A,2,10,12,15,17,19,24,28,,,,,,1.2,0.9,0.8*2B

3:07:10:598 Nachm. 03/28/17 - $GNGSA,A,2,72,73,74,82,83,,,,,,,,1.2,0.9,0.8*2C

3:07:11:583 Nachm. 03/28/17 - $GPGSV,3,1,12,01,05,019,15,10,17,299,27,12,40,230,20,15,45,194,14*78

3:07:11:584 Nachm. 03/28/17 - $GPGSV,3,2,12,17,41,070,28,19,45,102,14,24,70,286,31,28,09,054,15*73

3:07:11:585 Nachm. 03/28/17 - $GPGSV,3,3,12,32,06,320,12,13,22,158,,18,14,271,,25,00,236,*79

3:07:11:592 Nachm. 03/28/17 - $GLGSV,3,1,09,74,35,281,14,82,35,052,26,73,69,030,28,80,26,075,26*62

3:07:11:594 Nachm. 03/28/17 - $GLGSV,3,2,09,65,15,338,25,83,29,118,16,81,07,008,13,72,41,291,17*62

3:07:11:595 Nachm. 03/28/17 - $GLGSV,3,3,09,71,29,226,*57

3:07:11:596 Nachm. 03/28/17 - $GPGGA,130707.0,5208.363284,N,01138.498747,E,1,07,0.9,90.5,M,45.0,M,,*60

3:07:11:596 Nachm. 03/28/17 - $GNGNS,130707.0,5208.363284,N,01138.498747,E,AA,12,0.9,90.5,45.0,,*50

3:07:11:597 Nachm. 03/28/17 - $GPVTG,121.5,T,121.1,M,0.0,N,0.0,K,A*27

3:07:11:598 Nachm. 03/28/17 - $GPRMC,130707.0,A,5208.363284,N,01138.498747,E,0.0,121.5,280317,0.4,E,A*06

3:07:11:598 Nachm. 03/28/17 - $GPGSA,A,2,10,12,15,17,19,24,28,,,,,,1.2,0.9,0.8*35

3:07:11:599 Nachm. 03/28/17 - $GNGSA,A,2,10,12,15,17,19,24,28,,,,,,1.2,0.9,0.8*2B

3:07:11:599 Nachm. 03/28/17 - $GNGSA,A,2,72,73,74,82,83,,,,,,,,1.2,0.9,0.8*2C

3:07:12:584 Nachm. 03/28/17 - $GPGSV,3,1,12,01,05,019,15,10,17,299,28,12,40,230,20,15,45,194,14*77

3:07:12:584 Nachm. 03/28/17 - $GPGSV,3,2,12,17,41,070,28,19,45,102,14,24,70,286,31,28,09,054,15*73

3:07:12:584 Nachm. 03/28/17 - $GPGSV,3,3,12,32,06,320,12,13,22,158,,18,14,271,,25,00,236,*79

3:07:12:585 Nachm. 03/28/17 - $GLGSV,3,1,09,74,35,281,14,82,35,052,26,73,69,030,29,80,26,075,27*62

3:07:12:593 Nachm. 03/28/17 - $GLGSV,3,2,09,65,15,338,24,83,29,118,16,81,07,008,13,72,41,291,18*6C

3:07:12:597 Nachm. 03/28/17 - $GLGSV,3,3,09,71,29,226,*57

3:07:12:598 Nachm. 03/28/17 - $GPGGA,130708.0,5208.363339,N,01138.498753,E,1,07,0.9,90.5,M,45.0,M,,*6D

3:07:12:610 Nachm. 03/28/17 - $GNGNS,130708.0,5208.363339,N,01138.498753,E,AA,12,0.9,90.5,45.0,,*5D

3:07:12:615 Nachm. 03/28/17 - $GPVTG,121.5,T,121.1,M,0.0,N,0.0,K,A*27

3:07:12:615 Nachm. 03/28/17 - $GPRMC,130708.0,A,5208.363339,N,01138.498753,E,0.0,121.5,280317,0.4,E,A*0B

3:07:12:616 Nachm. 03/28/17 - $GPGSA,A,2,10,12,15,17,19,24,28,,,,,,1.2,0.9,0.8*35

3:07:12:616 Nachm. 03/28/17 - $GNGSA,A,2,10,12,15,17,19,24,28,,,,,,1.2,0.9,0.8*2B

3:07:12:616 Nachm. 03/28/17 - $GNGSA,A,2,72,73,74,82,83,,,,,,,,1.2,0.9,0.8*2C

3:07:13:584 Nachm. 03/28/17 - $GPGSV,3,1,12,01,05,019,15,10,17,299,26,12,40,230,18,15,45,194,14*72

3:07:13:585 Nachm. 03/28/17 - $GPGSV,3,2,12,17,41,070,29,19,45,102,14,24,70,286,30,28,09,054,15*73

3:07:13:585 Nachm. 03/28/17 - $GPGSV,3,3,12,32,06,320,12,13,22,158,,18,14,271,,25,00,236,*79

3:07:13:591 Nachm. 03/28/17 - $GLGSV,3,1,09,74,35,281,14,82,35,052,26,73,69,030,27,80,26,075,27*6C

3:07:13:592 Nachm. 03/28/17 - $GLGSV,3,2,09,65,15,338,26,83,29,118,18,81,07,008,13,72,41,291,16*6E

3:07:13:593 Nachm. 03/28/17 - $GLGSV,3,3,09,71,29,226,*57

3:07:13:593 Nachm. 03/28/17 - $GPGGA,130709.0,5208.363546,N,01138.498727,E,1,07,0.9,90.8,M,45.0,M,,*6C

3:07:13:598 Nachm. 03/28/17 - $GNGNS,130709.0,5208.363546,N,01138.498727,E,AA,12,0.9,90.8,45.0,,*5C

3:07:13:598 Nachm. 03/28/17 - $GPVTG,121.5,T,121.1,M,0.0,N,0.0,K,A*27

3:07:13:599 Nachm. 03/28/17 - $GPRMC,130709.0,A,5208.363546,N,01138.498727,E,0.0,121.5,280317,0.4,E,A*07

3:07:13:600 Nachm. 03/28/17 - $GPGSA,A,2,10,12,15,17,19,24,28,,,,,,1.2,0.9,0.8*35

3:07:13:601 Nachm. 03/28/17 - $GNGSA,A,2,10,12,15,17,19,24,28,,,,,,1.2,0.9,0.8*2B

3:07:13:602 Nachm. 03/28/17 - $GNGSA,A,2,72,73,74,82,83,,,,,,,,1.2,0.9,0.8*2C

3:07:14:582 Nachm. 03/28/17 - $GPGSV,3,1,12,01,05,019,15,10,17,299,29,12,40,230,21,15,45,194,14*77

3:07:14:583 Nachm. 03/28/17 - $GPGSV,3,2,12,17,41,070,29,19,45,102,14,24,70,286,30,28,09,054,15*73

3:07:14:583 Nachm. 03/28/17 - $GPGSV,3,3,12,32,06,320,12,13,22,158,,18,14,271,,25,00,236,*79

3:07:14:583 Nachm. 03/28/17 - $GLGSV,3,1,09,74,35,281,16,82,35,052,27,73,69,030,26,80,26,075,28*61

3:07:14:590 Nachm. 03/28/17 - $GLGSV,3,2,09,65,15,338,27,83,29,118,18,81,07,008,13,71,29,226,12*6A

3:07:14:597 Nachm. 03/28/17 - $GLGSV,3,3,09,72,41,291,16*51

3:07:14:597 Nachm. 03/28/17 - $GPGGA,130710.0,5208.363587,N,01138.498738,E,1,06,0.9,90.8,M,45.0,M,,*66

3:07:14:598 Nachm. 03/28/17 - $GNGNS,130710.0,5208.363587,N,01138.498738,E,AA,12,0.9,90.8,45.0,,*57

3:07:14:598 Nachm. 03/28/17 - $GPVTG,121.5,T,121.1,M,0.0,N,0.0,K,A*27

3:07:14:599 Nachm. 03/28/17 - $GPRMC,130710.0,A,5208.363587,N,01138.498738,E,0.0,121.5,280317,0.4,E,A*0C

3:07:14:599 Nachm. 03/28/17 - $GPGSA,A,2,10,12,15,17,19,24,,,,,,,1.2,0.9,0.9*3E

3:07:14:600 Nachm. 03/28/17 - $GNGSA,A,2,10,12,15,17,19,24,,,,,,,1.2,0.9,0.9*20

3:07:14:600 Nachm. 03/28/17 - $GNGSA,A,2,71,72,73,74,82,83,,,,,,,1.2,0.9,0.9*2B

3:07:15:583 Nachm. 03/28/17 - $GPGSV,3,1,12,01,05,019,15,10,17,299,29,12,40,230,19,15,45,194,14*7C

3:07:15:583 Nachm. 03/28/17 - $GPGSV,3,2,12,17,41,070,29,19,45,102,14,24,70,286,29,28,09,054,15*7B

3:07:15:587 Nachm. 03/28/17 - $GPGSV,3,3,12,32,06,320,12,13,22,158,,18,14,271,,25,00,236,*79

3:07:15:589 Nachm. 03/28/17 - $GLGSV,3,1,09,74,35,281,16,82,35,052,27,73,69,030,24,80,26,075,27*6C

3:07:15:589 Nachm. 03/28/17 - $GLGSV,3,2,09,65,15,338,27,83,29,118,18,81,07,008,12,71,29,226,13*6A

3:07:15:590 Nachm. 03/28/17 - $GLGSV,3,3,09,72,41,291,16*51

3:07:15:590 Nachm. 03/28/17 - $GPGGA,130711.0,5208.363592,N,01138.498747,E,1,04,1.0,90.9,M,45.0,M,,*60

3:07:15:590 Nachm. 03/28/17 - $GNGNS,130711.0,5208.363592,N,01138.498747,E,AA,10,1.0,90.9,45.0,,*51

3:07:15:590 Nachm. 03/28/17 - $GPVTG,121.5,T,121.1,M,0.0,N,0.0,K,A*27

3:07:15:590 Nachm. 03/28/17 - $GPRMC,130711.0,A,5208.363592,N,01138.498747,E,0.0,121.5,280317,0.4,E,A*01

3:07:15:591 Nachm. 03/28/17 - $GPGSA,A,2,10,12,17,24,,,,,,,,,1.3,1.0,0.9*3B

3:07:15:591 Nachm. 03/28/17 - $GNGSA,A,2,10,12,17,24,,,,,,,,,1.3,1.0,0.9*25

3:07:15:591 Nachm. 03/28/17 - $GNGSA,A,2,71,72,73,74,82,83,,,,,,,1.3,1.0,0.9*22

3:07:16:586 Nachm. 03/28/17 - $GPGSV,3,1,12,01,05,019,15,10,17,299,30,12,40,230,19,17,41,070,31*7E

3:07:16:591 Nachm. 03/28/17 - $GPGSV,3,2,12,19,45,102,14,24,70,286,27,28,09,054,15,32,06,320,12*7F

3:07:16:591 Nachm. 03/28/17 - $GPGSV,3,3,12,13,22,158,,15,45,194,,18,14,271,,25,00,236,*75

3:07:16:593 Nachm. 03/28/17 - $GLGSV,3,1,09,74,35,281,16,82,35,052,29,73,69,030,21,80,26,075,24*64

3:07:16:593 Nachm. 03/28/17 - $GLGSV,3,2,09,65,15,338,18,83,29,118,18,81,07,008,20,71,29,226,13*67

3:07:16:593 Nachm. 03/28/17 - $GLGSV,3,3,09,72,41,291,21*55

3:07:16:594 Nachm. 03/28/17 - $GPGGA,130712.0,5208.363587,N,01138.498756,E,1,04,1.0,90.9,M,45.0,M,,*67

3:07:16:594 Nachm. 03/28/17 - $GNGNS,130712.0,5208.363587,N,01138.498756,E,AA,10,1.0,90.9,45.0,,*56

3:07:16:599 Nachm. 03/28/17 - $GPVTG,121.5,T,121.1,M,0.0,N,0.0,K,A*27

3:07:16:608 Nachm. 03/28/17 - $GPRMC,130712.0,A,5208.363587,N,01138.498756,E,0.0,121.5,280317,0.4,E,A*06

3:07:16:609 Nachm. 03/28/17 - $GPGSA,A,2,10,12,17,24,,,,,,,,,1.3,1.0,0.9*3B

3:07:16:609 Nachm. 03/28/17 - $GNGSA,A,2,10,12,17,24,,,,,,,,,1.3,1.0,0.9*25

3:07:16:610 Nachm. 03/28/17 - $GNGSA,A,2,71,72,73,74,82,83,,,,,,,1.3,1.0,0.9*22


