3:10:28:585 Nachm. 03/28/17 - $GPGSV,3,1,12,01,05,018,16,10,17,296,24,12,42,232,14,17,40,068,22*71

3:10:28:586 Nachm. 03/28/17 - $GPGSV,3,2,12,18,13,270,19,19,45,099,26,24,72,286,33,28,08,056,21*7D

3:10:28:589 Nachm. 03/28/17 - $GPGSV,3,3,12,32,07,320,19,13,20,158,,15,42,192,,25,02,237,*72

3:10:28:590 Nachm. 03/28/17 - $GLGSV,3,1,09,74,36,282,22,82,35,049,26,73,68,036,27,80,24,077,19*69

3:10:28:591 Nachm. 03/28/17 - $GLGSV,3,2,09,65,16,337,27,83,31,116,21,81,05,008,17,72,40,288,22*66

3:10:28:607 Nachm. 03/28/17 - $GLGSV,3,3,09,71,27,224,*5B

3:10:28:608 Nachm. 03/28/17 - $GPGGA,131024.0,5208.347551,N,01138.615994,E,1,07,1.0,55.3,M,45.0,M,,*6E

3:10:28:608 Nachm. 03/28/17 - $GNGNS,131024.0,5208.347551,N,01138.615994,E,AA,12,1.0,55.3,45.0,,*5E

3:10:28:608 Nachm. 03/28/17 - $GPVTG,121.5,T,121.1,M,0.0,N,0.0,K,A*27

3:10:28:608 Nachm. 03/28/17 - $GPRMC,131024.0,A,5208.347551,N,01138.615994,E,0.0,121.5,280317,0.4,E,A*0F

3:10:28:609 Nachm. 03/28/17 - $GPGSA,A,2,10,12,17,18,19,24,28,,,,,,1.3,1.0,0.8*31

3:10:28:609 Nachm. 03/28/17 - $GNGSA,A,2,10,12,17,18,19,24,28,,,,,,1.3,1.0,0.8*2F

3:10:28:609 Nachm. 03/28/17 - $GNGSA,A,2,72,73,74,82,83,,,,,,,,1.3,1.0,0.8*25

3:10:29:584 Nachm. 03/28/17 - $GPGSV,3,1,12,01,05,018,16,10,17,296,27,12,42,232,14,17,40,068,25*75

3:10:29:586 Nachm. 03/28/17 - $GPGSV,3,2,12,18,13,270,17,19,45,099,19,24,72,286,27,28,08,056,19*71

3:10:29:586 Nachm. 03/28/17 - $GPGSV,3,3,12,32,07,320,19,13,20,158,,15,42,192,,25,02,237,*72

3:10:29:586 Nachm. 03/28/17 - $GLGSV,3,1,09,74,36,282,23,82,35,049,28,73,68,036,22,80,24,077,19*63

3:10:29:586 Nachm. 03/28/17 - $GLGSV,3,2,09,65,16,337,30,83,31,116,21,81,05,008,17,72,40,288,25*67

3:10:29:591 Nachm. 03/28/17 - $GLGSV,3,3,09,71,27,224,*5B

3:10:29:591 Nachm. 03/28/17 - $GPGGA,131025.0,5208.347155,N,01138.616418,E,1,07,1.0,55.8,M,45.0,M,,*6E

3:10:29:594 Nachm. 03/28/17 - $GNGNS,131025.0,5208.347155,N,01138.616418,E,AA,12,1.0,55.8,45.0,,*5E

3:10:29:594 Nachm. 03/28/17 - $GPVTG,121.5,T,121.1,M,0.0,N,0.0,K,A*27

3:10:29:594 Nachm. 03/28/17 - $GPRMC,131025.0,A,5208.347155,N,01138.616418,E,0.0,121.5,280317,0.4,E,A*04

3:10:29:595 Nachm. 03/28/17 - $GPGSA,A,2,10,12,17,18,19,24,28,,,,,,1.3,1.0,0.8*31

3:10:29:595 Nachm. 03/28/17 - $GNGSA,A,2,10,12,17,18,19,24,28,,,,,,1.3,1.0,0.8*2F

3:10:29:595 Nachm. 03/28/17 - $GNGSA,A,2,72,73,74,82,83,,,,,,,,1.3,1.0,0.8*25

3:10:30:583 Nachm. 03/28/17 - $GPGSV,3,1,12,01,05,018,16,10,17,296,26,12,42,232,14,17,40,068,25*74

3:10:30:583 Nachm. 03/28/17 - $GPGSV,3,2,12,18,13,270,17,19,45,099,21,24,72,286,27,28,08,056,18*7B

3:10:30:584 Nachm. 03/28/17 - $GPGSV,3,3,12,32,07,320,16,13,20,158,,15,42,192,,25,02,237,*7D

3:10:30:585 Nachm. 03/28/17 - $GLGSV,3,1,09,74,36,282,17,82,35,049,25,73,68,036,22,80,24,077,19*69

3:10:30:586 Nachm. 03/28/17 - $GLGSV,3,2,09,65,16,337,28,83,31,116,21,81,05,008,18,72,40,288,23*67

3:10:30:588 Nachm. 03/28/17 - $GLGSV,3,3,09,71,27,224,*5B

3:10:30:590 Nachm. 03/28/17 - $GPGGA,131026.0,5208.347273,N,01138.616891,E,1,07,1.0,56.7,M,45.0,M,,*6B

3:10:30:591 Nachm. 03/28/17 - $GNGNS,131026.0,5208.347273,N,01138.616891,E,AA,12,1.0,56.7,45.0,,*5B

3:10:30:591 Nachm. 03/28/17 - $GPVTG,121.5,T,121.1,M,0.0,N,0.0,K,A*27

3:10:30:591 Nachm. 03/28/17 - $GPRMC,131026.0,A,5208.347273,N,01138.616891,E,0.0,121.5,280317,0.4,E,A*0D

3:10:30:591 Nachm. 03/28/17 - $GPGSA,A,2,10,12,17,18,19,24,28,,,,,,1.3,1.0,0.8*31

3:10:30:591 Nachm. 03/28/17 - $GNGSA,A,2,10,12,17,18,19,24,28,,,,,,1.3,1.0,0.8*2F

3:10:30:596 Nachm. 03/28/17 - $GNGSA,A,2,72,73,74,82,83,,,,,,,,1.3,1.0,0.8*25

3:10:31:586 Nachm. 03/28/17 - $GPGSV,3,1,12,01,05,018,16,10,17,296,25,12,42,232,14,17,40,068,25*77

3:10:31:590 Nachm. 03/28/17 - $GPGSV,3,2,12,18,13,270,18,19,45,099,20,24,72,286,27,28,08,056,18*75

3:10:31:594 Nachm. 03/28/17 - $GPGSV,3,3,12,32,07,320,16,13,20,158,,15,42,192,,25,02,237,*7D

3:10:31:598 Nachm. 03/28/17 - $GLGSV,3,1,09,74,36,282,17,82,35,049,24,73,68,036,21,80,24,077,19*6B

3:10:31:601 Nachm. 03/28/17 - $GLGSV,3,2,09,65,16,337,28,83,31,116,14,81,05,008,18,72,40,288,22*60

3:10:31:602 Nachm. 03/28/17 - $GLGSV,3,3,09,71,27,224,*5B

3:10:31:603 Nachm. 03/28/17 - $GPGGA,131027.0,5208.347184,N,01138.617082,E,1,07,1.0,57.0,M,45.0,M,,*6C

3:10:31:604 Nachm. 03/28/17 - $GNGNS,131027.0,5208.347184,N,01138.617082,E,AA,12,1.0,57.0,45.0,,*5C

3:10:31:614 Nachm. 03/28/17 - $GPVTG,121.5,T,121.1,M,0.0,N,0.0,K,A*27

3:10:31:614 Nachm. 03/28/17 - $GPRMC,131027.0,A,5208.347184,N,01138.617082,E,0.0,121.5,280317,0.4,E,A*0C

3:10:31:615 Nachm. 03/28/17 - $GPGSA,A,2,10,12,17,18,19,24,28,,,,,,1.3,1.0,0.8*31

3:10:31:615 Nachm. 03/28/17 - $GNGSA,A,2,10,12,17,18,19,24,28,,,,,,1.3,1.0,0.8*2F

3:10:31:616 Nachm. 03/28/17 - $GNGSA,A,2,72,73,74,82,83,,,,,,,,1.3,1.0,0.8*25

3:10:32:585 Nachm. 03/28/17 - $GPGSV,3,1,12,01,05,018,16,10,17,296,24,12,42,232,14,17,40,068,24*77

3:10:32:586 Nachm. 03/28/17 - $GPGSV,3,2,12,18,13,270,19,19,45,099,20,24,72,286,27,28,08,056,17*7B

3:10:32:590 Nachm. 03/28/17 - $GPGSV,3,3,12,32,07,320,16,13,20,158,,15,42,192,,25,02,237,*7D

3:10:32:590 Nachm. 03/28/17 - $GLGSV,3,1,09,74,36,282,16,82,35,049,24,73,68,036,20,80,24,077,13*61

3:10:32:600 Nachm. 03/28/17 - $GLGSV,3,2,09,65,16,337,28,83,31,116,17,81,05,008,22,72,40,288,23*6B

3:10:32:604 Nachm. 03/28/17 - $GLGSV,3,3,09,71,27,224,*5B

3:10:32:605 Nachm. 03/28/17 - $GPGGA,131028.0,5208.347122,N,01138.617264,E,1,07,1.0,57.4,M,45.0,M,,*61

3:10:32:606 Nachm. 03/28/17 - $GNGNS,131028.0,5208.347122,N,01138.617264,E,AA,12,1.0,57.4,45.0,,*51

3:10:32:606 Nachm. 03/28/17 - $GPVTG,121.5,T,121.1,M,0.0,N,0.0,K,A*27

3:10:32:607 Nachm. 03/28/17 - $GPRMC,131028.0,A,5208.347122,N,01138.617264,E,0.0,121.5,280317,0.4,E,A*05

3:10:32:607 Nachm. 03/28/17 - $GPGSA,A,2,10,12,17,18,19,24,28,,,,,,1.3,1.0,0.8*31

3:10:32:607 Nachm. 03/28/17 - $GNGSA,A,2,10,12,17,18,19,24,28,,,,,,1.3,1.0,0.8*2F

3:10:32:608 Nachm. 03/28/17 - $GNGSA,A,2,72,73,74,82,83,,,,,,,,1.3,1.0,0.8*25

3:10:33:584 Nachm. 03/28/17 - $GPGSV,3,1,12,01,05,018,16,10,17,296,24,12,42,232,14,17,40,068,25*76

3:10:33:585 Nachm. 03/28/17 - $GPGSV,3,2,12,18,13,270,21,19,45,099,23,24,72,286,28,28,08,056,19*72

3:10:33:597 Nachm. 03/28/17 - $GPGSV,3,3,12,32,07,320,18,13,20,158,,15,42,192,,25,02,237,*73

3:10:33:600 Nachm. 03/28/17 - $GLGSV,3,1,09,74,36,282,17,82,35,049,25,73,68,036,20,80,24,077,13*61

3:10:33:608 Nachm. 03/28/17 - $GLGSV,3,2,09,65,16,337,27,83,31,116,20,81,05,008,22,72,40,288,23*60

3:10:33:609 Nachm. 03/28/17 - $GLGSV,3,3,09,71,27,224,*5B

3:10:33:611 Nachm. 03/28/17 - $GPGGA,131029.0,5208.347065,N,01138.617420,E,1,07,1.0,57.6,M,45.0,M,,*66

3:10:33:612 Nachm. 03/28/17 - $GNGNS,131029.0,5208.347065,N,01138.617420,E,AA,12,1.0,57.6,45.0,,*56

3:10:33:614 Nachm. 03/28/17 - $GPVTG,121.5,T,121.1,M,0.0,N,0.0,K,A*27

3:10:33:615 Nachm. 03/28/17 - $GPRMC,131029.0,A,5208.347065,N,01138.617420,E,0.0,121.5,280317,0.4,E,A*00

3:10:33:616 Nachm. 03/28/17 - $GPGSA,A,2,10,12,17,18,19,24,28,,,,,,1.3,1.0,0.8*31

3:10:33:617 Nachm. 03/28/17 - $GNGSA,A,2,10,12,17,18,19,24,28,,,,,,1.3,1.0,0.8*2F

3:10:33:618 Nachm. 03/28/17 - $GNGSA,A,2,72,73,74,82,83,,,,,,,,1.3,1.0,0.8*25

3:10:34:586 Nachm. 03/28/17 - $GPGSV,3,1,12,01,05,018,16,10,17,296,22,12,42,232,14,17,40,068,20*75

3:10:34:588 Nachm. 03/28/17 - $GPGSV,3,2,12,18,13,270,18,19,45,099,20,24,72,286,29,28,08,056,19*7A

3:10:34:593 Nachm. 03/28/17 - $GPGSV,3,3,12,32,07,320,18,13,20,158,,15,42,192,,25,02,237,*73

3:10:34:594 Nachm. 03/28/17 - $GLGSV,3,1,09,74,36,282,17,82,35,049,30,73,68,036,19,80,24,077,13*6F

3:10:34:595 Nachm. 03/28/17 - $GLGSV,3,2,09,65,16,337,28,83,31,116,18,81,05,008,21,72,40,288,30*65

3:10:34:601 Nachm. 03/28/17 - $GLGSV,3,3,09,71,27,224,*5B

3:10:34:602 Nachm. 03/28/17 - $GPGGA,131030.0,5208.347116,N,01138.617484,E,1,07,1.0,57.7,M,45.0,M,,*64

3:10:34:602 Nachm. 03/28/17 - $GNGNS,131030.0,5208.347116,N,01138.617484,E,AA,12,1.0,57.7,45.0,,*54

3:10:34:603 Nachm. 03/28/17 - $GPVTG,121.5,T,121.1,M,0.0,N,0.0,K,A*27

3:10:34:603 Nachm. 03/28/17 - $GPRMC,131030.0,A,5208.347116,N,01138.617484,E,0.0,121.5,280317,0.4,E,A*03

3:10:34:603 Nachm. 03/28/17 - $GPGSA,A,2,10,12,17,18,19,24,28,,,,,,1.3,1.0,0.8*31

3:10:34:604 Nachm. 03/28/17 - $GNGSA,A,2,10,12,17,18,19,24,28,,,,,,1.3,1.0,0.8*2F

3:10:34:604 Nachm. 03/28/17 - $GNGSA,A,2,72,73,74,82,83,,,,,,,,1.3,1.0,0.8*25

3:10:35:584 Nachm. 03/28/17 - $GPGSV,3,1,12,01,05,018,16,10,17,296,26,12,42,232,17,17,40,068,19*78

3:10:35:588 Nachm. 03/28/17 - $GPGSV,3,2,12,18,13,270,18,19,45,099,17,24,72,286,28,28,08,056,16*70

3:10:35:590 Nachm. 03/28/17 - $GPGSV,3,3,12,32,07,320,18,13,20,158,,15,42,192,,25,02,237,*73

3:10:35:591 Nachm. 03/28/17 - $GLGSV,3,1,09,74,36,282,24,82,35,049,26,73,68,036,19,80,24,077,15*6E

3:10:35:603 Nachm. 03/28/17 - $GLGSV,3,2,09,65,16,337,26,83,31,116,18,81,05,008,22,72,40,288,25*6C

3:10:35:603 Nachm. 03/28/17 - $GLGSV,3,3,09,71,27,224,*5B

3:10:35:603 Nachm. 03/28/17 - $GPGGA,131031.0,5208.347167,N,01138.617481,E,1,07,1.0,57.8,M,45.0,M,,*69

3:10:35:604 Nachm. 03/28/17 - $GNGNS,131031.0,5208.347167,N,01138.617481,E,AA,12,1.0,57.8,45.0,,*59

3:10:35:604 Nachm. 03/28/17 - $GPVTG,121.5,T,121.1,M,0.0,N,0.0,K,A*27

3:10:35:604 Nachm. 03/28/17 - $GPRMC,131031.0,A,5208.347167,N,01138.617481,E,0.0,121.5,280317,0.4,E,A*01

3:10:35:604 Nachm. 03/28/17 - $GPGSA,A,2,10,12,17,18,19,24,28,,,,,,1.3,1.0,0.8*31

3:10:35:604 Nachm. 03/28/17 - $GNGSA,A,2,10,12,17,18,19,24,28,,,,,,1.3,1.0,0.8*2F

3:10:35:605 Nachm. 03/28/17 - $GNGSA,A,2,72,73,74,82,83,,,,,,,,1.3,1.0,0.8*25

3:10:36:583 Nachm. 03/28/17 - $GPGSV,3,1,12,01,05,018,16,10,17,296,32,12,42,232,17,17,40,068,23*74

3:10:36:584 Nachm. 03/28/17 - $GPGSV,3,2,12,18,13,270,21,19,45,099,21,24,72,286,28,28,08,056,22*78

3:10:36:584 Nachm. 03/28/17 - $GPGSV,3,3,12,32,07,320,16,13,20,158,,15,42,192,,25,02,237,*7D

3:10:36:585 Nachm. 03/28/17 - $GLGSV,3,1,09,74,36,282,30,82,35,049,26,73,68,036,18,80,24,077,15*6A

3:10:36:585 Nachm. 03/28/17 - $GLGSV,3,2,09,65,16,337,27,83,31,116,18,81,05,008,21,72,40,288,22*69

3:10:36:589 Nachm. 03/28/17 - $GLGSV,3,3,09,71,27,224,*5B

3:10:36:589 Nachm. 03/28/17 - $GPGGA,131032.0,5208.347177,N,01138.617465,E,1,07,1.0,57.8,M,45.0,M,,*61

3:10:36:590 Nachm. 03/28/17 - $GNGNS,131032.0,5208.347177,N,01138.617465,E,AA,12,1.0,57.8,45.0,,*51

3:10:36:590 Nachm. 03/28/17 - $GPVTG,121.5,T,121.1,M,0.0,N,0.0,K,A*27

3:10:36:590 Nachm. 03/28/17 - $GPRMC,131032.0,A,5208.347177,N,01138.617465,E,0.0,121.5,280317,0.4,E,A*09

3:10:36:591 Nachm. 03/28/17 - $GPGSA,A,2,10,12,17,18,19,24,28,,,,,,1.3,1.0,0.8*31

3:10:36:591 Nachm. 03/28/17 - $GNGSA,A,2,10,12,17,18,19,24,28,,,,,,1.3,1.0,0.8*2F

3:10:36:591 Nachm. 03/28/17 - $GNGSA,A,2,72,73,74,82,83,,,,,,,,1.3,1.0,0.8*25

3:10:37:582 Nachm. 03/28/17 - $GPGSV,3,1,12,01,05,018,16,10,17,296,32,12,42,232,17,17,40,068,23*74

3:10:37:585 Nachm. 03/28/17 - $GPGSV,3,2,12,18,13,270,21,19,45,099,19,24,72,286,29,28,08,056,21*71

3:10:37:588 Nachm. 03/28/17 - $GPGSV,3,3,12,32,07,320,19,13,20,158,,15,42,192,,25,02,237,*72

3:10:37:607 Nachm. 03/28/17 - $GLGSV,3,1,09,74,36,282,31,82,35,049,26,73,68,036,19,80,24,077,15*6A

3:10:37:610 Nachm. 03/28/17 - $GLGSV,3,2,09,65,16,337,27,83,31,116,18,81,05,008,20,72,40,288,22*68

3:10:37:612 Nachm. 03/28/17 - $GLGSV,3,3,09,71,27,224,*5B

3:10:37:613 Nachm. 03/28/17 - $GPGGA,131033.0,5208.347185,N,01138.617456,E,1,07,1.0,57.8,M,45.0,M,,*6D

3:10:37:614 Nachm. 03/28/17 - $GNGNS,131033.0,5208.347185,N,01138.617456,E,AA,12,1.0,57.8,45.0,,*5D

3:10:37:614 Nachm. 03/28/17 - $GPVTG,121.5,T,121.1,M,0.0,N,0.0,K,A*27

3:10:37:615 Nachm. 03/28/17 - $GPRMC,131033.0,A,5208.347185,N,01138.617456,E,0.0,121.5,280317,0.4,E,A*05

3:10:37:615 Nachm. 03/28/17 - $GPGSA,A,2,10,12,17,18,19,24,28,,,,,,1.3,1.0,0.8*31

3:10:37:616 Nachm. 03/28/17 - $GNGSA,A,2,10,12,17,18,19,24,28,,,,,,1.3,1.0,0.8*2F

3:10:37:616 Nachm. 03/28/17 - $GNGSA,A,2,72,73,74,82,83,,,,,,,,1.3,1.0,0.8*25

3:10:38:583 Nachm. 03/28/17 - $GPGSV,3,1,12,01,05,018,17,10,17,296,32,12,42,232,17,17,40,068,20*76

3:10:38:585 Nachm. 03/28/17 - $GPGSV,3,2,12,18,13,270,20,19,45,099,19,24,72,286,29,28,08,056,20*71

3:10:38:589 Nachm. 03/28/17 - $GPGSV,3,3,12,32,07,320,19,13,20,158,,15,42,192,,25,02,237,*72

3:10:38:591 Nachm. 03/28/17 - $GLGSV,3,1,09,74,36,282,30,82,35,049,28,73,68,036,20,80,24,077,15*6F

3:10:38:599 Nachm. 03/28/17 - $GLGSV,3,2,09,65,16,337,27,83,31,116,13,81,05,008,22,72,40,288,22*61

3:10:38:607 Nachm. 03/28/17 - $GLGSV,3,3,09,71,27,224,*5B

3:10:38:607 Nachm. 03/28/17 - $GPGGA,131034.0,5208.347138,N,01138.617463,E,1,07,0.9,57.8,M,45.0,M,,*62

3:10:38:608 Nachm. 03/28/17 - $GNGNS,131034.0,5208.347138,N,01138.617463,E,AA,13,0.9,57.8,45.0,,*53

3:10:38:608 Nachm. 03/28/17 - $GPVTG,121.5,T,121.1,M,0.0,N,0.0,K,A*27

3:10:38:608 Nachm. 03/28/17 - $GPRMC,131034.0,A,5208.347138,N,01138.617463,E,0.0,121.5,280317,0.4,E,A*02

3:10:38:608 Nachm. 03/28/17 - $GPGSA,A,2,10,12,17,18,19,24,28,,,,,,1.2,0.9,0.8*38

3:10:38:615 Nachm. 03/28/17 - $GNGSA,A,2,10,12,17,18,19,24,28,,,,,,1.2,0.9,0.8*26

3:10:38:615 Nachm. 03/28/17 - $GNGSA,A,2,65,72,73,74,82,83,,,,,,,1.2,0.9,0.8*2F

3:10:39:583 Nachm. 03/28/17 - $GPGSV,3,1,12,01,05,018,17,10,17,296,32,12,42,232,17,17,40,068,24*72

3:10:39:585 Nachm. 03/28/17 - $GPGSV,3,2,12,18,13,270,20,19,45,099,18,24,72,286,28,28,08,056,22*73

3:10:39:586 Nachm. 03/28/17 - $GPGSV,3,3,12,32,07,320,16,13,20,158,,15,42,192,,25,02,237,*7D

3:10:39:587 Nachm. 03/28/17 - $GLGSV,3,1,09,74,36,282,31,82,35,049,27,73,68,036,23,80,24,077,15*62

3:10:39:587 Nachm. 03/28/17 - $GLGSV,3,2,09,65,16,337,25,83,31,116,13,81,05,008,21,72,40,288,22*60

3:10:39:597 Nachm. 03/28/17 - $GLGSV,3,3,09,71,27,224,*5B

3:10:39:604 Nachm. 03/28/17 - $GPGGA,131035.0,5208.347108,N,01138.617456,E,1,07,0.9,57.8,M,45.0,M,,*66

3:10:39:604 Nachm. 03/28/17 - $GNGNS,131035.0,5208.347108,N,01138.617456,E,AA,13,0.9,57.8,45.0,,*57

3:10:39:604 Nachm. 03/28/17 - $GPVTG,121.5,T,121.1,M,0.0,N,0.0,K,A*27

3:10:39:605 Nachm. 03/28/17 - $GPRMC,131035.0,A,5208.347108,N,01138.617456,E,0.0,121.5,280317,0.4,E,A*06

3:10:39:605 Nachm. 03/28/17 - $GPGSA,A,2,10,12,17,18,19,24,28,,,,,,1.2,0.9,0.8*38

3:10:39:605 Nachm. 03/28/17 - $GNGSA,A,2,10,12,17,18,19,24,28,,,,,,1.2,0.9,0.8*26

3:10:39:605 Nachm. 03/28/17 - $GNGSA,A,2,65,72,73,74,82,83,,,,,,,1.2,0.9,0.8*2F

3:10:40:584 Nachm. 03/28/17 - $GPGSV,3,1,12,01,05,018,17,10,17,296,31,12,42,232,17,13,20,158,14*72

3:10:40:587 Nachm. 03/28/17 - $GPGSV,3,2,12,17,40,068,18,18,13,270,20,19,45,099,21,24,72,286,27*72

3:10:40:587 Nachm. 03/28/17 - $GPGSV,3,3,12,28,08,056,19,32,07,320,16,15,42,192,,25,02,237,*78

3:10:40:588 Nachm. 03/28/17 - $GLGSV,3,1,09,74,36,282,30,82,35,049,26,73,68,036,21,80,24,077,15*60

3:10:40:588 Nachm. 03/28/17 - $GLGSV,3,2,09,65,16,337,20,83,31,116,17,81,05,008,20,72,40,288,21*63

3:10:40:607 Nachm. 03/28/17 - $GLGSV,3,3,09,71,27,224,*5B

3:10:40:608 Nachm. 03/28/17 - $GPGGA,131036.0,5208.347101,N,01138.617470,E,1,08,0.8,57.8,M,45.0,M,,*66

3:10:40:609 Nachm. 03/28/17 - $GNGNS,131036.0,5208.347101,N,01138.617470,E,AA,14,0.8,57.8,45.0,,*5F

3:10:40:610 Nachm. 03/28/17 - $GPVTG,121.5,T,121.1,M,0.0,N,0.0,K,A*27

3:10:40:611 Nachm. 03/28/17 - $GPRMC,131036.0,A,5208.347101,N,01138.617470,E,0.0,121.5,280317,0.4,E,A*08

3:10:40:613 Nachm. 03/28/17 - $GPGSA,A,2,10,12,13,17,18,19,24,28,,,,,1.1,0.8,0.8*38

3:10:40:617 Nachm. 03/28/17 - $GNGSA,A,2,10,12,13,17,18,19,24,28,,,,,1.1,0.8,0.8*26

3:10:40:619 Nachm. 03/28/17 - $GNGSA,A,2,65,72,73,74,82,83,,,,,,,1.1,0.8,0.8*2D

3:10:41:586 Nachm. 03/28/17 - $GPGSV,3,1,12,01,05,018,17,10,17,296,30,12,42,232,17,13,20,158,13*74

3:10:41:587 Nachm. 03/28/17 - $GPGSV,3,2,12,15,42,192,17,17,40,068,19,18,13,270,17,19,45,099,22*70

3:10:41:592 Nachm. 03/28/17 - $GPGSV,3,3,12,24,72,286,28,28,08,056,21,32,07,320,18,25,02,237,*70

3:10:41:597 Nachm. 03/28/17 - $GLGSV,3,1,09,74,36,282,29,82,35,049,20,73,68,036,20,80,24,077,14*6E

3:10:41:605 Nachm. 03/28/17 - $GLGSV,3,2,09,65,16,337,25,83,31,116,24,81,05,008,19,72,40,288,23*6E

3:10:41:612 Nachm. 03/28/17 - $GLGSV,3,3,09,71,27,224,*5B

3:10:41:615 Nachm. 03/28/17 - $GPGGA,131037.0,5208.347087,N,01138.617484,E,1,09,0.7,57.9,M,45.0,M,,*6C

3:10:41:618 Nachm. 03/28/17 - $GNGNS,131037.0,5208.347087,N,01138.617484,E,AA,15,0.7,57.9,45.0,,*55

3:10:41:618 Nachm. 03/28/17 - $GPVTG,121.5,T,121.1,M,0.0,N,0.0,K,A*27

3:10:41:619 Nachm. 03/28/17 - $GPRMC,131037.0,A,5208.347087,N,01138.617484,E,0.0,121.5,280317,0.4,E,A*0D

3:10:41:620 Nachm. 03/28/17 - $GPGSA,A,2,10,12,13,15,17,18,19,24,28,,,,1.0,0.7,0.8*32

3:10:41:620 Nachm. 03/28/17 - $GNGSA,A,2,10,12,13,15,17,18,19,24,28,,,,1.0,0.7,0.8*2C

3:10:41:621 Nachm. 03/28/17 - $GNGSA,A,2,65,72,73,74,82,83,,,,,,,1.0,0.7,0.8*23

3:10:42:584 Nachm. 03/28/17 - $GPGSV,3,1,12,01,05,018,17,10,17,296,27,12,42,232,14,13,20,158,13*71

3:10:42:586 Nachm. 03/28/17 - $GPGSV,3,2,12,15,42,192,17,17,40,068,24,18,13,270,18,19,45,099,20*73

3:10:42:587 Nachm. 03/28/17 - $GPGSV,3,3,12,24,72,286,27,28,08,056,23,32,07,320,18,25,02,237,*7D

3:10:42:587 Nachm. 03/28/17 - $GLGSV,3,1,09,74,36,282,23,82,35,049,29,73,68,036,25,80,24,077,20*6F

3:10:42:587 Nachm. 03/28/17 - $GLGSV,3,2,09,65,16,337,22,83,31,116,28,81,05,008,18,72,40,288,17*63

3:10:42:590 Nachm. 03/28/17 - $GLGSV,3,3,09,71,27,224,*5B

3:10:42:593 Nachm. 03/28/17 - $GPGGA,131038.0,5208.347132,N,01138.617514,E,1,09,0.7,57.9,M,45.0,M,,*64

3:10:42:596 Nachm. 03/28/17 - $GNGNS,131038.0,5208.347132,N,01138.617514,E,AA,15,0.7,57.9,45.0,,*5D

3:10:42:597 Nachm. 03/28/17 - $GPVTG,121.5,T,121.1,M,0.0,N,0.0,K,A*27

3:10:42:597 Nachm. 03/28/17 - $GPRMC,131038.0,A,5208.347132,N,01138.617514,E,0.0,121.5,280317,0.4,E,A*05

3:10:42:597 Nachm. 03/28/17 - $GPGSA,A,2,10,12,13,15,17,18,19,24,28,,,,1.0,0.7,0.8*32

3:10:42:597 Nachm. 03/28/17 - $GNGSA,A,2,10,12,13,15,17,18,19,24,28,,,,1.0,0.7,0.8*2C

3:10:42:598 Nachm. 03/28/17 - $GNGSA,A,2,65,72,73,74,82,83,,,,,,,1.0,0.7,0.8*23

3:10:43:584 Nachm. 03/28/17 - $GPGSV,3,1,12,01,05,018,14,10,17,296,21,12,42,232,14,13,20,158,12*75

3:10:43:586 Nachm. 03/28/17 - $GPGSV,3,2,12,15,42,192,16,17,40,068,29,18,13,270,22,19,45,099,22*74

3:10:43:587 Nachm. 03/28/17 - $GPGSV,3,3,12,24,72,286,27,28,08,056,25,32,07,320,19,25,02,237,*7A

3:10:43:595 Nachm. 03/28/17 - $GLGSV,3,1,09,74,36,282,19,82,35,049,31,73,68,036,20,80,24,077,24*6E

3:10:43:599 Nachm. 03/28/17 - $GLGSV,3,2,09,65,16,337,18,83,31,116,25,81,05,008,18,72,40,288,24*67

3:10:43:603 Nachm. 03/28/17 - $GLGSV,3,3,09,71,27,224,*5B

3:10:43:606 Nachm. 03/28/17 - $GPGGA,131039.0,5208.347138,N,01138.617542,E,1,09,0.7,58.0,M,45.0,M,,*6A

3:10:43:606 Nachm. 03/28/17 - $GNGNS,131039.0,5208.347138,N,01138.617542,E,AA,15,0.7,58.0,45.0,,*53

3:10:43:607 Nachm. 03/28/17 - $GPVTG,121.5,T,121.1,M,0.0,N,0.0,K,A*27

3:10:43:608 Nachm. 03/28/17 - $GPRMC,131039.0,A,5208.347138,N,01138.617542,E,0.0,121.5,280317,0.4,E,A*0D

3:10:43:612 Nachm. 03/28/17 - $GPGSA,A,2,10,12,13,15,17,18,19,24,28,,,,1.0,0.7,0.8*32

3:10:43:615 Nachm. 03/28/17 - $GNGSA,A,2,10,12,13,15,17,18,19,24,28,,,,1.0,0.7,0.8*2C

3:10:43:615 Nachm. 03/28/17 - $GNGSA,A,2,65,72,73,74,82,83,,,,,,,1.0,0.7,0.8*23

3:10:44:583 Nachm. 03/28/17 - $GPGSV,3,1,12,01,05,018,14,10,17,296,27,12,42,232,14,13,20,158,12*73

3:10:44:584 Nachm. 03/28/17 - $GPGSV,3,2,12,15,42,192,15,17,40,068,31,18,13,270,20,19,45,099,29*77

3:10:44:598 Nachm. 03/28/17 - $GPGSV,3,3,12,24,72,286,26,28,08,056,24,32,07,320,17,25,02,237,*74

3:10:44:601 Nachm. 03/28/17 - $GLGSV,3,1,09,74,36,282,17,82,35,049,27,73,68,036,26,80,24,077,25*60

3:10:44:603 Nachm. 03/28/17 - $GLGSV,3,2,09,65,16,337,19,83,31,116,24,81,05,008,18,72,40,288,20*63

3:10:44:618 Nachm. 03/28/17 - $GLGSV,3,3,09,71,27,224,*5B

3:10:44:620 Nachm. 03/28/17 - $GPGGA,131040.0,5208.347120,N,01138.617571,E,1,09,0.7,58.0,M,45.0,M,,*6D

3:10:44:621 Nachm. 03/28/17 - $GNGNS,131040.0,5208.347120,N,01138.617571,E,AA,15,0.7,58.0,45.0,,*54

3:10:44:622 Nachm. 03/28/17 - $GPVTG,121.5,T,121.1,M,0.0,N,0.0,K,A*27

3:10:44:623 Nachm. 03/28/17 - $GPRMC,131040.0,A,5208.347120,N,01138.617571,E,0.0,121.5,280317,0.4,E,A*0A

3:10:44:623 Nachm. 03/28/17 - $GPGSA,A,2,10,12,13,15,17,18,19,24,28,,,,1.0,0.7,0.8*32

3:10:44:624 Nachm. 03/28/17 - $GNGSA,A,2,10,12,13,15,17,18,19,24,28,,,,1.0,0.7,0.8*2C

3:10:44:624 Nachm. 03/28/17 - $GNGSA,A,2,65,72,73,74,82,83,,,,,,,1.0,0.7,0.8*23

3:10:45:586 Nachm. 03/28/17 - $GPGSV,3,1,12,01,05,018,14,10,17,296,24,12,42,232,14,15,42,192,15*73

3:10:45:587 Nachm. 03/28/17 - $GPGSV,3,2,12,17,40,068,19,18,13,270,20,19,45,099,23,24,72,286,24*72

3:10:45:590 Nachm. 03/28/17 - $GPGSV,3,3,12,28,08,056,26,32,07,320,17,13,20,158,,25,02,237,*71

3:10:45:591 Nachm. 03/28/17 - $GLGSV,3,1,09,74,36,282,19,82,35,049,22,73,68,036,26,80,24,077,18*65

3:10:45:591 Nachm. 03/28/17 - $GLGSV,3,2,09,65,16,337,25,83,31,116,23,81,05,008,18,72,40,288,18*60

3:10:45:598 Nachm. 03/28/17 - $GLGSV,3,3,09,71,27,224,*5B

3:10:45:598 Nachm. 03/28/17 - $GPGGA,131041.0,5208.347120,N,01138.617571,E,1,09,0.7,58.0,M,45.0,M,,*6C

3:10:45:599 Nachm. 03/28/17 - $GNGNS,131041.0,5208.347120,N,01138.617571,E,AA,15,0.7,58.0,45.0,,*55

3:10:45:599 Nachm. 03/28/17 - $GPVTG,121.5,T,121.1,M,0.0,N,0.0,K,A*27

3:10:45:599 Nachm. 03/28/17 - $GPRMC,131041.0,A,5208.347120,N,01138.617571,E,0.0,121.5,280317,0.4,E,A*0B

3:10:45:600 Nachm. 03/28/17 - $GPGSA,A,2,10,12,13,15,17,18,19,24,28,,,,1.0,0.7,0.8*32

3:10:45:601 Nachm. 03/28/17 - $GNGSA,A,2,10,12,13,15,17,18,19,24,28,,,,1.0,0.7,0.8*2C

3:10:45:601 Nachm. 03/28/17 - $GNGSA,A,2,65,72,73,74,82,83,,,,,,,1.0,0.7,0.8*23

3:10:46:586 Nachm. 03/28/17 - $GPGSV,3,1,12,01,05,018,14,10,17,296,24,12,42,232,14,15,42,192,15*73

3:10:46:588 Nachm. 03/28/17 - $GPGSV,3,2,12,17,40,068,21,18,13,270,17,19,45,099,24,24,72,286,26*78

3:10:46:589 Nachm. 03/28/17 - $GPGSV,3,3,12,28,08,056,28,32,07,320,17,13,20,158,,25,02,237,*7F

3:10:46:590 Nachm. 03/28/17 - $GLGSV,3,1,09,74,36,282,19,82,35,049,24,73,68,036,24,80,24,077,21*6B

3:10:46:607 Nachm. 03/28/17 - $GLGSV,3,2,09,65,16,337,25,83,31,116,23,81,05,008,18,72,40,288,18*60

3:10:46:608 Nachm. 03/28/17 - $GLGSV,3,3,09,71,27,224,*5B

3:10:46:613 Nachm. 03/28/17 - $GPGGA,131042.0,5208.347174,N,01138.617544,E,1,09,0.7,58.0,M,45.0,M,,*68

3:10:46:614 Nachm. 03/28/17 - $GNGNS,131042.0,5208.347174,N,01138.617544,E,AA,15,0.7,58.0,45.0,,*51

3:10:46:614 Nachm. 03/28/17 - $GPVTG,121.5,T,121.1,M,0.0,N,0.0,K,A*27

3:10:46:615 Nachm. 03/28/17 - $GPRMC,131042.0,A,5208.347174,N,01138.617544,E,0.0,121.5,280317,0.4,E,A*0F

3:10:46:615 Nachm. 03/28/17 - $GPGSA,A,2,10,12,13,15,17,18,19,24,28,,,,1.0,0.7,0.8*32

3:10:46:616 Nachm. 03/28/17 - $GNGSA,A,2,10,12,13,15,17,18,19,24,28,,,,1.0,0.7,0.8*2C

3:10:46:616 Nachm. 03/28/17 - $GNGSA,A,2,65,72,73,74,82,83,,,,,,,1.0,0.7,0.8*23

3:10:47:582 Nachm. 03/28/17 - $GPGSV,3,1,12,01,05,018,14,10,17,296,25,12,42,232,14,15,42,192,14*73

3:10:47:584 Nachm. 03/28/17 - $GPGSV,3,2,12,17,40,068,24,18,13,270,18,19,45,099,27,24,72,286,28*7F

3:10:47:584 Nachm. 03/28/17 - $GPGSV,3,3,12,28,08,056,27,32,07,320,17,13,20,158,,25,02,237,*70

3:10:47:584 Nachm. 03/28/17 - $GLGSV,3,1,09,74,36,282,18,82,35,049,22,73,68,036,25,80,24,077,24*68

3:10:47:585 Nachm. 03/28/17 - $GLGSV,3,2,09,65,16,337,18,83,31,116,21,81,05,008,18,72,40,288,17*63

3:10:47:589 Nachm. 03/28/17 - $GLGSV,3,3,09,71,27,224,*5B

3:10:47:590 Nachm. 03/28/17 - $GPGGA,131043.0,5208.347213,N,01138.617541,E,1,09,0.7,58.0,M,45.0,M,,*6E

3:10:47:590 Nachm. 03/28/17 - $GNGNS,131043.0,5208.347213,N,01138.617541,E,AA,15,0.7,58.0,45.0,,*57

3:10:47:591 Nachm. 03/28/17 - $GPVTG,121.5,T,121.1,M,0.0,N,0.0,K,A*27

3:10:47:592 Nachm. 03/28/17 - $GPRMC,131043.0,A,5208.347213,N,01138.617541,E,0.0,121.5,280317,0.4,E,A*09

3:10:47:593 Nachm. 03/28/17 - $GPGSA,A,2,10,12,13,15,17,18,19,24,28,,,,1.0,0.7,0.8*32

3:10:47:593 Nachm. 03/28/17 - $GNGSA,A,2,10,12,13,15,17,18,19,24,28,,,,1.0,0.7,0.8*2C

3:10:47:594 Nachm. 03/28/17 - $GNGSA,A,2,65,72,73,74,82,83,,,,,,,1.0,0.7,0.8*23

3:10:48:586 Nachm. 03/28/17 - $GPGSV,3,1,12,01,05,018,14,10,17,296,24,12,42,232,14,15,42,192,14*72

3:10:48:590 Nachm. 03/28/17 - $GPGSV,3,2,12,17,40,068,26,18,13,270,19,19,45,099,24,24,72,286,28*7F

3:10:48:592 Nachm. 03/28/17 - $GPGSV,3,3,12,28,08,056,27,32,07,320,17,13,20,158,,25,02,237,*70

3:10:48:593 Nachm. 03/28/17 - $GLGSV,3,1,09,74,36,282,22,82,35,049,25,73,68,036,21,80,24,077,22*64

3:10:48:609 Nachm. 03/28/17 - $GLGSV,3,2,09,65,16,337,21,83,31,116,22,81,05,008,18,72,40,288,18*65

3:10:48:611 Nachm. 03/28/17 - $GLGSV,3,3,09,71,27,224,*5B

3:10:48:612 Nachm. 03/28/17 - $GPGGA,131044.0,5208.347261,N,01138.617546,E,1,09,0.7,58.0,M,45.0,M,,*6B

3:10:48:613 Nachm. 03/28/17 - $GNGNS,131044.0,5208.347261,N,01138.617546,E,AA,15,0.7,58.0,45.0,,*52

3:10:48:614 Nachm. 03/28/17 - $GPVTG,121.5,T,121.1,M,0.0,N,0.0,K,A*27

3:10:48:615 Nachm. 03/28/17 - $GPRMC,131044.0,A,5208.347261,N,01138.617546,E,0.0,121.5,280317,0.4,E,A*0C

3:10:48:617 Nachm. 03/28/17 - $GPGSA,A,2,10,12,13,15,17,18,19,24,28,,,,1.0,0.7,0.8*32

3:10:48:618 Nachm. 03/28/17 - $GNGSA,A,2,10,12,13,15,17,18,19,24,28,,,,1.0,0.7,0.8*2C

3:10:48:618 Nachm. 03/28/17 - $GNGSA,A,2,65,72,73,74,82,83,,,,,,,1.0,0.7,0.8*23

3:10:49:585 Nachm. 03/28/17 - $GPGSV,3,1,12,01,05,018,14,10,17,296,26,12,42,232,14,15,42,192,14*70

3:10:49:586 Nachm. 03/28/17 - $GPGSV,3,2,12,17,40,068,27,18,13,270,17,19,45,099,25,24,72,286,28*71

3:10:49:590 Nachm. 03/28/17 - $GPGSV,3,3,12,28,08,056,27,32,07,320,17,13,20,158,,25,02,237,*70

3:10:49:592 Nachm. 03/28/17 - $GLGSV,3,1,09,74,36,282,21,82,35,049,23,73,68,036,21,80,24,077,22*61

3:10:49:599 Nachm. 03/28/17 - $GLGSV,3,2,09,65,16,337,23,83,31,116,25,81,05,008,18,72,40,288,17*6F

3:10:49:603 Nachm. 03/28/17 - $GLGSV,3,3,09,71,27,224,*5B

3:10:49:603 Nachm. 03/28/17 - $GPGGA,131045.0,5208.347297,N,01138.617549,E,1,08,0.7,58.0,M,45.0,M,,*6D

3:10:49:604 Nachm. 03/28/17 - $GNGNS,131045.0,5208.347297,N,01138.617549,E,AA,14,0.7,58.0,45.0,,*54

3:10:49:604 Nachm. 03/28/17 - $GPVTG,121.5,T,121.1,M,0.0,N,0.0,K,A*27

3:10:49:605 Nachm. 03/28/17 - $GPRMC,131045.0,A,5208.347297,N,01138.617549,E,0.0,121.5,280317,0.4,E,A*0B

3:10:49:608 Nachm. 03/28/17 - $GPGSA,A,2,10,13,15,17,18,19,24,28,,,,,1.1,0.7,0.8*30

3:10:49:609 Nachm. 03/28/17 - $GNGSA,A,2,10,13,15,17,18,19,24,28,,,,,1.1,0.7,0.8*2E

3:10:49:610 Nachm. 03/28/17 - $GNGSA,A,2,65,72,73,74,82,83,,,,,,,1.1,0.7,0.8*22

3:10:50:586 Nachm. 03/28/17 - $GPGSV,3,1,12,01,05,018,14,10,17,296,27,12,42,232,14,15,42,192,14*71

3:10:50:587 Nachm. 03/28/17 - $GPGSV,3,2,12,17,40,068,27,18,13,270,19,19,45,099,24,24,72,286,28*7E

3:10:50:588 Nachm. 03/28/17 - $GPGSV,3,3,12,28,08,056,26,32,07,320,17,13,20,158,,25,02,237,*71

3:10:50:590 Nachm. 03/28/17 - $GLGSV,3,1,09,74,36,282,19,82,35,049,25,73,68,036,22,80,24,077,22*6F

3:10:50:601 Nachm. 03/28/17 - $GLGSV,3,2,09,65,16,337,23,83,31,116,25,81,05,008,18,72,40,288,17*6F

3:10:50:605 Nachm. 03/28/17 - $GLGSV,3,3,09,71,27,224,*5B

3:10:50:606 Nachm. 03/28/17 - $GPGGA,131046.0,5208.347343,N,01138.617566,E,1,08,0.7,58.0,M,45.0,M,,*6B

3:10:50:607 Nachm. 03/28/17 - $GNGNS,131046.0,5208.347343,N,01138.617566,E,AA,14,0.7,58.0,45.0,,*52

3:10:50:607 Nachm. 03/28/17 - $GPVTG,121.5,T,121.1,M,0.0,N,0.0,K,A*27

3:10:50:607 Nachm. 03/28/17 - $GPRMC,131046.0,A,5208.347343,N,01138.617566,E,0.0,121.5,280317,0.4,E,A*0D

3:10:50:608 Nachm. 03/28/17 - $GPGSA,A,2,10,13,15,17,18,19,24,28,,,,,1.1,0.7,0.8*30

3:10:50:608 Nachm. 03/28/17 - $GNGSA,A,2,10,13,15,17,18,19,24,28,,,,,1.1,0.7,0.8*2E

3:10:50:608 Nachm. 03/28/17 - $GNGSA,A,2,65,72,73,74,82,83,,,,,,,1.1,0.7,0.8*22

3:10:51:584 Nachm. 03/28/17 - $GPGSV,3,1,12,01,05,018,14,10,17,296,26,12,42,232,14,15,42,192,14*70

3:10:51:590 Nachm. 03/28/17 - $GPGSV,3,2,12,17,40,068,27,18,13,270,17,19,45,099,24,24,72,286,28*70

3:10:51:592 Nachm. 03/28/17 - $GPGSV,3,3,12,28,08,056,27,32,07,320,17,13,20,158,,25,02,237,*70

3:10:51:594 Nachm. 03/28/17 - $GLGSV,3,1,09,74,36,282,19,82,35,049,25,73,68,036,20,80,24,077,23*6C

3:10:51:595 Nachm. 03/28/17 - $GLGSV,3,2,09,65,16,337,22,83,31,116,24,81,05,008,18,72,40,288,17*6F

3:10:51:604 Nachm. 03/28/17 - $GLGSV,3,3,09,71,27,224,*5B

3:10:51:606 Nachm. 03/28/17 - $GPGGA,131047.0,5208.347365,N,01138.617571,E,1,07,0.9,58.0,M,45.0,M,,*69

3:10:51:607 Nachm. 03/28/17 - $GNGNS,131047.0,5208.347365,N,01138.617571,E,AA,13,0.9,58.0,45.0,,*58

3:10:51:608 Nachm. 03/28/17 - $GPVTG,121.5,T,121.1,M,0.0,N,0.0,K,A*27

3:10:51:608 Nachm. 03/28/17 - $GPRMC,131047.0,A,5208.347365,N,01138.617571,E,0.0,121.5,280317,0.4,E,A*0E

3:10:51:609 Nachm. 03/28/17 - $GPGSA,A,2,10,15,17,18,19,24,28,,,,,,1.2,0.9,0.8*3F

3:10:51:609 Nachm. 03/28/17 - $GNGSA,A,2,10,15,17,18,19,24,28,,,,,,1.2,0.9,0.8*21

3:10:51:610 Nachm. 03/28/17 - $GNGSA,A,2,65,72,73,74,82,83,,,,,,,1.2,0.9,0.8*2F

3:10:52:583 Nachm. 03/28/17 - $GPGSV,3,1,12,01,05,018,14,10,17,296,26,12,42,232,14,15,42,192,14*70

3:10:52:585 Nachm. 03/28/17 - $GPGSV,3,2,12,17,40,068,27,18,13,270,17,19,45,099,24,24,72,286,28*70

3:10:52:585 Nachm. 03/28/17 - $GPGSV,3,3,12,28,08,056,27,32,07,320,17,13,20,158,,25,02,237,*70

3:10:52:587 Nachm. 03/28/17 - $GLGSV,3,1,09,74,36,282,17,82,35,049,27,73,68,036,21,80,24,077,22*60

3:10:52:597 Nachm. 03/28/17 - $GLGSV,3,2,09,65,16,337,21,83,31,116,24,81,05,008,18,72,40,288,17*6C

3:10:52:597 Nachm. 03/28/17 - $GLGSV,3,3,09,71,27,224,*5B

3:10:52:598 Nachm. 03/28/17 - $GPGGA,131048.0,5208.347367,N,01138.617584,E,1,07,0.9,58.0,M,45.0,M,,*6E

3:10:52:598 Nachm. 03/28/17 - $GNGNS,131048.0,5208.347367,N,01138.617584,E,AA,13,0.9,58.0,45.0,,*5F

3:10:52:601 Nachm. 03/28/17 - $GPVTG,121.5,T,121.1,M,0.0,N,0.0,K,A*27

3:10:52:605 Nachm. 03/28/17 - $GPRMC,131048.0,A,5208.347367,N,01138.617584,E,0.0,121.5,280317,0.4,E,A*09

3:10:52:606 Nachm. 03/28/17 - $GPGSA,A,2,10,15,17,18,19,24,28,,,,,,1.2,0.9,0.8*3F

3:10:52:606 Nachm. 03/28/17 - $GNGSA,A,2,10,15,17,18,19,24,28,,,,,,1.2,0.9,0.8*21

3:10:52:607 Nachm. 03/28/17 - $GNGSA,A,2,65,72,73,74,82,83,,,,,,,1.2,0.9,0.8*2F

3:10:53:584 Nachm. 03/28/17 - $GPGSV,3,1,12,01,05,018,14,10,17,296,24,12,42,232,14,15,42,192,14*72

3:10:53:586 Nachm. 03/28/17 - $GPGSV,3,2,12,17,40,068,29,18,13,270,17,19,45,099,22,24,72,286,26*76

3:10:53:588 Nachm. 03/28/17 - $GPGSV,3,3,12,28,08,056,24,32,07,320,17,13,20,158,,25,02,237,*73

3:10:53:589 Nachm. 03/28/17 - $GLGSV,3,1,09,74,36,282,17,82,35,049,31,73,68,036,26,80,24,077,20*62

3:10:53:604 Nachm. 03/28/17 - $GLGSV,3,2,09,65,16,337,24,83,31,116,23,81,05,008,11,72,40,288,17*67

3:10:53:605 Nachm. 03/28/17 - $GLGSV,3,3,09,71,27,224,*5B

3:10:53:606 Nachm. 03/28/17 - $GPGGA,131049.0,5208.347360,N,01138.617586,E,1,07,0.9,58.0,M,45.0,M,,*6A

3:10:53:607 Nachm. 03/28/17 - $GNGNS,131049.0,5208.347360,N,01138.617586,E,AA,13,0.9,58.0,45.0,,*5B

3:10:53:608 Nachm. 03/28/17 - $GPVTG,121.5,T,121.1,M,0.0,N,0.0,K,A*27

3:10:53:609 Nachm. 03/28/17 - $GPRMC,131049.0,A,5208.347360,N,01138.617586,E,0.0,121.5,280317,0.4,E,A*0D

3:10:53:610 Nachm. 03/28/17 - $GPGSA,A,2,10,15,17,18,19,24,28,,,,,,1.2,0.9,0.8*3F

3:10:53:610 Nachm. 03/28/17 - $GNGSA,A,2,10,15,17,18,19,24,28,,,,,,1.2,0.9,0.8*21

3:10:53:611 Nachm. 03/28/17 - $GNGSA,A,2,65,72,73,74,82,83,,,,,,,1.2,0.9,0.8*2F

3:10:54:584 Nachm. 03/28/17 - $GPGSV,3,1,12,01,05,018,14,10,17,296,24,12,42,232,12,15,42,192,14*74

3:10:54:585 Nachm. 03/28/17 - $GPGSV,3,2,12,17,40,068,30,18,13,270,15,19,45,099,23,24,72,286,27*7C

3:10:54:585 Nachm. 03/28/17 - $GPGSV,3,3,12,28,08,056,25,32,07,320,17,13,20,158,,25,02,237,*72

3:10:54:594 Nachm. 03/28/17 - $GLGSV,3,1,09,74,36,282,16,82,35,049,32,73,68,036,27,80,24,077,22*63

3:10:54:606 Nachm. 03/28/17 - $GLGSV,3,2,09,65,16,337,25,83,31,116,21,81,05,008,11,72,40,288,17*64

3:10:54:607 Nachm. 03/28/17 - $GLGSV,3,3,09,71,27,224,*5B

3:10:54:611 Nachm. 03/28/17 - $GPGGA,131050.0,5208.347391,N,01138.617597,E,1,08,0.8,58.0,M,45.0,M,,*62

3:10:54:612 Nachm. 03/28/17 - $GNGNS,131050.0,5208.347391,N,01138.617597,E,AA,14,0.8,58.0,45.0,,*5B

3:10:54:615 Nachm. 03/28/17 - $GPVTG,121.5,T,121.1,M,0.0,N,0.0,K,A*27

3:10:54:615 Nachm. 03/28/17 - $GPRMC,131050.0,A,5208.347391,N,01138.617597,E,0.0,121.5,280317,0.4,E,A*0B

3:10:54:616 Nachm. 03/28/17 - $GPGSA,A,2,10,12,15,17,18,19,24,28,,,,,1.1,0.8,0.8*3E

3:10:54:617 Nachm. 03/28/17 - $GNGSA,A,2,10,12,15,17,18,19,24,28,,,,,1.1,0.8,0.8*20

3:10:54:617 Nachm. 03/28/17 - $GNGSA,A,2,65,72,73,74,82,83,,,,,,,1.1,0.8,0.8*2D

3:10:55:583 Nachm. 03/28/17 - $GPGSV,3,1,12,01,05,018,14,10,17,296,24,12,42,232,12,15,42,192,14*74

3:10:55:586 Nachm. 03/28/17 - $GPGSV,3,2,12,17,40,068,29,18,13,270,20,19,45,099,23,24,72,286,26*73

3:10:55:586 Nachm. 03/28/17 - $GPGSV,3,3,12,28,08,056,23,32,07,320,17,13,20,158,,25,02,237,*74

3:10:55:586 Nachm. 03/28/17 - $GLGSV,3,1,09,74,36,282,16,82,35,049,31,73,68,036,26,80,24,077,23*60

3:10:55:586 Nachm. 03/28/17 - $GLGSV,3,2,09,65,16,337,27,83,31,116,22,81,05,008,11,72,40,288,17*65

3:10:55:590 Nachm. 03/28/17 - $GLGSV,3,3,09,71,27,224,*5B

3:10:55:592 Nachm. 03/28/17 - $GPGGA,131051.0,5208.347407,N,01138.617610,E,1,08,0.8,58.0,M,45.0,M,,*67

3:10:55:593 Nachm. 03/28/17 - $GNGNS,131051.0,5208.347407,N,01138.617610,E,AA,14,0.8,58.0,45.0,,*5E

3:10:55:593 Nachm. 03/28/17 - $GPVTG,121.5,T,121.1,M,0.0,N,0.0,K,A*27

3:10:55:593 Nachm. 03/28/17 - $GPRMC,131051.0,A,5208.347407,N,01138.617610,E,0.0,121.5,280317,0.4,E,A*0E

3:10:55:593 Nachm. 03/28/17 - $GPGSA,A,2,10,12,15,17,18,19,24,28,,,,,1.1,0.8,0.8*3E

3:10:55:593 Nachm. 03/28/17 - $GNGSA,A,2,10,12,15,17,18,19,24,28,,,,,1.1,0.8,0.8*20

3:10:55:594 Nachm. 03/28/17 - $GNGSA,A,2,65,72,73,74,82,83,,,,,,,1.1,0.8,0.8*2D

3:10:56:583 Nachm. 03/28/17 - $GPGSV,3,1,12,01,05,018,14,10,17,296,23,12,42,232,16,15,42,192,14*77

3:10:56:584 Nachm. 03/28/17 - $GPGSV,3,2,12,17,40,068,30,18,13,270,18,19,45,099,21,24,72,286,26*72

3:10:56:584 Nachm. 03/28/17 - $GPGSV,3,3,12,28,08,056,23,32,07,320,17,13,20,158,,25,02,237,*74

3:10:56:585 Nachm. 03/28/17 - $GLGSV,3,1,09,74,36,282,15,82,35,049,31,73,68,036,25,80,24,077,23*60

3:10:56:587 Nachm. 03/28/17 - $GLGSV,3,2,09,65,16,337,27,83,31,116,22,81,05,008,15,72,40,288,17*61

3:10:56:593 Nachm. 03/28/17 - $GLGSV,3,3,09,71,27,224,*5B

3:10:56:602 Nachm. 03/28/17 - $GPGGA,131052.0,5208.347485,N,01138.617643,E,1,08,0.8,58.1,M,45.0,M,,*69

3:10:56:603 Nachm. 03/28/17 - $GNGNS,131052.0,5208.347485,N,01138.617643,E,AA,13,0.8,58.1,45.0,,*57

3:10:56:603 Nachm. 03/28/17 - $GPVTG,121.5,T,121.1,M,0.0,N,0.0,K,A*27

3:10:56:604 Nachm. 03/28/17 - $GPRMC,131052.0,A,5208.347485,N,01138.617643,E,0.0,121.5,280317,0.4,E,A*01

3:10:56:604 Nachm. 03/28/17 - $GPGSA,A,2,10,12,15,17,18,19,24,28,,,,,1.1,0.8,0.8*3E

3:10:56:604 Nachm. 03/28/17 - $GNGSA,A,2,10,12,15,17,18,19,24,28,,,,,1.1,0.8,0.8*20

3:10:56:605 Nachm. 03/28/17 - $GNGSA,A,2,65,73,74,82,83,,,,,,,,1.1,0.8,0.8*28

3:10:57:584 Nachm. 03/28/17 - $GPGSV,3,1,12,01,05,018,14,10,17,296,23,12,42,232,16,15,42,192,14*77

3:10:57:585 Nachm. 03/28/17 - $GPGSV,3,2,12,17,40,068,30,18,13,270,16,19,45,099,20,24,72,286,26*7D

3:10:57:585 Nachm. 03/28/17 - $GPGSV,3,3,12,28,08,056,23,32,07,320,17,13,20,158,,25,02,237,*74

3:10:57:586 Nachm. 03/28/17 - $GLGSV,3,1,09,74,36,282,15,82,35,049,32,73,68,036,25,80,24,077,23*63

3:10:57:586 Nachm. 03/28/17 - $GLGSV,3,2,09,65,16,337,27,83,31,116,22,81,05,008,15,72,40,288,17*61

3:10:57:593 Nachm. 03/28/17 - $GLGSV,3,3,09,71,27,224,*5B

3:10:57:594 Nachm. 03/28/17 - $GPGGA,131053.0,5208.347489,N,01138.617649,E,1,07,0.9,58.1,M,45.0,M,,*60

3:10:57:595 Nachm. 03/28/17 - $GNGNS,131053.0,5208.347489,N,01138.617649,E,AA,12,0.9,58.1,45.0,,*50

3:10:57:595 Nachm. 03/28/17 - $GPVTG,121.5,T,121.1,M,0.0,N,0.0,K,A*27

3:10:57:599 Nachm. 03/28/17 - $GPRMC,131053.0,A,5208.347489,N,01138.617649,E,0.0,121.5,280317,0.4,E,A*06

3:10:57:606 Nachm. 03/28/17 - $GPGSA,A,2,10,12,17,18,19,24,28,,,,,,1.2,0.9,0.8*38

3:10:57:608 Nachm. 03/28/17 - $GNGSA,A,2,10,12,17,18,19,24,28,,,,,,1.2,0.9,0.8*26

3:10:57:609 Nachm. 03/28/17 - $GNGSA,A,2,65,73,74,82,83,,,,,,,,1.2,0.9,0.8*2A

3:10:58:583 Nachm. 03/28/17 - $GPGSV,3,1,12,01,05,018,14,10,17,296,23,12,42,232,17,15,42,192,14*76

3:10:58:584 Nachm. 03/28/17 - $GPGSV,3,2,12,17,40,068,29,18,13,270,18,19,45,099,20,24,72,286,26*7B

3:10:58:586 Nachm. 03/28/17 - $GPGSV,3,3,12,28,08,056,23,32,07,320,17,13,20,158,,25,02,237,*74

3:10:58:587 Nachm. 03/28/17 - $GLGSV,3,1,09,74,36,282,14,82,35,049,31,73,68,036,19,80,24,077,23*6E

3:10:58:588 Nachm. 03/28/17 - $GLGSV,3,2,09,65,16,337,23,83,31,116,21,81,05,008,15,72,40,288,17*66

3:10:58:592 Nachm. 03/28/17 - $GLGSV,3,3,09,71,27,224,*5B

3:10:58:593 Nachm. 03/28/17 - $GPGGA,131054.0,5208.347604,N,01138.617701,E,1,07,0.9,58.2,M,45.0,M,,*6E

3:10:58:594 Nachm. 03/28/17 - $GNGNS,131054.0,5208.347604,N,01138.617701,E,AA,12,0.9,58.2,45.0,,*5E

3:10:58:594 Nachm. 03/28/17 - $GPVTG,121.5,T,121.1,M,0.0,N,0.0,K,A*27

3:10:58:594 Nachm. 03/28/17 - $GPRMC,131054.0,A,5208.347604,N,01138.617701,E,0.0,121.5,280317,0.4,E,A*0B

3:10:58:595 Nachm. 03/28/17 - $GPGSA,A,2,10,12,17,18,19,24,28,,,,,,1.2,0.9,0.8*38

3:10:58:595 Nachm. 03/28/17 - $GNGSA,A,2,10,12,17,18,19,24,28,,,,,,1.2,0.9,0.8*26

3:10:58:595 Nachm. 03/28/17 - $GNGSA,A,2,65,73,74,82,83,,,,,,,,1.2,0.9,0.8*2A

3:10:59:583 Nachm. 03/28/17 - $GPGSV,3,1,12,01,05,018,15,10,17,296,23,12,42,232,17,15,42,192,14*77

3:10:59:587 Nachm. 03/28/17 - $GPGSV,3,2,12,17,40,068,29,18,13,270,17,19,45,099,20,24,72,286,25*77

3:10:59:589 Nachm. 03/28/17 - $GPGSV,3,3,12,28,08,056,23,32,07,320,17,13,20,158,,25,02,237,*74

3:10:59:589 Nachm. 03/28/17 - $GLGSV,3,1,09,74,36,282,14,82,35,049,31,73,68,036,18,80,24,077,23*6F

3:10:59:597 Nachm. 03/28/17 - $GLGSV,3,2,09,65,16,337,22,83,31,116,22,81,05,008,15,72,40,288,17*64

3:10:59:602 Nachm. 03/28/17 - $GLGSV,3,3,09,71,27,224,*5B

3:10:59:603 Nachm. 03/28/17 - $GPGGA,131055.0,5208.347618,N,01138.617709,E,1,07,0.9,58.2,M,45.0,M,,*6A

3:10:59:604 Nachm. 03/28/17 - $GNGNS,131055.0,5208.347618,N,01138.617709,E,AA,12,0.9,58.2,45.0,,*5A

3:10:59:605 Nachm. 03/28/17 - $GPVTG,121.5,T,121.1,M,0.0,N,0.0,K,A*27

3:10:59:605 Nachm. 03/28/17 - $GPRMC,131055.0,A,5208.347618,N,01138.617709,E,0.0,121.5,280317,0.4,E,A*0F

3:10:59:606 Nachm. 03/28/17 - $GPGSA,A,2,10,12,17,18,19,24,28,,,,,,1.2,0.9,0.8*38

3:10:59:607 Nachm. 03/28/17 - $GNGSA,A,2,10,12,17,18,19,24,28,,,,,,1.2,0.9,0.8*26

3:10:59:608 Nachm. 03/28/17 - $GNGSA,A,2,65,73,74,82,83,,,,,,,,1.2,0.9,0.8*2A

3:11:00:583 Nachm. 03/28/17 - $GPGSV,3,1,12,01,05,018,15,10,17,296,22,12,42,232,17,15,42,192,14*76

3:11:00:585 Nachm. 03/28/17 - $GPGSV,3,2,12,17,40,068,29,18,13,270,17,19,45,099,19,24,72,286,24*7C

3:11:00:585 Nachm. 03/28/17 - $GPGSV,3,3,12,28,08,056,24,32,07,320,17,13,20,158,,25,02,237,*73

3:11:00:585 Nachm. 03/28/17 - $GLGSV,3,1,09,74,36,282,14,82,35,049,30,73,68,036,18,80,24,077,23*6E

3:11:00:586 Nachm. 03/28/17 - $GLGSV,3,2,09,65,16,337,21,83,31,116,22,81,05,008,15,72,40,288,11*61

3:11:00:588 Nachm. 03/28/17 - $GLGSV,3,3,09,71,27,224,*5B

3:11:00:592 Nachm. 03/28/17 - $GPGGA,131056.0,5208.347635,N,01138.617713,E,1,07,0.9,58.2,M,45.0,M,,*6D

3:11:00:593 Nachm. 03/28/17 - $GNGNS,131056.0,5208.347635,N,01138.617713,E,AA,13,0.9,58.2,45.0,,*5C

3:11:00:593 Nachm. 03/28/17 - $GPVTG,121.5,T,121.1,M,0.0,N,0.0,K,A*27

3:11:00:593 Nachm. 03/28/17 - $GPRMC,131056.0,A,5208.347635,N,01138.617713,E,0.0,121.5,280317,0.4,E,A*08

3:11:00:593 Nachm. 03/28/17 - $GPGSA,A,2,10,12,17,18,19,24,28,,,,,,1.2,0.9,0.8*38

3:11:00:593 Nachm. 03/28/17 - $GNGSA,A,2,10,12,17,18,19,24,28,,,,,,1.2,0.9,0.8*26

3:11:00:594 Nachm. 03/28/17 - $GNGSA,A,2,65,72,73,74,82,83,,,,,,,1.2,0.9,0.8*2F

3:11:01:583 Nachm. 03/28/17 - $GPGSV,3,1,12,01,05,018,15,10,17,296,22,12,42,232,17,13,20,158,15*73

3:11:01:584 Nachm. 03/28/17 - $GPGSV,3,2,12,15,42,192,14,17,40,068,28,18,13,270,15,19,45,099,20*71

3:11:01:584 Nachm. 03/28/17 - $GPGSV,3,3,12,24,72,286,22,28,08,056,24,32,07,320,17,25,02,237,*70

3:11:01:585 Nachm. 03/28/17 - $GLGSV,3,1,09,74,36,282,13,82,35,049,29,73,68,036,16,80,24,077,22*6E

3:11:01:585 Nachm. 03/28/17 - $GLGSV,3,2,09,65,16,337,20,83,31,116,22,81,05,008,15,72,40,288,11*60

3:11:01:589 Nachm. 03/28/17 - $GLGSV,3,3,09,71,27,224,*5B

3:11:01:589 Nachm. 03/28/17 - $GPGGA,131057.0,5208.347640,N,01138.617721,E,1,08,0.8,58.2,M,45.0,M,,*61

3:11:01:590 Nachm. 03/28/17 - $GNGNS,131057.0,5208.347640,N,01138.617721,E,AA,14,0.8,58.2,45.0,,*58

3:11:01:590 Nachm. 03/28/17 - $GPVTG,121.5,T,121.1,M,0.0,N,0.0,K,A*27

3:11:01:591 Nachm. 03/28/17 - $GPRMC,131057.0,A,5208.347640,N,01138.617721,E,0.0,121.5,280317,0.4,E,A*0A

3:11:01:591 Nachm. 03/28/17 - $GPGSA,A,2,10,12,13,17,18,19,24,28,,,,,1.1,0.8,0.8*38

3:11:01:591 Nachm. 03/28/17 - $GNGSA,A,2,10,12,13,17,18,19,24,28,,,,,1.1,0.8,0.8*26

3:11:01:592 Nachm. 03/28/17 - $GNGSA,A,2,65,72,73,74,82,83,,,,,,,1.1,0.8,0.8*2D

3:11:02:581 Nachm. 03/28/17 - $GPGSV,3,1,12,01,05,018,15,10,17,296,22,12,42,232,17,13,20,158,14*72

3:11:02:581 Nachm. 03/28/17 - $GPGSV,3,2,12,15,42,192,14,17,40,068,28,18,13,270,15,19,45,099,21*70

3:11:02:581 Nachm. 03/28/17 - $GPGSV,3,3,12,24,72,286,24,28,08,056,25,32,07,320,17,25,02,237,*77

3:11:02:585 Nachm. 03/28/17 - $GLGSV,3,1,09,74,36,282,13,82,35,049,29,73,68,036,16,80,24,077,21*6D

3:11:02:585 Nachm. 03/28/17 - $GLGSV,3,2,09,65,16,337,21,83,31,116,23,81,05,008,15,72,40,288,11*60

3:11:02:589 Nachm. 03/28/17 - $GLGSV,3,3,09,71,27,224,*5B

3:11:02:589 Nachm. 03/28/17 - $GPGGA,131058.0,5208.347645,N,01138.617719,E,1,08,0.8,58.2,M,45.0,M,,*60

3:11:02:589 Nachm. 03/28/17 - $GNGNS,131058.0,5208.347645,N,01138.617719,E,AA,14,0.8,58.2,45.0,,*59

3:11:02:589 Nachm. 03/28/17 - $GPVTG,121.5,T,121.1,M,0.0,N,0.0,K,A*27

3:11:02:590 Nachm. 03/28/17 - $GPRMC,131058.0,A,5208.347645,N,01138.617719,E,0.0,121.5,280317,0.4,E,A*0B

3:11:02:590 Nachm. 03/28/17 - $GPGSA,A,2,10,12,13,17,18,19,24,28,,,,,1.1,0.8,0.8*38

3:11:02:590 Nachm. 03/28/17 - $GNGSA,A,2,10,12,13,17,18,19,24,28,,,,,1.1,0.8,0.8*26

3:11:02:590 Nachm. 03/28/17 - $GNGSA,A,2,65,72,73,74,82,83,,,,,,,1.1,0.8,0.8*2D

3:11:03:582 Nachm. 03/28/17 - $GPGSV,3,1,12,01,05,018,14,10,17,296,22,12,42,232,17,13,20,158,14*73

3:11:03:583 Nachm. 03/28/17 - $GPGSV,3,2,12,15,42,192,14,17,40,068,26,18,13,270,15,19,45,099,21*7E

3:11:03:584 Nachm. 03/28/17 - $GPGSV,3,3,12,24,72,286,23,28,08,056,25,32,07,320,17,25,02,237,*70

3:11:03:584 Nachm. 03/28/17 - $GLGSV,3,1,09,74,36,282,13,82,35,049,31,73,68,036,17,80,24,077,22*66

3:11:03:584 Nachm. 03/28/17 - $GLGSV,3,2,09,65,16,337,24,83,31,116,26,81,05,008,15,72,40,288,11*60

3:11:03:590 Nachm. 03/28/17 - $GLGSV,3,3,09,71,27,224,*5B

3:11:03:592 Nachm. 03/28/17 - $GPGGA,131059.0,5208.347638,N,01138.617725,E,1,08,0.8,58.2,M,45.0,M,,*64

3:11:03:593 Nachm. 03/28/17 - $GNGNS,131059.0,5208.347638,N,01138.617725,E,AA,14,0.8,58.2,45.0,,*5D

3:11:03:595 Nachm. 03/28/17 - $GPVTG,121.5,T,121.1,M,0.0,N,0.0,K,A*27

3:11:03:595 Nachm. 03/28/17 - $GPRMC,131059.0,A,5208.347638,N,01138.617725,E,0.0,121.5,280317,0.4,E,A*0F

3:11:03:596 Nachm. 03/28/17 - $GPGSA,A,2,10,12,13,17,18,19,24,28,,,,,1.1,0.8,0.8*38

3:11:03:596 Nachm. 03/28/17 - $GNGSA,A,2,10,12,13,17,18,19,24,28,,,,,1.1,0.8,0.8*26

3:11:03:597 Nachm. 03/28/17 - $GNGSA,A,2,65,72,73,74,82,83,,,,,,,1.1,0.8,0.8*2D


