4:08:14:953 Nachm. 04/01/17 - $GPGSV,3,1,12,02,08,127,12,06,18,090,19,12,77,264,24,15,10,184,20*74

4:08:14:954 Nachm. 04/01/17 - $GPGSV,3,2,12,17,20,042,15,19,36,054,20,24,69,142,30,25,32,254,18*72

4:08:14:954 Nachm. 04/01/17 - $GPGSV,3,3,12,10,01,270,,14,14,320,,22,,,,32,31,303,*4D

4:08:14:954 Nachm. 04/01/17 - $GLGSV,3,1,09,78,62,319,15,86,14,021,12,77,47,087,19,88,36,149,17*6A

4:08:14:954 Nachm. 04/01/17 - $GLGSV,3,2,09,87,52,075,26,70,06,357,,79,25,293,,69,27,305,*6E

4:08:14:963 Nachm. 04/01/17 - $GLGSV,3,3,09,68,19,250,*5D

4:08:14:963 Nachm. 04/01/17 - $GPGGA,140808.0,5208.454438,N,01138.432595,E,1,05,2.4,27.2,M,45.0,M,,*6E

4:08:14:963 Nachm. 04/01/17 - $GNGNS,140808.0,5208.454438,N,01138.432595,E,AN,05,2.4,27.2,45.0,,*55

4:08:14:963 Nachm. 04/01/17 - $GPVTG,0.6,T,0.1,M,0.0,N,0.0,K,A*24

4:08:14:964 Nachm. 04/01/17 - $GPRMC,140808.0,A,5208.454438,N,01138.432595,E,0.0,0.6,010417,0.4,E,A*03

4:08:14:964 Nachm. 04/01/17 - $GPGSA,A,2,12,15,17,19,24,,,,,,,,2.6,2.4,0.9*37

4:08:14:964 Nachm. 04/01/17 - $GNGSA,A,2,12,15,17,19,24,,,,,,,,2.6,2.4,0.9*29

4:08:14:964 Nachm. 04/01/17 - $GNGSA,A,2,,,,,,,,,,,,,2.6,2.4,0.9*26

4:08:15:953 Nachm. 04/01/17 - $GPGSV,3,1,12,02,08,127,12,06,18,090,25,12,77,264,20,15,10,184,20*7F

4:08:15:955 Nachm. 04/01/17 - $GPGSV,3,2,12,17,20,042,15,19,36,054,21,24,69,142,34,25,32,254,18*77

4:08:15:961 Nachm. 04/01/17 - $GPGSV,3,3,12,10,01,270,,14,14,320,,22,,,,32,31,303,*4D

4:08:15:962 Nachm. 04/01/17 - $GLGSV,3,1,09,78,62,319,15,86,14,021,19,77,47,087,24,88,36,149,26*6D

4:08:15:971 Nachm. 04/01/17 - $GLGSV,3,2,09,87,52,075,29,70,06,357,,79,25,293,,69,27,305,*61

4:08:15:972 Nachm. 04/01/17 - $GLGSV,3,3,09,68,19,250,*5D

4:08:15:972 Nachm. 04/01/17 - $GPGGA,140809.0,5208.455326,N,01138.432804,E,1,04,2.5,29.2,M,45.0,M,,*6D

4:08:15:973 Nachm. 04/01/17 - $GNGNS,140809.0,5208.455326,N,01138.432804,E,AN,04,2.5,29.2,45.0,,*56

4:08:15:973 Nachm. 04/01/17 - $GPVTG,0.6,T,0.1,M,0.0,N,0.0,K,A*24

4:08:15:973 Nachm. 04/01/17 - $GPRMC,140809.0,A,5208.455326,N,01138.432804,E,0.0,0.6,010417,0.4,E,A*0E

4:08:15:973 Nachm. 04/01/17 - $GPGSA,A,2,12,15,19,24,,,,,,,,,2.7,2.5,0.9*31

4:08:15:973 Nachm. 04/01/17 - $GNGSA,A,2,12,15,19,24,,,,,,,,,2.7,2.5,0.9*2F

4:08:15:974 Nachm. 04/01/17 - $GNGSA,A,2,,,,,,,,,,,,,2.7,2.5,0.9*26

4:08:16:956 Nachm. 04/01/17 - $GPGSV,3,1,12,02,08,127,12,06,18,090,29,12,77,264,24,15,10,184,20*77

4:08:16:957 Nachm. 04/01/17 - $GPGSV,3,2,12,17,20,042,15,19,36,054,25,24,69,142,34,25,32,254,18*73

4:08:16:960 Nachm. 04/01/17 - $GPGSV,3,3,12,10,01,270,,14,14,320,,22,,,,32,31,303,*4D

4:08:16:962 Nachm. 04/01/17 - $GLGSV,3,1,09,78,62,319,13,86,14,021,18,77,47,087,24,88,36,149,29*65

4:08:16:963 Nachm. 04/01/17 - $GLGSV,3,2,09,87,52,075,30,70,06,357,,79,25,293,,69,27,305,*69

4:08:16:969 Nachm. 04/01/17 - $GLGSV,3,3,09,68,19,250,*5D

4:08:16:969 Nachm. 04/01/17 - $GPGGA,140810.0,5208.456461,N,01138.432851,E,1,04,2.5,31.6,M,45.0,M,,*6F

4:08:16:969 Nachm. 04/01/17 - $GNGNS,140810.0,5208.456461,N,01138.432851,E,AN,04,2.5,31.6,45.0,,*54

4:08:16:969 Nachm. 04/01/17 - $GPVTG,0.6,T,0.1,M,0.0,N,0.0,K,A*24

4:08:16:970 Nachm. 04/01/17 - $GPRMC,140810.0,A,5208.456461,N,01138.432851,E,0.0,0.6,010417,0.4,E,A*01

4:08:16:970 Nachm. 04/01/17 - $GPGSA,A,2,12,15,19,24,,,,,,,,,2.7,2.5,0.9*31

4:08:16:970 Nachm. 04/01/17 - $GNGSA,A,2,12,15,19,24,,,,,,,,,2.7,2.5,0.9*2F

4:08:16:970 Nachm. 04/01/17 - $GNGSA,A,2,,,,,,,,,,,,,2.7,2.5,0.9*26

4:08:17:955 Nachm. 04/01/17 - $GPGSV,3,1,12,02,08,127,13,06,18,090,30,12,77,264,23,15,10,184,20*79

4:08:17:959 Nachm. 04/01/17 - $GPGSV,3,2,12,17,20,042,15,19,36,054,26,24,69,142,33,25,32,254,12*7D

4:08:17:960 Nachm. 04/01/17 - $GPGSV,3,3,12,10,01,270,,14,14,320,,22,,,,32,31,303,*4D

4:08:17:964 Nachm. 04/01/17 - $GLGSV,3,1,09,78,62,319,13,86,14,021,18,77,47,087,21,88,36,149,30*68

4:08:17:972 Nachm. 04/01/17 - $GLGSV,3,2,09,87,52,075,25,70,06,357,,79,25,293,,69,27,305,*6D

4:08:17:980 Nachm. 04/01/17 - $GLGSV,3,3,09,68,19,250,*5D

4:08:17:981 Nachm. 04/01/17 - $GPGGA,140811.0,5208.457173,N,01138.432916,E,1,04,2.5,33.1,M,45.0,M,,*6E

4:08:17:982 Nachm. 04/01/17 - $GNGNS,140811.0,5208.457173,N,01138.432916,E,AN,04,2.5,33.1,45.0,,*55

4:08:17:982 Nachm. 04/01/17 - $GPVTG,0.6,T,0.1,M,0.0,N,0.0,K,A*24

4:08:17:982 Nachm. 04/01/17 - $GPRMC,140811.0,A,5208.457173,N,01138.432916,E,0.0,0.6,010417,0.4,E,A*05

4:08:17:983 Nachm. 04/01/17 - $GPGSA,A,2,12,15,19,24,,,,,,,,,2.7,2.5,0.9*31

4:08:17:983 Nachm. 04/01/17 - $GNGSA,A,2,12,15,19,24,,,,,,,,,2.7,2.5,0.9*2F

4:08:17:983 Nachm. 04/01/17 - $GNGSA,A,2,,,,,,,,,,,,,2.7,2.5,0.9*26

4:08:18:956 Nachm. 04/01/17 - $GPGSV,3,1,12,02,08,127,13,06,18,090,29,12,77,264,24,15,10,184,14*71

4:08:18:958 Nachm. 04/01/17 - $GPGSV,3,2,12,17,20,042,15,19,36,054,24,24,69,142,33,25,32,254,18*75

4:08:18:961 Nachm. 04/01/17 - $GPGSV,3,3,12,10,01,270,,14,14,320,,22,,,,32,31,303,*4D

4:08:18:962 Nachm. 04/01/17 - $GLGSV,3,1,09,78,62,319,17,86,14,021,18,77,47,087,21,88,36,149,30*6C

4:08:18:971 Nachm. 04/01/17 - $GLGSV,3,2,09,87,52,075,26,70,06,357,,79,25,293,,69,27,305,*6E

4:08:18:972 Nachm. 04/01/17 - $GLGSV,3,3,09,68,19,250,*5D

4:08:18:978 Nachm. 04/01/17 - $GPGGA,,,,,,0,,,,,,,,*66

4:08:18:979 Nachm. 04/01/17 - $GNGNS,,,,,,NN,,,,,,*53

4:08:18:979 Nachm. 04/01/17 - $GPVTG,,T,,M,,N,,K,N*2C

4:08:18:979 Nachm. 04/01/17 - $GPRMC,,V,,,,,,,,,,N*53

4:08:18:979 Nachm. 04/01/17 - $GPGSA,A,1,,,,,,,,,,,,,,,*1E

4:08:18:981 Nachm. 04/01/17 - $GNGSA,A,1,,,,,,,,,,,,,,,*00

4:08:19:953 Nachm. 04/01/17 - $GPGSV,3,1,12,02,09,127,13,06,18,090,28,12,77,264,26,15,10,184,14*73

4:08:19:953 Nachm. 04/01/17 - $GPGSV,3,2,12,17,20,042,12,19,36,054,24,24,69,142,34,25,32,254,18*75

4:08:19:954 Nachm. 04/01/17 - $GPGSV,3,3,12,10,01,270,,14,14,320,,22,,,,32,31,303,*4D

4:08:19:955 Nachm. 04/01/17 - $GLGSV,3,1,09,78,62,319,20,86,14,021,18,77,47,087,23,88,36,149,30*6A

4:08:19:955 Nachm. 04/01/17 - $GLGSV,3,2,09,87,52,075,28,70,06,357,,79,25,293,,69,27,305,*60

4:08:19:955 Nachm. 04/01/17 - $GLGSV,3,3,09,68,19,250,*5D

4:08:19:957 Nachm. 04/01/17 - $GPGGA,,,,,,0,,,,,,,,*66

4:08:19:957 Nachm. 04/01/17 - $GNGNS,,,,,,NN,,,,,,*53

4:08:19:957 Nachm. 04/01/17 - $GPVTG,,T,,M,,N,,K,N*2C

4:08:19:957 Nachm. 04/01/17 - $GPRMC,,V,,,,,,,,,,N*53

4:08:19:957 Nachm. 04/01/17 - $GPGSA,A,1,,,,,,,,,,,,,,,*1E

4:08:19:957 Nachm. 04/01/17 - $GNGSA,A,1,,,,,,,,,,,,,,,*00

4:09:51:900 Nachm. 04/01/17 - $GPGSV,3,1,12,02,09,127,13,06,18,090,28,12,77,264,26,15,10,184,14*73

4:09:51:900 Nachm. 04/01/17 - $GPGSV,3,2,12,17,20,042,12,19,36,054,24,24,69,142,34,25,32,254,18*75

4:09:51:900 Nachm. 04/01/17 - $GPGSV,3,3,12,10,01,270,,14,14,320,,22,,,,32,31,303,*4D

4:09:51:901 Nachm. 04/01/17 - $GLGSV,3,1,09,78,62,319,20,86,14,021,18,77,47,087,23,88,36,149,30*6A

4:09:51:901 Nachm. 04/01/17 - $GLGSV,3,2,09,87,52,075,28,70,06,357,,79,25,293,,69,27,305,*60

4:09:51:902 Nachm. 04/01/17 - $GLGSV,3,3,09,68,19,250,*5D

4:09:51:902 Nachm. 04/01/17 - $GPGGA,,,,,,0,,,,,,,,*66

4:09:51:902 Nachm. 04/01/17 - $GNGNS,,,,,,NN,,,,,,*53

4:09:51:902 Nachm. 04/01/17 - $GPVTG,,T,,M,,N,,K,N*2C

4:09:51:902 Nachm. 04/01/17 - $GPRMC,,V,,,,,,,,,,N*53

4:09:51:906 Nachm. 04/01/17 - $GPGSA,A,1,,,,,,,,,,,,,,,*1E

4:09:51:906 Nachm. 04/01/17 - $GNGSA,A,1,,,,,,,,,,,,,,,*00

4:09:52:955 Nachm. 04/01/17 - $GPGSV,3,1,12,24,68,142,28,02,09,127,,06,18,090,,10,01,268,*78

4:09:52:956 Nachm. 04/01/17 - $GPGSV,3,2,12,12,77,267,,14,15,320,,15,10,184,,17,19,042,*7B

4:09:52:956 Nachm. 04/01/17 - $GPGSV,3,3,12,19,36,054,,22,,,,25,32,255,,32,31,303,*41

4:09:52:956 Nachm. 04/01/17 - $GLGSV,3,1,09,77,46,087,24,87,52,074,32,78,63,320,,70,06,355,*66

4:09:52:959 Nachm. 04/01/17 - $GLGSV,3,2,09,86,14,021,,79,26,295,,69,27,303,,88,37,149,*63

4:09:52:960 Nachm. 04/01/17 - $GLGSV,3,3,09,68,18,250,*5C

4:09:52:960 Nachm. 04/01/17 - $GPGGA,,,,,,0,,,,,,,,*66

4:09:52:961 Nachm. 04/01/17 - $GNGNS,,,,,,NN,,,,,,*53

4:09:52:961 Nachm. 04/01/17 - $GPVTG,,T,,M,,N,,K,N*2C

4:09:52:961 Nachm. 04/01/17 - $GPRMC,,V,,,,,,,,,,N*53

4:09:52:962 Nachm. 04/01/17 - $GPGSA,A,1,,,,,,,,,,,,,,,*1E

4:09:52:962 Nachm. 04/01/17 - $GNGSA,A,1,,,,,,,,,,,,,,,*00

4:09:53:953 Nachm. 04/01/17 - $GPGSV,3,1,12,06,18,090,29,24,68,142,28,25,32,255,26,02,09,127,*7F

4:09:53:954 Nachm. 04/01/17 - $GPGSV,3,2,12,10,01,268,,12,77,267,,14,15,320,,15,10,184,*7F

4:09:53:954 Nachm. 04/01/17 - $GPGSV,3,3,12,17,19,042,,19,36,054,,22,,,,32,31,303,*4D

4:09:53:960 Nachm. 04/01/17 - $GLGSV,3,1,09,77,46,087,24,69,27,303,20,88,37,149,20,87,52,074,20*6E

4:09:53:960 Nachm. 04/01/17 - $GLGSV,3,2,09,78,63,320,,70,06,355,,86,14,021,,79,26,295,*68

4:09:53:969 Nachm. 04/01/17 - $GLGSV,3,3,09,68,18,250,*5C

4:09:53:971 Nachm. 04/01/17 - $GPGGA,,,,,,0,,,,,,,,*66

4:09:53:972 Nachm. 04/01/17 - $GNGNS,,,,,,NN,,,,,,*53

4:09:53:974 Nachm. 04/01/17 - $GPVTG,,T,,M,,N,,K,N*2C

4:09:53:975 Nachm. 04/01/17 - $GPRMC,,V,,,,,,,,,,N*53

4:09:53:977 Nachm. 04/01/17 - $GPGSA,A,1,,,,,,,,,,,,,,,*1E

4:09:53:978 Nachm. 04/01/17 - $GNGSA,A,1,,,,,,,,,,,,,,,*00

4:09:54:865 Nachm. 04/01/17 - $GPGSV,3,1,12,02,09,127,19,06,18,090,26,12,77,267,27,15,10,184,21*73

4:09:54:866 Nachm. 04/01/17 - $GPGSV,3,2,12,17,19,042,30,24,68,142,30,25,32,255,27,32,31,303,21*7D

4:09:54:872 Nachm. 04/01/17 - $GPGSV,3,3,12,10,01,268,,14,15,320,,19,36,054,,22,,,*4A

4:09:54:874 Nachm. 04/01/17 - $GLGSV,3,1,09,70,06,355,26,86,14,021,29,77,46,087,24,69,27,303,19*62

4:09:54:876 Nachm. 04/01/17 - $GLGSV,3,2,09,88,37,149,19,87,52,074,20,78,63,320,,79,26,295,*6B

4:09:54:885 Nachm. 04/01/17 - $GLGSV,3,3,09,68,18,250,*5C

4:09:54:886 Nachm. 04/01/17 - $GPGGA,,,,,,0,,,,,,,,*66

4:09:54:897 Nachm. 04/01/17 - $GNGNS,,,,,,NN,,,,,,*53

4:09:54:898 Nachm. 04/01/17 - $GPVTG,,T,,M,,N,,K,N*2C

4:09:54:898 Nachm. 04/01/17 - $GPRMC,,V,,,,,,,,,,N*53

4:09:54:899 Nachm. 04/01/17 - $GPGSA,A,1,,,,,,,,,,,,,,,*1E

4:09:54:900 Nachm. 04/01/17 - $GNGSA,A,1,,,,,,,,,,,,,,,*00

4:09:54:953 Nachm. 04/01/17 - $GPGSV,3,1,12,02,09,127,19,06,18,090,26,12,77,267,27,15,10,184,21*73

4:09:54:954 Nachm. 04/01/17 - $GPGSV,3,2,12,17,19,042,30,24,68,142,30,25,32,255,27,32,31,303,21*7D

4:09:54:954 Nachm. 04/01/17 - $GPGSV,3,3,12,10,01,268,,14,15,320,,19,36,054,,22,,,*4A

4:09:54:954 Nachm. 04/01/17 - $GLGSV,3,1,09,70,06,355,26,86,14,021,29,77,46,087,24,69,27,303,19*62

4:09:54:955 Nachm. 04/01/17 - $GLGSV,3,2,09,88,37,149,19,87,52,074,20,78,63,320,,79,26,295,*6B

4:09:54:955 Nachm. 04/01/17 - $GLGSV,3,3,09,68,18,250,*5C

4:09:54:956 Nachm. 04/01/17 - $GPGGA,,,,,,0,,,,,,,,*66

4:09:54:959 Nachm. 04/01/17 - $GNGNS,,,,,,NN,,,,,,*53

4:09:54:960 Nachm. 04/01/17 - $GPVTG,,T,,M,,N,,K,N*2C

4:09:54:960 Nachm. 04/01/17 - $GPRMC,,V,,,,,,,,,,N*53

4:09:54:960 Nachm. 04/01/17 - $GPGSA,A,1,,,,,,,,,,,,,,,*1E

4:09:54:960 Nachm. 04/01/17 - $GNGSA,A,1,,,,,,,,,,,,,,,*00

4:09:55:952 Nachm. 04/01/17 - $GPGSV,3,1,12,02,09,127,17,06,18,090,24,12,78,267,23,15,10,184,20*75

4:09:55:953 Nachm. 04/01/17 - $GPGSV,3,2,12,17,19,042,27,24,68,142,29,25,32,255,28,32,31,303,21*7C

4:09:55:957 Nachm. 04/01/17 - $GPGSV,3,3,12,10,01,268,,14,15,320,,19,36,054,,22,,,*4A

4:09:55:957 Nachm. 04/01/17 - $GLGSV,3,1,09,70,06,355,26,86,14,021,29,77,46,087,15,69,27,303,18*61

4:09:55:957 Nachm. 04/01/17 - $GLGSV,3,2,09,88,37,149,22,87,52,074,20,78,63,320,,79,26,295,*63

4:09:55:957 Nachm. 04/01/17 - $GLGSV,3,3,09,68,18,250,*5C

4:09:55:958 Nachm. 04/01/17 - $GPGGA,,,,,,0,,,,,,,,*66

4:09:55:958 Nachm. 04/01/17 - $GNGNS,,,,,,NN,,,,,,*53

4:09:55:960 Nachm. 04/01/17 - $GPVTG,,T,,M,,N,,K,N*2C

4:09:55:967 Nachm. 04/01/17 - $GPRMC,,V,,,,,,,,,,N*53

4:09:55:967 Nachm. 04/01/17 - $GPGSA,A,1,,,,,,,,,,,,,,,*1E

4:09:55:968 Nachm. 04/01/17 - $GNGSA,A,1,,,,,,,,,,,,,,,*00

4:09:56:954 Nachm. 04/01/17 - $GPGSV,3,1,12,02,09,127,22,06,18,090,19,12,78,267,24,15,10,184,20*7A

4:09:56:955 Nachm. 04/01/17 - $GPGSV,3,2,12,17,19,042,29,19,36,054,18,24,68,142,30,25,32,255,27*70

4:09:56:958 Nachm. 04/01/17 - $GPGSV,3,3,12,32,31,303,27,10,01,268,,14,15,320,,22,,,*40

4:09:56:960 Nachm. 04/01/17 - $GLGSV,3,1,09,70,06,355,21,86,14,021,28,77,46,087,20,69,27,303,17*6E

4:09:56:981 Nachm. 04/01/17 - $GLGSV,3,2,09,88,37,149,23,87,52,074,27,68,18,250,16,78,63,320,*66

4:09:56:981 Nachm. 04/01/17 - $GLGSV,3,3,09,79,26,295,*58

4:09:56:982 Nachm. 04/01/17 - $GPGGA,,,,,,0,,,,,,,,*66

4:09:56:982 Nachm. 04/01/17 - $GNGNS,,,,,,NN,,,,,,*53

4:09:56:983 Nachm. 04/01/17 - $GPVTG,,T,,M,,N,,K,N*2C

4:09:56:983 Nachm. 04/01/17 - $GPRMC,,V,,,,,,,,,,N*53

4:09:56:984 Nachm. 04/01/17 - $GPGSA,A,1,,,,,,,,,,,,,,,*1E

4:09:56:984 Nachm. 04/01/17 - $GNGSA,A,1,,,,,,,,,,,,,,,*00

4:09:57:956 Nachm. 04/01/17 - $GPGSV,3,1,12,02,09,127,22,06,18,090,24,12,78,267,24,15,10,184,20*74

4:09:57:957 Nachm. 04/01/17 - $GPGSV,3,2,12,17,19,042,27,19,36,054,18,24,68,142,31,25,32,255,27*7F

4:09:57:967 Nachm. 04/01/17 - $GPGSV,3,3,12,32,31,303,24,10,01,268,,14,15,320,,22,,,*43

4:09:57:968 Nachm. 04/01/17 - $GLGSV,3,1,09,70,06,355,19,86,14,021,26,77,46,087,16,79,26,295,16*61

4:09:57:975 Nachm. 04/01/17 - $GLGSV,3,2,09,69,27,303,18,88,37,149,25,87,52,074,22,68,18,250,15*6E

4:09:57:977 Nachm. 04/01/17 - $GLGSV,3,3,09,78,63,320,*57

4:09:57:988 Nachm. 04/01/17 - $GPGGA,,,,,,0,,,,,,,,*66

4:09:57:988 Nachm. 04/01/17 - $GNGNS,,,,,,NN,,,,,,*53

4:09:57:988 Nachm. 04/01/17 - $GPVTG,,T,,M,,N,,K,N*2C

4:09:57:989 Nachm. 04/01/17 - $GPRMC,,V,,,,,,,,,,N*53

4:09:57:989 Nachm. 04/01/17 - $GPGSA,A,1,,,,,,,,,,,,,,,*1E

4:09:57:990 Nachm. 04/01/17 - $GNGSA,A,1,,,,,,,,,,,,,,,*00

4:09:58:954 Nachm. 04/01/17 - $GPGSV,3,1,12,02,09,127,22,06,18,090,24,12,78,267,25,15,10,184,20*75

4:09:58:955 Nachm. 04/01/17 - $GPGSV,3,2,12,17,19,042,25,19,36,054,18,24,68,142,31,25,32,255,26*7C

4:09:58:956 Nachm. 04/01/17 - $GPGSV,3,3,12,32,31,303,25,10,01,268,,14,15,320,,22,,,*42

4:09:58:956 Nachm. 04/01/17 - $GLGSV,3,1,09,70,06,355,18,86,14,021,30,77,46,087,16,79,26,295,17*66

4:09:58:956 Nachm. 04/01/17 - $GLGSV,3,2,09,69,27,303,18,88,37,149,27,87,52,074,24,68,18,250,16*69

4:09:58:956 Nachm. 04/01/17 - $GLGSV,3,3,09,78,63,320,*57

4:09:58:961 Nachm. 04/01/17 - $GPGGA,140952.0,5208.444387,N,01138.521110,E,1,06,1.2,85.9,M,45.0,M,,*6D

4:09:58:965 Nachm. 04/01/17 - $GNGNS,140952.0,5208.444387,N,01138.521110,E,AN,06,1.2,85.9,45.0,,*56

4:09:58:967 Nachm. 04/01/17 - $GPVTG,,T,,M,,N,,K,N*2C

4:09:58:968 Nachm. 04/01/17 - $GPRMC,140952.0,A,5208.444387,N,01138.521110,E,,,010417,0.4,E,A*03

4:09:58:968 Nachm. 04/01/17 - $GPGSA,A,2,12,15,17,19,24,32,,,,,,,1.4,1.2,0.8*33

4:09:58:969 Nachm. 04/01/17 - $GNGSA,A,2,12,15,17,19,24,32,,,,,,,1.4,1.2,0.8*2D

4:09:58:969 Nachm. 04/01/17 - $GNGSA,A,2,,,,,,,,,,,,,1.4,1.2,0.8*23

4:09:59:955 Nachm. 04/01/17 - $GPGSV,3,1,12,02,09,127,15,06,18,090,24,12,78,267,22,15,10,184,17*72

4:09:59:956 Nachm. 04/01/17 - $GPGSV,3,2,12,17,19,042,23,19,36,054,17,24,68,142,30,25,32,255,23*71

4:09:59:967 Nachm. 04/01/17 - $GPGSV,3,3,12,32,31,303,21,10,01,268,,14,15,320,,22,,,*46

4:09:59:967 Nachm. 04/01/17 - $GLGSV,3,1,09,70,06,355,18,86,14,021,25,77,46,087,16,79,26,295,22*64

4:09:59:968 Nachm. 04/01/17 - $GLGSV,3,2,09,69,27,303,17,88,37,149,28,87,52,074,22,68,18,250,17*6E

4:09:59:970 Nachm. 04/01/17 - $GLGSV,3,3,09,78,63,320,*57

4:09:59:971 Nachm. 04/01/17 - $GPGGA,140953.0,5208.449220,N,01138.521327,E,1,06,1.2,98.4,M,45.0,M,,*6A

4:09:59:971 Nachm. 04/01/17 - $GNGNS,140953.0,5208.449220,N,01138.521327,E,AN,06,1.2,98.4,45.0,,*51

4:09:59:972 Nachm. 04/01/17 - $GPVTG,,T,,M,,N,,K,N*2C

4:09:59:972 Nachm. 04/01/17 - $GPRMC,140953.0,A,5208.449220,N,01138.521327,E,,,010417,0.4,E,A*05

4:09:59:972 Nachm. 04/01/17 - $GPGSA,A,2,12,15,17,19,24,32,,,,,,,1.4,1.2,0.8*33

4:09:59:972 Nachm. 04/01/17 - $GNGSA,A,2,12,15,17,19,24,32,,,,,,,1.4,1.2,0.8*2D

4:09:59:973 Nachm. 04/01/17 - $GNGSA,A,2,,,,,,,,,,,,,1.4,1.2,0.8*23

4:10:00:954 Nachm. 04/01/17 - $GPGSV,3,1,12,02,09,127,17,06,18,090,21,12,78,267,25,15,10,184,19*7C

4:10:00:955 Nachm. 04/01/17 - $GPGSV,3,2,12,17,19,042,20,19,36,054,16,24,68,142,32,25,32,255,22*70

4:10:00:955 Nachm. 04/01/17 - $GPGSV,3,3,12,32,31,303,21,10,01,268,,14,15,320,,22,,,*46

4:10:00:956 Nachm. 04/01/17 - $GLGSV,3,1,09,70,06,355,18,86,14,021,25,77,46,087,19,79,26,295,22*6B

4:10:00:956 Nachm. 04/01/17 - $GLGSV,3,2,09,69,27,303,17,88,37,149,26,87,52,074,29,68,18,250,17*6B

4:10:00:956 Nachm. 04/01/17 - $GLGSV,3,3,09,78,63,320,*57

4:10:00:962 Nachm. 04/01/17 - $GPGGA,140954.0,5208.451530,N,01138.526248,E,1,06,1.2,104.7,M,45.0,M,,*5A

4:10:00:965 Nachm. 04/01/17 - $GNGNS,140954.0,5208.451530,N,01138.526248,E,AN,06,1.2,104.7,45.0,,*61

4:10:00:965 Nachm. 04/01/17 - $GPVTG,,T,,M,,N,,K,N*2C

4:10:00:970 Nachm. 04/01/17 - $GPRMC,140954.0,A,5208.451530,N,01138.526248,E,,,010417,0.4,E,A*02

4:10:00:974 Nachm. 04/01/17 - $GPGSA,A,2,12,15,17,19,24,32,,,,,,,1.4,1.2,0.8*33

4:10:00:974 Nachm. 04/01/17 - $GNGSA,A,2,12,15,17,19,24,32,,,,,,,1.4,1.2,0.8*2D

4:10:00:974 Nachm. 04/01/17 - $GNGSA,A,2,,,,,,,,,,,,,1.4,1.2,0.8*23

4:10:01:955 Nachm. 04/01/17 - $GPGSV,3,1,12,02,09,127,19,06,18,090,32,12,78,267,30,14,15,320,15*70

4:10:01:955 Nachm. 04/01/17 - $GPGSV,3,2,12,15,10,184,28,17,19,042,25,19,36,054,16,24,68,142,35*74

4:10:01:956 Nachm. 04/01/17 - $GPGSV,3,3,12,25,32,255,21,32,31,303,21,10,01,268,,22,,,*41

4:10:01:957 Nachm. 04/01/17 - $GLGSV,3,1,09,70,06,355,13,86,14,021,31,77,46,087,26,79,26,295,22*69

4:10:01:957 Nachm. 04/01/17 - $GLGSV,3,2,09,69,27,303,17,88,37,149,28,87,52,074,31,68,18,250,17*6C

4:10:01:957 Nachm. 04/01/17 - $GLGSV,3,3,09,78,63,320,*57

4:10:01:961 Nachm. 04/01/17 - $GPGGA,140955.0,5208.447649,N,01138.529768,E,1,06,1.2,97.9,M,45.0,M,,*6C

4:10:01:962 Nachm. 04/01/17 - $GNGNS,140955.0,5208.447649,N,01138.529768,E,AN,06,1.2,97.9,45.0,,*57

4:10:01:962 Nachm. 04/01/17 - $GPVTG,0.6,T,0.1,M,5.5,N,10.1,K,A*14

4:10:01:962 Nachm. 04/01/17 - $GPRMC,140955.0,A,5208.447649,N,01138.529768,E,5.5,0.6,010417,0.4,E,A*07

4:10:01:962 Nachm. 04/01/17 - $GPGSA,A,2,12,15,17,19,24,32,,,,,,,1.4,1.2,0.8*33

4:10:01:963 Nachm. 04/01/17 - $GNGSA,A,2,12,15,17,19,24,32,,,,,,,1.4,1.2,0.8*2D

4:10:01:963 Nachm. 04/01/17 - $GNGSA,A,2,,,,,,,,,,,,,1.4,1.2,0.8*23

4:10:02:954 Nachm. 04/01/17 - $GPGSV,3,1,12,02,09,127,21,06,18,090,30,12,78,267,29,14,15,320,17*73

4:10:02:955 Nachm. 04/01/17 - $GPGSV,3,2,12,15,10,184,25,17,19,042,24,19,36,054,17,24,68,142,35*79

4:10:02:956 Nachm. 04/01/17 - $GPGSV,3,3,12,25,32,255,22,10,01,268,,22,,,,32,31,303,*41

4:10:02:957 Nachm. 04/01/17 - $GLGSV,3,1,09,70,06,355,18,86,14,021,26,77,46,087,24,79,26,295,22*66

4:10:02:957 Nachm. 04/01/17 - $GLGSV,3,2,09,69,27,303,16,88,37,149,28,87,52,074,31,68,18,250,17*6D

4:10:02:958 Nachm. 04/01/17 - $GLGSV,3,3,09,78,63,320,*57

4:10:02:961 Nachm. 04/01/17 - $GPGGA,140956.0,5208.448793,N,01138.528881,E,1,06,1.2,97.9,M,45.0,M,,*6F

4:10:02:966 Nachm. 04/01/17 - $GNGNS,140956.0,5208.448793,N,01138.528881,E,AN,06,1.2,97.9,45.0,,*54

4:10:02:967 Nachm. 04/01/17 - $GPVTG,0.6,T,0.1,M,3.2,N,5.9,K,A*29

4:10:02:967 Nachm. 04/01/17 - $GPRMC,140956.0,A,5208.448793,N,01138.528881,E,3.2,0.6,010417,0.4,E,A*05

4:10:02:967 Nachm. 04/01/17 - $GPGSA,A,2,12,15,17,19,24,32,,,,,,,1.4,1.2,0.8*33

4:10:02:967 Nachm. 04/01/17 - $GNGSA,A,2,12,15,17,19,24,32,,,,,,,1.4,1.2,0.8*2D

4:10:02:967 Nachm. 04/01/17 - $GNGSA,A,2,,,,,,,,,,,,,1.4,1.2,0.8*23

4:10:32:904 Nachm. 04/01/17 - $GPGSV,3,1,12,02,09,127,22,06,18,090,31,12,78,267,29,14,15,320,17*71

4:10:32:904 Nachm. 04/01/17 - $GPGSV,3,2,12,15,10,184,22,17,19,042,24,19,36,054,17,24,68,142,31*7A

4:10:32:905 Nachm. 04/01/17 - $GPGSV,3,3,12,25,32,255,20,10,01,268,,22,,,,32,31,303,*43

4:10:32:905 Nachm. 04/01/17 - $GLGSV,3,1,09,70,06,355,17,86,14,021,31,77,46,087,26,79,26,295,22*6D

4:10:32:906 Nachm. 04/01/17 - $GLGSV,3,2,09,69,27,303,16,88,37,149,29,87,52,074,31,68,18,250,18*63

4:10:32:907 Nachm. 04/01/17 - $GLGSV,3,3,09,78,63,320,*57

4:10:32:908 Nachm. 04/01/17 - $GPGGA,,,,,,0,,,,,,,,*66

4:10:32:908 Nachm. 04/01/17 - $GNGNS,,,,,,NN,,,,,,*53

4:10:32:908 Nachm. 04/01/17 - $GPVTG,,T,,M,,N,,K,N*2C

4:10:32:908 Nachm. 04/01/17 - $GPRMC,,V,,,,,,,,,,N*53

4:10:32:908 Nachm. 04/01/17 - $GPGSA,A,1,,,,,,,,,,,,,,,*1E

4:10:32:909 Nachm. 04/01/17 - $GNGSA,A,1,,,,,,,,,,,,,,,*00

4:10:33:955 Nachm. 04/01/17 - $GPGSV,3,1,12,02,09,127,,06,19,088,,10,01,268,,12,78,267,*7A

4:10:33:956 Nachm. 04/01/17 - $GPGSV,3,2,12,14,15,320,,15,09,184,,17,19,042,,19,36,053,*78

4:10:33:957 Nachm. 04/01/17 - $GPGSV,3,3,12,22,,,,24,68,142,,25,32,255,,32,31,303,*42

4:10:33:976 Nachm. 04/01/17 - $GLGSV,3,1,09,87,52,074,25,78,63,322,,70,07,355,,86,13,021,*67

4:10:33:978 Nachm. 04/01/17 - $GLGSV,3,2,09,77,45,088,,79,26,295,,69,27,303,,88,37,149,*6A

4:10:33:978 Nachm. 04/01/17 - $GLGSV,3,3,09,68,18,248,*55

4:10:33:981 Nachm. 04/01/17 - $GPGGA,,,,,,0,,,,,,,,*66

4:10:33:981 Nachm. 04/01/17 - $GNGNS,,,,,,NN,,,,,,*53

4:10:33:981 Nachm. 04/01/17 - $GPVTG,,T,,M,,N,,K,N*2C

4:10:33:981 Nachm. 04/01/17 - $GPRMC,,V,,,,,,,,,,N*53

4:10:33:982 Nachm. 04/01/17 - $GPGSA,A,1,,,,,,,,,,,,,,,*1E

4:10:33:982 Nachm. 04/01/17 - $GNGSA,A,1,,,,,,,,,,,,,,,*00

4:10:34:868 Nachm. 04/01/17 - $GPGSV,3,1,12,06,19,088,22,17,19,042,22,19,36,053,22,24,68,142,26*7E

4:10:34:868 Nachm. 04/01/17 - $GPGSV,3,2,12,25,32,255,20,32,31,303,23,02,09,127,,10,01,268,*7C

4:10:34:869 Nachm. 04/01/17 - $GPGSV,3,3,12,12,78,267,,14,15,320,,15,09,184,,22,,,*45

4:10:34:869 Nachm. 04/01/17 - $GLGSV,3,1,09,78,63,322,19,77,45,088,19,69,27,303,17,88,37,149,23*63

4:10:34:880 Nachm. 04/01/17 - $GLGSV,3,2,09,87,52,074,26,70,07,355,,86,13,021,,79,26,295,*6A

4:10:34:885 Nachm. 04/01/17 - $GLGSV,3,3,09,68,18,248,*55

4:10:34:887 Nachm. 04/01/17 - $GPGGA,,,,,,0,,,,,,,,*66

4:10:34:888 Nachm. 04/01/17 - $GNGNS,,,,,,NN,,,,,,*53

4:10:34:888 Nachm. 04/01/17 - $GPVTG,,T,,M,,N,,K,N*2C

4:10:34:893 Nachm. 04/01/17 - $GPRMC,,V,,,,,,,,,,N*53

4:10:34:893 Nachm. 04/01/17 - $GPGSA,A,1,,,,,,,,,,,,,,,*1E

4:10:34:894 Nachm. 04/01/17 - $GNGSA,A,1,,,,,,,,,,,,,,,*00

4:10:34:952 Nachm. 04/01/17 - $GPGSV,3,1,12,06,19,088,22,17,19,042,22,19,36,053,22,24,68,142,26*7E

4:10:34:953 Nachm. 04/01/17 - $GPGSV,3,2,12,25,32,255,20,32,31,303,23,02,09,127,,10,01,268,*7C

4:10:34:953 Nachm. 04/01/17 - $GPGSV,3,3,12,12,78,267,,14,15,320,,15,09,184,,22,,,*45

4:10:34:953 Nachm. 04/01/17 - $GLGSV,3,1,09,78,63,322,19,77,45,088,19,69,27,303,17,88,37,149,23*63

4:10:34:953 Nachm. 04/01/17 - $GLGSV,3,2,09,87,52,074,26,70,07,355,,86,13,021,,79,26,295,*6A

4:10:34:961 Nachm. 04/01/17 - $GLGSV,3,3,09,68,18,248,*55

4:10:34:962 Nachm. 04/01/17 - $GPGGA,,,,,,0,,,,,,,,*66

4:10:34:963 Nachm. 04/01/17 - $GNGNS,,,,,,NN,,,,,,*53

4:10:34:971 Nachm. 04/01/17 - $GPVTG,,T,,M,,N,,K,N*2C

4:10:34:972 Nachm. 04/01/17 - $GPRMC,,V,,,,,,,,,,N*53

4:10:34:972 Nachm. 04/01/17 - $GPGSA,A,1,,,,,,,,,,,,,,,*1E

4:10:34:973 Nachm. 04/01/17 - $GNGSA,A,1,,,,,,,,,,,,,,,*00

4:10:35:953 Nachm. 04/01/17 - $GPGSV,3,1,12,06,19,088,19,17,19,042,20,19,36,053,22,24,68,142,27*75

4:10:35:954 Nachm. 04/01/17 - $GPGSV,3,2,12,25,33,255,24,32,31,303,24,02,09,127,,10,01,268,*7E

4:10:35:955 Nachm. 04/01/17 - $GPGSV,3,3,12,12,78,267,,14,15,320,,15,09,184,,22,,,*45

4:10:35:956 Nachm. 04/01/17 - $GLGSV,3,1,09,78,63,322,19,77,45,088,22,69,27,303,18,88,37,149,26*61

4:10:35:976 Nachm. 04/01/17 - $GLGSV,3,2,09,87,52,074,27,70,07,355,,86,13,021,,79,26,295,*6B

4:10:35:978 Nachm. 04/01/17 - $GLGSV,3,3,09,68,18,248,*55

4:10:35:978 Nachm. 04/01/17 - $GPGGA,,,,,,0,,,,,,,,*66

4:10:35:985 Nachm. 04/01/17 - $GNGNS,,,,,,NN,,,,,,*53

4:10:35:985 Nachm. 04/01/17 - $GPVTG,,T,,M,,N,,K,N*2C

4:10:35:986 Nachm. 04/01/17 - $GPRMC,,V,,,,,,,,,,N*53

4:10:35:986 Nachm. 04/01/17 - $GPGSA,A,1,,,,,,,,,,,,,,,*1E

4:10:35:987 Nachm. 04/01/17 - $GNGSA,A,1,,,,,,,,,,,,,,,*00

4:10:36:953 Nachm. 04/01/17 - $GPGSV,3,1,12,06,19,088,24,12,78,267,27,14,15,320,20,17,19,042,27*75

4:10:36:954 Nachm. 04/01/17 - $GPGSV,3,2,12,19,36,053,21,24,68,142,27,25,33,255,22,32,31,303,28*75

4:10:36:955 Nachm. 04/01/17 - $GPGSV,3,3,12,02,09,127,,10,01,268,,15,09,184,,22,,,*49

4:10:36:960 Nachm. 04/01/17 - $GLGSV,3,1,09,78,63,322,21,77,45,088,19,79,26,295,22,69,27,303,20*61

4:10:36:962 Nachm. 04/01/17 - $GLGSV,3,2,09,88,37,149,20,87,52,074,28,68,18,248,20,70,07,355,*6E

4:10:36:964 Nachm. 04/01/17 - $GLGSV,3,3,09,86,13,021,*53

4:10:36:966 Nachm. 04/01/17 - $GPGGA,,,,,,0,,,,,,,,*66

4:10:36:975 Nachm. 04/01/17 - $GNGNS,,,,,,NN,,,,,,*53

4:10:36:978 Nachm. 04/01/17 - $GPVTG,,T,,M,,N,,K,N*2C

4:10:36:978 Nachm. 04/01/17 - $GPRMC,,V,,,,,,,,,,N*53

4:10:36:979 Nachm. 04/01/17 - $GPGSA,A,1,,,,,,,,,,,,,,,*1E

4:10:36:979 Nachm. 04/01/17 - $GNGSA,A,1,,,,,,,,,,,,,,,*00

4:10:37:952 Nachm. 04/01/17 - $GPGSV,3,1,12,06,19,088,25,12,78,267,30,14,15,320,22,17,19,042,26*71

4:10:37:953 Nachm. 04/01/17 - $GPGSV,3,2,12,19,36,053,28,24,68,142,29,25,33,255,21,32,31,303,27*7E

4:10:37:953 Nachm. 04/01/17 - $GPGSV,3,3,12,02,09,127,,10,01,268,,15,09,184,,22,,,*49

4:10:37:953 Nachm. 04/01/17 - $GLGSV,3,1,09,78,63,322,23,70,07,355,20,77,45,088,23,79,26,295,23*62

4:10:37:955 Nachm. 04/01/17 - $GLGSV,3,2,09,69,27,303,18,88,37,149,21,87,52,074,29,68,18,248,23*6D

4:10:37:956 Nachm. 04/01/17 - $GLGSV,3,3,09,86,13,021,*53

4:10:37:956 Nachm. 04/01/17 - $GPGGA,,,,,,0,,,,,,,,*66

4:10:37:956 Nachm. 04/01/17 - $GNGNS,,,,,,NN,,,,,,*53

4:10:37:958 Nachm. 04/01/17 - $GPVTG,,T,,M,,N,,K,N*2C

4:10:37:958 Nachm. 04/01/17 - $GPRMC,,V,,,,,,,,,,N*53

4:10:37:958 Nachm. 04/01/17 - $GPGSA,A,1,,,,,,,,,,,,,,,*1E

4:10:37:959 Nachm. 04/01/17 - $GNGSA,A,1,,,,,,,,,,,,,,,*00

4:10:38:958 Nachm. 04/01/17 - $GPGSV,3,1,12,06,19,088,27,12,78,267,28,14,15,320,22,15,09,184,18*7F

4:10:38:958 Nachm. 04/01/17 - $GPGSV,3,2,12,17,19,042,25,19,36,053,28,24,68,142,30,25,33,255,21*7F

4:10:38:958 Nachm. 04/01/17 - $GPGSV,3,3,12,32,31,303,22,02,09,127,,10,01,268,,22,,,*4A

4:10:38:959 Nachm. 04/01/17 - $GLGSV,3,1,09,78,63,322,19,70,07,355,21,86,13,021,17,77,45,088,17*61

4:10:38:959 Nachm. 04/01/17 - $GLGSV,3,2,09,79,26,295,16,69,27,303,18,88,37,149,18,87,52,074,28*6D

4:10:38:959 Nachm. 04/01/17 - $GLGSV,3,3,09,68,18,248,22*55

4:10:38:959 Nachm. 04/01/17 - $GPGGA,141032.0,5208.444341,N,01138.571120,E,1,06,1.2,72.3,M,45.0,M,,*6D

4:10:38:959 Nachm. 04/01/17 - $GNGNS,141032.0,5208.444341,N,01138.571120,E,AN,06,1.2,72.3,45.0,,*56

4:10:38:964 Nachm. 04/01/17 - $GPVTG,0.6,T,0.1,M,2.6,N,4.8,K,A*2C

4:10:38:965 Nachm. 04/01/17 - $GPRMC,141032.0,A,5208.444341,N,01138.571120,E,2.6,0.6,010417,0.4,E,A*03

4:10:38:965 Nachm. 04/01/17 - $GPGSA,A,2,12,15,17,19,24,32,,,,,,,1.4,1.2,0.8*33

4:10:38:965 Nachm. 04/01/17 - $GNGSA,A,2,12,15,17,19,24,32,,,,,,,1.4,1.2,0.8*2D

4:10:38:965 Nachm. 04/01/17 - $GNGSA,A,2,,,,,,,,,,,,,1.4,1.2,0.8*23

4:10:39:955 Nachm. 04/01/17 - $GPGSV,3,1,12,06,19,088,23,12,78,267,26,14,15,320,22,15,09,184,17*7A

4:10:39:956 Nachm. 04/01/17 - $GPGSV,3,2,12,17,19,042,26,19,36,053,32,24,68,142,29,25,33,255,23*7D

4:10:39:956 Nachm. 04/01/17 - $GPGSV,3,3,12,32,31,303,20,02,09,127,,10,01,268,,22,,,*48

4:10:39:960 Nachm. 04/01/17 - $GLGSV,3,1,09,78,63,322,21,70,07,355,20,86,13,021,18,77,45,088,24*64

4:10:39:962 Nachm. 04/01/17 - $GLGSV,3,2,09,79,26,295,19,69,27,303,18,88,37,149,17,87,52,074,31*65

4:10:39:964 Nachm. 04/01/17 - $GLGSV,3,3,09,68,18,248,23*54

4:10:39:965 Nachm. 04/01/17 - $GPGGA,141033.0,5208.446348,N,01138.573201,E,1,06,1.2,77.3,M,45.0,M,,*60

4:10:39:968 Nachm. 04/01/17 - $GNGNS,141033.0,5208.446348,N,01138.573201,E,AN,06,1.2,77.3,45.0,,*5B

4:10:39:973 Nachm. 04/01/17 - $GPVTG,0.6,T,0.1,M,2.7,N,5.1,K,A*25

4:10:39:974 Nachm. 04/01/17 - $GPRMC,141033.0,A,5208.446348,N,01138.573201,E,2.7,0.6,010417,0.4,E,A*0A

4:10:39:975 Nachm. 04/01/17 - $GPGSA,A,2,12,15,17,19,24,32,,,,,,,1.4,1.2,0.8*33

4:10:39:976 Nachm. 04/01/17 - $GNGSA,A,2,12,15,17,19,24,32,,,,,,,1.4,1.2,0.8*2D

4:10:39:977 Nachm. 04/01/17 - $GNGSA,A,2,,,,,,,,,,,,,1.4,1.2,0.8*23

4:10:40:953 Nachm. 04/01/17 - $GPGSV,3,1,12,06,19,088,22,12,78,267,26,14,15,320,22,15,09,184,17*7B

4:10:40:954 Nachm. 04/01/17 - $GPGSV,3,2,12,17,19,042,29,19,36,053,33,24,68,142,27,25,33,255,22*7C

4:10:40:954 Nachm. 04/01/17 - $GPGSV,3,3,12,32,31,303,18,02,09,127,,10,01,268,,22,,,*43

4:10:40:954 Nachm. 04/01/17 - $GLGSV,3,1,09,78,63,322,21,70,07,355,20,86,13,021,17,77,45,088,26*69

4:10:40:957 Nachm. 04/01/17 - $GLGSV,3,2,09,79,26,295,16,69,27,303,18,88,37,149,17,87,52,074,32*69

4:10:40:957 Nachm. 04/01/17 - $GLGSV,3,3,09,68,18,248,25*52

4:10:40:957 Nachm. 04/01/17 - $GPGGA,141034.0,5208.445668,N,01138.575792,E,1,06,1.2,72.9,M,45.0,M,,*65

4:10:40:957 Nachm. 04/01/17 - $GNGNS,141034.0,5208.445668,N,01138.575792,E,AN,06,1.2,72.9,45.0,,*5E

4:10:40:958 Nachm. 04/01/17 - $GPVTG,0.6,T,0.1,M,2.7,N,5.0,K,A*24

4:10:40:958 Nachm. 04/01/17 - $GPRMC,141034.0,A,5208.445668,N,01138.575792,E,2.7,0.6,010417,0.4,E,A*00

4:10:40:958 Nachm. 04/01/17 - $GPGSA,A,2,12,15,17,19,24,32,,,,,,,1.4,1.2,0.8*33

4:10:40:958 Nachm. 04/01/17 - $GNGSA,A,2,12,15,17,19,24,32,,,,,,,1.4,1.2,0.8*2D

4:10:40:959 Nachm. 04/01/17 - $GNGSA,A,2,,,,,,,,,,,,,1.4,1.2,0.8*23

4:10:41:954 Nachm. 04/01/17 - $GPGSV,3,1,12,06,19,088,25,12,78,267,27,14,15,320,22,15,09,184,16*7C

4:10:41:955 Nachm. 04/01/17 - $GPGSV,3,2,12,17,19,042,29,19,36,053,34,24,68,142,28,25,33,255,23*75

4:10:41:955 Nachm. 04/01/17 - $GPGSV,3,3,12,32,31,303,16,02,09,127,,10,01,268,,22,,,*4D

4:10:41:956 Nachm. 04/01/17 - $GLGSV,3,1,09,78,63,322,19,70,07,355,19,86,13,021,18,77,45,088,25*64

4:10:41:968 Nachm. 04/01/17 - $GLGSV,3,2,09,79,26,295,16,69,27,303,18,88,37,149,15,87,52,074,31*68

4:10:41:978 Nachm. 04/01/17 - $GLGSV,3,3,09,68,18,248,26*51

4:10:41:978 Nachm. 04/01/17 - $GPGGA,141035.0,5208.444591,N,01138.576885,E,1,06,1.2,68.2,M,45.0,M,,*6A

4:10:41:978 Nachm. 04/01/17 - $GNGNS,141035.0,5208.444591,N,01138.576885,E,AN,06,1.2,68.2,45.0,,*51

4:10:41:979 Nachm. 04/01/17 - $GPVTG,0.6,T,0.1,M,2.5,N,4.5,K,A*22

4:10:41:979 Nachm. 04/01/17 - $GPRMC,141035.0,A,5208.444591,N,01138.576885,E,2.5,0.6,010417,0.4,E,A*0D

4:10:41:979 Nachm. 04/01/17 - $GPGSA,A,2,12,15,17,19,24,32,,,,,,,1.4,1.2,0.8*33

4:10:41:979 Nachm. 04/01/17 - $GNGSA,A,2,12,15,17,19,24,32,,,,,,,1.4,1.2,0.8*2D

4:10:41:979 Nachm. 04/01/17 - $GNGSA,A,2,,,,,,,,,,,,,1.4,1.2,0.8*23

4:10:42:953 Nachm. 04/01/17 - $GPGSV,3,1,12,06,19,088,26,12,78,267,26,14,15,320,14,15,09,184,17*7A

4:10:42:954 Nachm. 04/01/17 - $GPGSV,3,2,12,17,19,042,24,19,36,053,34,24,68,142,27,25,33,255,24*70

4:10:42:954 Nachm. 04/01/17 - $GPGSV,3,3,12,32,31,303,16,02,09,127,,10,01,268,,22,,,*4D

4:10:42:976 Nachm. 04/01/17 - $GLGSV,3,1,09,78,63,322,19,70,07,355,17,86,13,021,18,77,45,088,25*6A

4:10:42:976 Nachm. 04/01/17 - $GLGSV,3,2,09,79,26,295,16,69,27,303,18,88,37,149,15,87,52,074,30*69

4:10:42:976 Nachm. 04/01/17 - $GLGSV,3,3,09,68,18,248,25*52

4:10:42:977 Nachm. 04/01/17 - $GPGGA,141036.0,5208.443165,N,01138.578235,E,1,06,1.2,63.3,M,45.0,M,,*64

4:10:42:978 Nachm. 04/01/17 - $GNGNS,141036.0,5208.443165,N,01138.578235,E,AN,06,1.2,63.3,45.0,,*5F

4:10:42:978 Nachm. 04/01/17 - $GPVTG,0.6,T,0.1,M,2.8,N,5.1,K,A*2A

4:10:42:979 Nachm. 04/01/17 - $GPRMC,141036.0,A,5208.443165,N,01138.578235,E,2.8,0.6,010417,0.4,E,A*04

4:10:42:979 Nachm. 04/01/17 - $GPGSA,A,2,12,15,17,19,24,32,,,,,,,1.4,1.2,0.8*33

4:10:42:979 Nachm. 04/01/17 - $GNGSA,A,2,12,15,17,19,24,32,,,,,,,1.4,1.2,0.8*2D

4:10:42:980 Nachm. 04/01/17 - $GNGSA,A,2,,,,,,,,,,,,,1.4,1.2,0.8*23

4:10:43:953 Nachm. 04/01/17 - $GPGSV,3,1,12,06,19,088,24,12,78,267,29,14,15,320,14,15,09,184,17*77

4:10:43:953 Nachm. 04/01/17 - $GPGSV,3,2,12,17,19,042,27,19,36,053,34,24,68,142,29,25,33,255,22*7B

4:10:43:953 Nachm. 04/01/17 - $GPGSV,3,3,12,32,31,303,18,02,09,127,,10,01,268,,22,,,*43

4:10:43:960 Nachm. 04/01/17 - $GLGSV,3,1,09,78,63,322,18,70,07,355,17,86,13,021,18,77,45,088,27*69

4:10:43:967 Nachm. 04/01/17 - $GLGSV,3,2,09,79,26,295,16,69,27,303,18,88,37,149,14,87,52,074,31*69

4:10:43:967 Nachm. 04/01/17 - $GLGSV,3,3,09,68,18,248,27*50

4:10:43:968 Nachm. 04/01/17 - $GPGGA,141037.0,5208.444600,N,01138.581132,E,1,06,1.2,68.8,M,45.0,M,,*64

4:10:43:968 Nachm. 04/01/17 - $GNGNS,141037.0,5208.444600,N,01138.581132,E,AN,06,1.2,68.8,45.0,,*5F

4:10:43:969 Nachm. 04/01/17 - $GPVTG,95.7,T,95.3,M,3.3,N,6.2,K,A*23

4:10:43:969 Nachm. 04/01/17 - $GPRMC,141037.0,A,5208.444600,N,01138.581132,E,3.3,95.7,010417,0.4,E,A*33

4:10:43:969 Nachm. 04/01/17 - $GPGSA,A,2,12,15,17,19,24,32,,,,,,,1.4,1.2,0.8*33

4:10:43:969 Nachm. 04/01/17 - $GNGSA,A,2,12,15,17,19,24,32,,,,,,,1.4,1.2,0.8*2D

4:10:43:969 Nachm. 04/01/17 - $GNGSA,A,2,,,,,,,,,,,,,1.4,1.2,0.8*23

4:10:44:955 Nachm. 04/01/17 - $GPGSV,3,1,12,06,19,088,25,12,78,267,31,14,15,320,14,15,09,184,18*70

4:10:44:959 Nachm. 04/01/17 - $GPGSV,3,2,12,17,19,042,27,19,36,053,34,24,68,142,30,25,33,255,25*74

4:10:44:960 Nachm. 04/01/17 - $GPGSV,3,3,12,32,31,303,20,02,09,127,,10,01,268,,22,,,*48

4:10:44:961 Nachm. 04/01/17 - $GLGSV,3,1,09,78,63,322,22,70,07,355,17,86,13,021,18,77,45,088,27*60

4:10:44:973 Nachm. 04/01/17 - $GLGSV,3,2,09,79,26,295,16,69,27,303,18,88,37,149,19,87,52,074,31*64

4:10:44:977 Nachm. 04/01/17 - $GLGSV,3,3,09,68,18,248,25*52

4:10:44:977 Nachm. 04/01/17 - $GPGGA,141038.0,5208.444020,N,01138.582815,E,1,06,1.1,68.1,M,45.0,M,,*6A

4:10:44:978 Nachm. 04/01/17 - $GNGNS,141038.0,5208.444020,N,01138.582815,E,AA,07,1.1,68.1,45.0,,*5F

4:10:44:978 Nachm. 04/01/17 - $GPVTG,93.5,T,93.0,M,3.0,N,5.6,K,A*26

4:10:44:979 Nachm. 04/01/17 - $GPRMC,141038.0,A,5208.444020,N,01138.582815,E,3.0,93.5,010417,0.4,E,A*30

4:10:44:979 Nachm. 04/01/17 - $GPGSA,A,2,12,15,17,19,24,32,,,,,,,1.4,1.1,0.8*30

4:10:44:980 Nachm. 04/01/17 - $GNGSA,A,2,12,15,17,19,24,32,,,,,,,1.4,1.1,0.8*2E

4:10:44:980 Nachm. 04/01/17 - $GNGSA,A,2,87,,,,,,,,,,,,1.4,1.1,0.8*2F

4:10:45:956 Nachm. 04/01/17 - $GPGSV,3,1,12,02,09,127,13,06,19,088,25,12,78,267,29,14,15,320,14*7D

4:10:45:960 Nachm. 04/01/17 - $GPGSV,3,2,12,15,09,184,18,17,19,042,27,19,36,053,34,24,68,142,29*77

4:10:45:961 Nachm. 04/01/17 - $GPGSV,3,3,12,25,33,255,25,32,31,303,21,10,01,268,,22,,,*44

4:10:45:962 Nachm. 04/01/17 - $GLGSV,3,1,09,78,63,322,24,70,07,355,17,86,13,021,18,77,45,088,24*65

4:10:45:968 Nachm. 04/01/17 - $GLGSV,3,2,09,79,26,295,20,69,27,303,12,88,37,149,20,87,52,074,32*62

4:10:45:972 Nachm. 04/01/17 - $GLGSV,3,3,09,68,18,248,23*54

4:10:45:972 Nachm. 04/01/17 - $GPGGA,141039.0,5208.444894,N,01138.584798,E,1,06,1.1,70.6,M,45.0,M,,*6E

4:10:45:972 Nachm. 04/01/17 - $GNGNS,141039.0,5208.444894,N,01138.584798,E,AA,07,1.1,70.6,45.0,,*5B

4:10:45:972 Nachm. 04/01/17 - $GPVTG,95.2,T,94.7,M,3.0,N,5.5,K,A*24

4:10:45:973 Nachm. 04/01/17 - $GPRMC,141039.0,A,5208.444894,N,01138.584798,E,3.0,95.2,010417,0.4,E,A*3B

4:10:45:973 Nachm. 04/01/17 - $GPGSA,A,2,12,15,17,19,24,32,,,,,,,1.4,1.1,0.8*30

4:10:45:973 Nachm. 04/01/17 - $GNGSA,A,2,12,15,17,19,24,32,,,,,,,1.4,1.1,0.8*2E

4:10:45:976 Nachm. 04/01/17 - $GNGSA,A,2,87,,,,,,,,,,,,1.4,1.1,0.8*2F

4:10:46:953 Nachm. 04/01/17 - $GPGSV,3,1,12,02,09,127,14,06,19,088,19,12,78,267,28,14,15,320,14*74

4:10:46:954 Nachm. 04/01/17 - $GPGSV,3,2,12,15,09,184,24,17,19,042,27,19,36,053,32,24,68,142,28*7F

4:10:46:954 Nachm. 04/01/17 - $GPGSV,3,3,12,25,33,255,26,32,31,303,22,10,01,268,,22,,,*44

4:10:46:954 Nachm. 04/01/17 - $GLGSV,3,1,09,78,63,322,24,70,07,355,17,86,13,021,19,77,45,088,25*65

4:10:46:954 Nachm. 04/01/17 - $GLGSV,3,2,09,79,26,295,17,69,27,303,17,88,37,149,21,87,52,074,32*62

4:10:46:958 Nachm. 04/01/17 - $GLGSV,3,3,09,68,18,248,22*55

4:10:46:959 Nachm. 04/01/17 - $GPGGA,141040.0,5208.445291,N,01138.586485,E,1,06,1.1,72.4,M,45.0,M,,*63

4:10:46:959 Nachm. 04/01/17 - $GNGNS,141040.0,5208.445291,N,01138.586485,E,AA,07,1.1,72.4,45.0,,*56

4:10:46:960 Nachm. 04/01/17 - $GPVTG,99.0,T,98.6,M,2.9,N,5.4,K,A*2E

4:10:46:961 Nachm. 04/01/17 - $GPRMC,141040.0,A,5208.445291,N,01138.586485,E,2.9,99.0,010417,0.4,E,A*30

4:10:46:961 Nachm. 04/01/17 - $GPGSA,A,2,12,15,17,19,24,32,,,,,,,1.4,1.1,0.8*30

4:10:46:961 Nachm. 04/01/17 - $GNGSA,A,2,12,15,17,19,24,32,,,,,,,1.4,1.1,0.8*2E

4:10:46:961 Nachm. 04/01/17 - $GNGSA,A,2,87,,,,,,,,,,,,1.4,1.1,0.8*2F

4:10:47:953 Nachm. 04/01/17 - $GPGSV,3,1,12,02,09,127,15,06,19,088,23,12,78,267,30,14,15,320,14*75

4:10:47:954 Nachm. 04/01/17 - $GPGSV,3,2,12,15,09,184,24,17,19,042,28,19,36,053,31,24,68,142,28*73

4:10:47:954 Nachm. 04/01/17 - $GPGSV,3,3,12,25,33,255,26,32,31,303,22,10,01,268,,22,,,*44

4:10:47:954 Nachm. 04/01/17 - $GLGSV,3,1,09,78,63,322,24,70,07,355,17,86,13,021,19,77,45,088,27*67

4:10:47:956 Nachm. 04/01/17 - $GLGSV,3,2,09,79,26,295,18,69,27,303,17,88,37,149,20,87,52,074,33*6D

4:10:47:958 Nachm. 04/01/17 - $GLGSV,3,3,09,68,18,248,25*52

4:10:47:958 Nachm. 04/01/17 - $GPGGA,141041.0,5208.440896,N,01138.586296,E,1,06,1.1,56.9,M,45.0,M,,*65

4:10:47:959 Nachm. 04/01/17 - $GNGNS,141041.0,5208.440896,N,01138.586296,E,AA,07,1.1,56.9,45.0,,*50

4:10:47:962 Nachm. 04/01/17 - $GPVTG,97.0,T,96.6,M,2.7,N,5.0,K,A*24

4:10:47:963 Nachm. 04/01/17 - $GPRMC,141041.0,A,5208.440896,N,01138.586296,E,2.7,97.0,010417,0.4,E,A*3D

4:10:47:963 Nachm. 04/01/17 - $GPGSA,A,2,12,15,17,19,24,32,,,,,,,1.4,1.1,0.8*30

4:10:47:963 Nachm. 04/01/17 - $GNGSA,A,2,12,15,17,19,24,32,,,,,,,1.4,1.1,0.8*2E

4:10:47:965 Nachm. 04/01/17 - $GNGSA,A,2,87,,,,,,,,,,,,1.4,1.1,0.8*2F

4:10:48:954 Nachm. 04/01/17 - $GPGSV,3,1,12,02,09,127,20,06,19,088,22,12,78,267,30,14,15,320,16*70

4:10:48:954 Nachm. 04/01/17 - $GPGSV,3,2,12,15,09,184,26,17,19,042,33,19,36,053,35,24,68,142,30*76

4:10:48:955 Nachm. 04/01/17 - $GPGSV,3,3,12,25,33,255,26,32,31,303,27,10,01,268,,22,,,*41

4:10:48:955 Nachm. 04/01/17 - $GLGSV,3,1,09,78,63,322,26,70,07,355,12,86,13,021,19,77,45,088,27*60

4:10:48:961 Nachm. 04/01/17 - $GLGSV,3,2,09,79,26,295,21,69,27,303,18,88,37,149,23,87,52,074,33*6B

4:10:48:973 Nachm. 04/01/17 - $GLGSV,3,3,09,68,18,248,25*52

4:10:48:973 Nachm. 04/01/17 - $GPGGA,141042.0,5208.441297,N,01138.587275,E,1,06,1.1,57.4,M,45.0,M,,*6C

4:10:48:974 Nachm. 04/01/17 - $GNGNS,141042.0,5208.441297,N,01138.587275,E,AA,07,1.1,57.4,45.0,,*59

4:10:48:974 Nachm. 04/01/17 - $GPVTG,90.8,T,90.3,M,2.7,N,4.9,K,A*20

4:10:48:974 Nachm. 04/01/17 - $GPRMC,141042.0,A,5208.441297,N,01138.587275,E,2.7,90.8,010417,0.4,E,A*37

4:10:48:974 Nachm. 04/01/17 - $GPGSA,A,2,12,15,17,19,24,32,,,,,,,1.4,1.1,0.8*30

4:10:48:975 Nachm. 04/01/17 - $GNGSA,A,2,12,15,17,19,24,32,,,,,,,1.4,1.1,0.8*2E

4:10:48:975 Nachm. 04/01/17 - $GNGSA,A,2,87,,,,,,,,,,,,1.4,1.1,0.8*2F

4:10:49:955 Nachm. 04/01/17 - $GPGSV,3,1,12,02,09,127,18,06,19,088,18,12,78,267,27,14,15,320,16*74

4:10:49:956 Nachm. 04/01/17 - $GPGSV,3,2,12,15,09,184,29,17,19,042,32,19,36,053,35,24,68,142,29*70

4:10:49:958 Nachm. 04/01/17 - $GPGSV,3,3,12,25,33,255,24,32,31,303,24,10,01,268,,22,,,*40

4:10:49:960 Nachm. 04/01/17 - $GLGSV,3,1,09,78,63,322,24,70,07,355,12,86,13,021,22,77,45,088,23*6E

4:10:49:963 Nachm. 04/01/17 - $GLGSV,3,2,09,79,26,295,17,69,27,303,21,88,37,149,16,87,52,074,30*61

4:10:49:963 Nachm. 04/01/17 - $GLGSV,3,3,09,68,18,248,19*5D

4:10:49:963 Nachm. 04/01/17 - $GPGGA,141043.0,5208.440726,N,01138.587841,E,1,06,1.1,55.4,M,45.0,M,,*6C

4:10:49:964 Nachm. 04/01/17 - $GNGNS,141043.0,5208.440726,N,01138.587841,E,AA,07,1.1,55.4,45.0,,*59

4:10:49:964 Nachm. 04/01/17 - $GPVTG,94.6,T,94.2,M,2.6,N,4.8,K,A*2F

4:10:49:964 Nachm. 04/01/17 - $GPRMC,141043.0,A,5208.440726,N,01138.587841,E,2.6,94.6,010417,0.4,E,A*3E

4:10:49:970 Nachm. 04/01/17 - $GPGSA,A,2,12,15,17,19,24,32,,,,,,,1.4,1.1,0.8*30

4:10:49:970 Nachm. 04/01/17 - $GNGSA,A,2,12,15,17,19,24,32,,,,,,,1.4,1.1,0.8*2E

4:10:49:971 Nachm. 04/01/17 - $GNGSA,A,2,87,,,,,,,,,,,,1.4,1.1,0.8*2F

4:10:50:954 Nachm. 04/01/17 - $GPGSV,3,1,12,02,09,127,19,06,19,088,18,12,78,267,25,14,15,320,16*77

4:10:50:954 Nachm. 04/01/17 - $GPGSV,3,2,12,15,09,184,29,17,19,042,32,19,36,053,34,24,68,142,31*78

4:10:50:955 Nachm. 04/01/17 - $GPGSV,3,3,12,25,33,255,27,32,31,303,20,10,01,268,,22,,,*47

4:10:50:971 Nachm. 04/01/17 - $GLGSV,3,1,09,78,63,322,22,70,07,355,12,86,13,021,18,77,45,088,23*61

4:10:50:976 Nachm. 04/01/17 - $GLGSV,3,2,09,79,26,295,18,69,27,303,21,88,37,149,23,87,52,074,31*69

4:10:50:977 Nachm. 04/01/17 - $GLGSV,3,3,09,68,18,248,23*54

4:10:50:978 Nachm. 04/01/17 - $GPGGA,141044.0,5208.439918,N,01138.588372,E,1,06,1.1,52.9,M,45.0,M,,*68

4:10:50:978 Nachm. 04/01/17 - $GNGNS,141044.0,5208.439918,N,01138.588372,E,AA,07,1.1,52.9,45.0,,*5D

4:10:50:979 Nachm. 04/01/17 - $GPVTG,94.6,T,94.2,M,0.0,N,0.0,K,A*27

4:10:50:997 Nachm. 04/01/17 - $GPRMC,141044.0,A,5208.439918,N,01138.588372,E,0.0,94.6,010417,0.4,E,A*34

4:10:50:998 Nachm. 04/01/17 - $GPGSA,A,2,12,15,17,19,24,32,,,,,,,1.4,1.1,0.8*30

4:10:50:998 Nachm. 04/01/17 - $GNGSA,A,2,12,15,17,19,24,32,,,,,,,1.4,1.1,0.8*2E

4:10:50:998 Nachm. 04/01/17 - $GNGSA,A,2,87,,,,,,,,,,,,1.4,1.1,0.8*2F

4:10:51:953 Nachm. 04/01/17 - $GPGSV,3,1,12,02,09,127,20,06,19,088,19,12,78,267,27,14,15,320,16*7E

4:10:51:954 Nachm. 04/01/17 - $GPGSV,3,2,12,15,09,184,28,17,19,042,32,19,36,053,35,24,68,142,31*78

4:10:51:955 Nachm. 04/01/17 - $GPGSV,3,3,12,25,33,255,27,32,31,303,24,10,01,268,,22,,,*43

4:10:51:962 Nachm. 04/01/17 - $GLGSV,3,1,09,78,63,322,19,70,07,355,12,86,13,021,20,77,45,088,27*66

4:10:51:964 Nachm. 04/01/17 - $GLGSV,3,2,09,79,26,295,18,69,27,303,17,88,37,149,28,87,52,074,34*62

4:10:51:965 Nachm. 04/01/17 - $GLGSV,3,3,09,68,18,248,28*5F

4:10:51:966 Nachm. 04/01/17 - $GPGGA,141045.0,5208.439835,N,01138.588085,E,1,06,1.1,51.6,M,45.0,M,,*60

4:10:51:968 Nachm. 04/01/17 - $GNGNS,141045.0,5208.439835,N,01138.588085,E,AA,07,1.1,51.6,45.0,,*55

4:10:51:975 Nachm. 04/01/17 - $GPVTG,94.6,T,94.2,M,0.0,N,0.0,K,A*27

4:10:51:981 Nachm. 04/01/17 - $GPRMC,141045.0,A,5208.439835,N,01138.588085,E,0.0,94.6,010417,0.4,E,A*30

4:10:51:986 Nachm. 04/01/17 - $GPGSA,A,2,12,15,17,19,24,32,,,,,,,1.4,1.1,0.8*30

4:10:51:986 Nachm. 04/01/17 - $GNGSA,A,2,12,15,17,19,24,32,,,,,,,1.4,1.1,0.8*2E

4:10:51:987 Nachm. 04/01/17 - $GNGSA,A,2,87,,,,,,,,,,,,1.4,1.1,0.8*2F

4:10:52:952 Nachm. 04/01/17 - $GPGSV,3,1,12,02,09,127,20,06,19,088,20,12,78,267,29,14,15,320,14*78

4:10:52:954 Nachm. 04/01/17 - $GPGSV,3,2,12,15,09,184,23,17,19,042,30,19,36,053,34,24,68,142,31*70

4:10:52:954 Nachm. 04/01/17 - $GPGSV,3,3,12,25,33,255,28,32,31,303,27,10,01,268,,22,,,*4F

4:10:52:954 Nachm. 04/01/17 - $GLGSV,3,1,09,78,63,322,16,70,07,355,12,86,13,021,20,77,45,088,29*67

4:10:52:956 Nachm. 04/01/17 - $GLGSV,3,2,09,79,26,295,16,69,27,303,17,88,37,149,27,87,52,074,36*61

4:10:52:956 Nachm. 04/01/17 - $GLGSV,3,3,09,68,18,248,27*50

4:10:52:956 Nachm. 04/01/17 - $GPGGA,141046.0,5208.439769,N,01138.588116,E,1,06,1.1,51.7,M,45.0,M,,*6F

4:10:52:961 Nachm. 04/01/17 - $GNGNS,141046.0,5208.439769,N,01138.588116,E,AA,07,1.1,51.7,45.0,,*5A

4:10:52:962 Nachm. 04/01/17 - $GPVTG,94.6,T,94.2,M,0.0,N,0.0,K,A*27

4:10:52:963 Nachm. 04/01/17 - $GPRMC,141046.0,A,5208.439769,N,01138.588116,E,0.0,94.6,010417,0.4,E,A*3E

4:10:52:963 Nachm. 04/01/17 - $GPGSA,A,2,12,15,17,19,24,32,,,,,,,1.4,1.1,0.8*30

4:10:52:964 Nachm. 04/01/17 - $GNGSA,A,2,12,15,17,19,24,32,,,,,,,1.4,1.1,0.8*2E

4:10:52:965 Nachm. 04/01/17 - $GNGSA,A,2,87,,,,,,,,,,,,1.4,1.1,0.8*2F

4:10:53:954 Nachm. 04/01/17 - $GPGSV,3,1,12,02,09,127,20,06,19,088,30,12,78,267,30,14,15,320,18*7D

4:10:53:955 Nachm. 04/01/17 - $GPGSV,3,2,12,15,09,184,26,17,19,042,23,19,36,053,30,24,68,142,32*70

4:10:53:957 Nachm. 04/01/17 - $GPGSV,3,3,12,25,33,255,25,32,31,303,28,10,01,268,,22,,,*4D

4:10:53:959 Nachm. 04/01/17 - $GLGSV,3,1,09,78,63,322,22,70,07,355,12,86,13,021,20,77,45,088,32*6A

4:10:53:970 Nachm. 04/01/17 - $GLGSV,3,2,09,79,26,295,18,69,27,303,18,88,37,149,28,87,52,074,35*6C

4:10:53:979 Nachm. 04/01/17 - $GLGSV,3,3,09,68,18,248,22*55

4:10:53:980 Nachm. 04/01/17 - $GPGGA,141047.0,5208.439684,N,01138.588233,E,1,06,1.1,51.9,M,45.0,M,,*66

4:10:53:981 Nachm. 04/01/17 - $GNGNS,141047.0,5208.439684,N,01138.588233,E,AA,07,1.1,51.9,45.0,,*53

4:10:53:981 Nachm. 04/01/17 - $GPVTG,94.6,T,94.2,M,0.0,N,0.0,K,A*27

4:10:53:982 Nachm. 04/01/17 - $GPRMC,141047.0,A,5208.439684,N,01138.588233,E,0.0,94.6,010417,0.4,E,A*39

4:10:53:983 Nachm. 04/01/17 - $GPGSA,A,2,12,15,17,19,24,32,,,,,,,1.4,1.1,0.8*30

4:10:53:983 Nachm. 04/01/17 - $GNGSA,A,2,12,15,17,19,24,32,,,,,,,1.4,1.1,0.8*2E

4:10:53:984 Nachm. 04/01/17 - $GNGSA,A,2,87,,,,,,,,,,,,1.4,1.1,0.8*2F

4:10:54:954 Nachm. 04/01/17 - $GPGSV,3,1,12,02,09,127,15,06,19,088,28,12,78,267,30,14,15,320,18*72

4:10:54:955 Nachm. 04/01/17 - $GPGSV,3,2,12,15,09,184,24,17,19,042,28,19,36,053,33,24,68,142,30*78

4:10:54:955 Nachm. 04/01/17 - $GPGSV,3,3,12,25,33,255,27,32,31,303,25,10,01,268,,22,,,*42

4:10:54:956 Nachm. 04/01/17 - $GLGSV,3,1,09,78,63,322,16,70,07,355,12,86,13,021,29,77,45,088,28*6F

4:10:54:966 Nachm. 04/01/17 - $GLGSV,3,2,09,79,26,295,19,69,27,303,18,88,37,149,21,87,52,074,36*67

4:10:54:974 Nachm. 04/01/17 - $GLGSV,3,3,09,68,18,248,26*51

4:10:54:976 Nachm. 04/01/17 - $GPGGA,141048.0,5208.439566,N,01138.588483,E,1,06,1.1,52.3,M,45.0,M,,*62

4:10:54:982 Nachm. 04/01/17 - $GNGNS,141048.0,5208.439566,N,01138.588483,E,AA,07,1.1,52.3,45.0,,*57

4:10:54:984 Nachm. 04/01/17 - $GPVTG,94.6,T,94.2,M,0.0,N,0.0,K,A*27

4:10:54:987 Nachm. 04/01/17 - $GPRMC,141048.0,A,5208.439566,N,01138.588483,E,0.0,94.6,010417,0.4,E,A*34

4:10:54:988 Nachm. 04/01/17 - $GPGSA,A,2,12,15,17,19,24,32,,,,,,,1.4,1.1,0.8*30

4:10:54:988 Nachm. 04/01/17 - $GNGSA,A,2,12,15,17,19,24,32,,,,,,,1.4,1.1,0.8*2E

4:10:54:989 Nachm. 04/01/17 - $GNGSA,A,2,87,,,,,,,,,,,,1.4,1.1,0.8*2F

4:10:55:956 Nachm. 04/01/17 - $GPGSV,3,1,12,02,09,127,15,06,19,088,29,12,78,267,32,14,15,320,18*71

4:10:55:957 Nachm. 04/01/17 - $GPGSV,3,2,12,15,09,184,26,17,19,042,29,19,36,053,32,24,68,142,30*7A

4:10:55:958 Nachm. 04/01/17 - $GPGSV,3,3,12,25,33,255,27,32,31,303,22,10,01,268,,22,,,*45

4:10:55:958 Nachm. 04/01/17 - $GLGSV,3,1,09,78,63,322,18,70,07,355,12,86,13,021,33,77,45,088,28*6A

4:10:55:958 Nachm. 04/01/17 - $GLGSV,3,2,09,79,26,295,21,69,27,303,18,88,37,149,19,87,52,074,35*64

4:10:55:959 Nachm. 04/01/17 - $GLGSV,3,3,09,68,18,248,27*50

4:10:55:959 Nachm. 04/01/17 - $GPGGA,141049.0,5208.439156,N,01138.588543,E,1,06,1.1,52.3,M,45.0,M,,*69

4:10:55:959 Nachm. 04/01/17 - $GNGNS,141049.0,5208.439156,N,01138.588543,E,AA,07,1.1,52.3,45.0,,*5C

4:10:55:960 Nachm. 04/01/17 - $GPVTG,174.8,T,174.4,M,2.6,N,4.8,K,A*27

4:10:55:977 Nachm. 04/01/17 - $GPRMC,141049.0,A,5208.439156,N,01138.588543,E,2.6,174.8,010417,0.4,E,A*0A

4:10:55:978 Nachm. 04/01/17 - $GPGSA,A,2,12,15,17,19,24,32,,,,,,,1.4,1.1,0.8*30

4:10:55:978 Nachm. 04/01/17 - $GNGSA,A,2,12,15,17,19,24,32,,,,,,,1.4,1.1,0.8*2E

4:10:55:979 Nachm. 04/01/17 - $GNGSA,A,2,87,,,,,,,,,,,,1.4,1.1,0.8*2F

4:10:56:953 Nachm. 04/01/17 - $GPGSV,3,1,12,02,09,127,15,06,19,088,33,12,78,267,31,14,15,320,16*77

4:10:56:953 Nachm. 04/01/17 - $GPGSV,3,2,12,15,09,184,23,17,19,042,23,19,36,053,32,24,68,142,30*75

4:10:56:956 Nachm. 04/01/17 - $GPGSV,3,3,12,25,33,255,23,32,31,303,27,10,01,268,,22,,,*44

4:10:56:956 Nachm. 04/01/17 - $GLGSV,3,1,09,78,63,322,19,70,07,355,12,86,13,021,26,77,45,088,30*66

4:10:56:962 Nachm. 04/01/17 - $GLGSV,3,2,09,79,26,295,22,69,27,303,17,88,37,149,25,87,52,074,36*64

4:10:56:962 Nachm. 04/01/17 - $GLGSV,3,3,09,68,18,248,22*55

4:10:56:963 Nachm. 04/01/17 - $GPGGA,141050.0,5208.438456,N,01138.587968,E,1,06,1.1,52.1,M,45.0,M,,*6D

4:10:56:963 Nachm. 04/01/17 - $GNGNS,141050.0,5208.438456,N,01138.587968,E,AA,07,1.1,52.1,45.0,,*58

4:10:56:963 Nachm. 04/01/17 - $GPVTG,178.0,T,177.5,M,2.5,N,4.6,K,A*2C

4:10:56:963 Nachm. 04/01/17 - $GPRMC,141050.0,A,5208.438456,N,01138.587968,E,2.5,178.0,010417,0.4,E,A*0B

4:10:56:963 Nachm. 04/01/17 - $GPGSA,A,2,12,15,17,19,24,32,,,,,,,1.4,1.1,0.8*30

4:10:56:964 Nachm. 04/01/17 - $GNGSA,A,2,12,15,17,19,24,32,,,,,,,1.4,1.1,0.8*2E

4:10:56:964 Nachm. 04/01/17 - $GNGSA,A,2,87,,,,,,,,,,,,1.4,1.1,0.8*2F

4:10:57:952 Nachm. 04/01/17 - $GPGSV,3,1,12,02,09,127,15,06,19,088,36,12,78,267,27,14,15,320,18*7B

4:10:57:956 Nachm. 04/01/17 - $GPGSV,3,2,12,15,09,184,26,17,19,042,22,19,36,053,32,24,68,142,34*75

4:10:57:956 Nachm. 04/01/17 - $GPGSV,3,3,12,25,33,255,28,32,31,303,28,10,01,268,,22,,,*40

4:10:57:957 Nachm. 04/01/17 - $GLGSV,3,1,09,78,63,322,18,70,07,355,12,86,13,021,23,77,45,088,28*6B

4:10:57:961 Nachm. 04/01/17 - $GLGSV,3,2,09,79,26,295,20,69,27,303,18,88,37,149,24,87,52,074,33*6D

4:10:57:961 Nachm. 04/01/17 - $GLGSV,3,3,09,68,18,248,19*5D

4:10:57:962 Nachm. 04/01/17 - $GPGGA,141051.0,5208.437598,N,01138.587628,E,1,06,1.1,51.3,M,45.0,M,,*6A

4:10:57:962 Nachm. 04/01/17 - $GNGNS,141051.0,5208.437598,N,01138.587628,E,AA,07,1.1,51.3,45.0,,*5F

4:10:57:962 Nachm. 04/01/17 - $GPVTG,178.8,T,178.4,M,3.0,N,5.6,K,A*2F

4:10:57:963 Nachm. 04/01/17 - $GPRMC,141051.0,A,5208.437598,N,01138.587628,E,3.0,178.8,010417,0.4,E,A*01

4:10:57:963 Nachm. 04/01/17 - $GPGSA,A,2,12,15,17,19,24,32,,,,,,,1.4,1.1,0.8*30

4:10:57:963 Nachm. 04/01/17 - $GNGSA,A,2,12,15,17,19,24,32,,,,,,,1.4,1.1,0.8*2E

4:10:57:973 Nachm. 04/01/17 - $GNGSA,A,2,87,,,,,,,,,,,,1.4,1.1,0.8*2F

4:10:58:952 Nachm. 04/01/17 - $GPGSV,3,1,12,02,09,127,15,06,19,088,31,12,78,267,31,14,15,320,18*7B

4:10:58:953 Nachm. 04/01/17 - $GPGSV,3,2,12,15,09,184,29,17,19,042,27,19,36,053,33,24,68,142,33*79

4:10:58:953 Nachm. 04/01/17 - $GPGSV,3,3,12,25,33,255,26,32,31,303,29,10,01,268,,22,,,*4F

4:10:58:959 Nachm. 04/01/17 - $GLGSV,3,1,09,78,63,322,23,70,07,355,12,86,13,021,24,77,45,088,30*6D

4:10:58:962 Nachm. 04/01/17 - $GLGSV,3,2,09,79,26,295,21,69,27,303,20,88,37,149,21,87,52,074,34*65

4:10:58:962 Nachm. 04/01/17 - $GLGSV,3,3,09,68,18,248,25*52

4:10:58:963 Nachm. 04/01/17 - $GPGGA,141052.0,5208.436511,N,01138.587784,E,1,06,1.1,52.0,M,45.0,M,,*6E

4:10:58:963 Nachm. 04/01/17 - $GNGNS,141052.0,5208.436511,N,01138.587784,E,AA,07,1.1,52.0,45.0,,*5B

4:10:58:963 Nachm. 04/01/17 - $GPVTG,177.4,T,177.0,M,3.0,N,5.5,K,A*24

4:10:58:964 Nachm. 04/01/17 - $GPRMC,141052.0,A,5208.436511,N,01138.587784,E,3.0,177.4,010417,0.4,E,A*06

4:10:58:965 Nachm. 04/01/17 - $GPGSA,A,2,12,15,17,19,24,32,,,,,,,1.4,1.1,0.8*30

4:10:58:965 Nachm. 04/01/17 - $GNGSA,A,2,12,15,17,19,24,32,,,,,,,1.4,1.1,0.8*2E

4:10:58:965 Nachm. 04/01/17 - $GNGSA,A,2,87,,,,,,,,,,,,1.4,1.1,0.8*2F

4:10:59:954 Nachm. 04/01/17 - $GPGSV,3,1,12,02,09,127,15,06,19,088,29,12,78,267,30,14,15,320,17*7C

4:10:59:957 Nachm. 04/01/17 - $GPGSV,3,2,12,15,09,184,30,17,19,042,23,19,36,053,34,24,68,142,35*74

4:10:59:959 Nachm. 04/01/17 - $GPGSV,3,3,12,25,33,255,24,32,31,303,30,10,01,268,,22,,,*45

4:10:59:964 Nachm. 04/01/17 - $GLGSV,3,1,09,78,63,322,22,70,07,355,12,86,13,021,21,77,45,088,27*6F

4:10:59:971 Nachm. 04/01/17 - $GLGSV,3,2,09,79,26,295,23,69,27,303,24,88,37,149,21,87,52,074,32*65

4:10:59:971 Nachm. 04/01/17 - $GLGSV,3,3,09,68,18,248,21*56

4:10:59:974 Nachm. 04/01/17 - $GPGGA,141053.0,5208.435160,N,01138.587256,E,1,06,1.1,51.2,M,45.0,M,,*65

4:10:59:974 Nachm. 04/01/17 - $GNGNS,141053.0,5208.435160,N,01138.587256,E,AA,07,1.1,51.2,45.0,,*50

4:10:59:974 Nachm. 04/01/17 - $GPVTG,181.7,T,181.3,M,3.2,N,5.9,K,A*2A

4:10:59:974 Nachm. 04/01/17 - $GPRMC,141053.0,A,5208.435160,N,01138.587256,E,3.2,181.7,010417,0.4,E,A*04

4:10:59:974 Nachm. 04/01/17 - $GPGSA,A,2,12,15,17,19,24,32,,,,,,,1.4,1.1,0.8*30

4:10:59:975 Nachm. 04/01/17 - $GNGSA,A,2,12,15,17,19,24,32,,,,,,,1.4,1.1,0.8*2E

4:10:59:975 Nachm. 04/01/17 - $GNGSA,A,2,87,,,,,,,,,,,,1.4,1.1,0.8*2F

4:11:00:953 Nachm. 04/01/17 - $GPGSV,3,1,12,02,09,127,15,06,19,088,20,12,78,267,29,14,15,320,19*73

4:11:00:954 Nachm. 04/01/17 - $GPGSV,3,2,12,15,09,184,28,17,19,042,23,19,36,053,34,24,68,142,31*79

4:11:00:954 Nachm. 04/01/17 - $GPGSV,3,3,12,25,33,255,24,32,31,303,28,10,01,268,,22,,,*4C

4:11:00:954 Nachm. 04/01/17 - $GLGSV,3,1,09,78,63,322,18,70,07,355,12,86,13,021,23,77,45,088,26*65

4:11:00:957 Nachm. 04/01/17 - $GLGSV,3,2,09,79,26,295,26,69,27,303,24,88,37,149,20,87,52,074,31*62

4:11:00:957 Nachm. 04/01/17 - $GLGSV,3,3,09,68,18,248,19*5D

4:11:00:957 Nachm. 04/01/17 - $GPGGA,141054.0,5208.433627,N,01138.587215,E,1,06,1.1,50.2,M,45.0,M,,*66

4:11:00:957 Nachm. 04/01/17 - $GNGNS,141054.0,5208.433627,N,01138.587215,E,AA,07,1.1,50.2,45.0,,*53

4:11:00:957 Nachm. 04/01/17 - $GPVTG,180.2,T,179.8,M,3.1,N,5.7,K,A*2F

4:11:00:958 Nachm. 04/01/17 - $GPRMC,141054.0,A,5208.433627,N,01138.587215,E,3.1,180.2,010417,0.4,E,A*01

4:11:00:958 Nachm. 04/01/17 - $GPGSA,A,2,12,15,17,19,24,32,,,,,,,1.4,1.1,0.8*30

4:11:00:958 Nachm. 04/01/17 - $GNGSA,A,2,12,15,17,19,24,32,,,,,,,1.4,1.1,0.8*2E

4:11:00:958 Nachm. 04/01/17 - $GNGSA,A,2,87,,,,,,,,,,,,1.4,1.1,0.8*2F

4:11:07:953 Nachm. 04/01/17 - $GPGSV,3,1,12,02,09,127,15,06,19,088,20,12,78,267,29,14,15,320,19*73

4:11:07:953 Nachm. 04/01/17 - $GPGSV,3,2,12,15,09,184,28,17,19,042,23,19,36,053,34,24,68,142,31*79

4:11:07:953 Nachm. 04/01/17 - $GPGSV,3,3,12,25,33,255,24,32,31,303,28,10,01,268,,22,,,*4C

4:11:07:953 Nachm. 04/01/17 - $GLGSV,3,1,09,78,63,322,18,70,07,355,12,86,13,021,23,77,45,088,26*65

4:11:07:954 Nachm. 04/01/17 - $GLGSV,3,2,09,79,26,295,26,69,27,303,24,88,37,149,20,87,52,074,31*62

4:11:07:955 Nachm. 04/01/17 - $GLGSV,3,3,09,68,18,248,19*5D

4:11:07:955 Nachm. 04/01/17 - $GPGGA,,,,,,0,,,,,,,,*66

4:11:07:955 Nachm. 04/01/17 - $GNGNS,,,,,,NN,,,,,,*53

4:11:07:955 Nachm. 04/01/17 - $GPVTG,,T,,M,,N,,K,N*2C

4:11:07:955 Nachm. 04/01/17 - $GPRMC,,V,,,,,,,,,,N*53

4:11:07:955 Nachm. 04/01/17 - $GPGSA,A,1,,,,,,,,,,,,,,,*1E

4:11:07:955 Nachm. 04/01/17 - $GNGSA,A,1,,,,,,,,,,,,,,,*00

4:11:08:954 Nachm. 04/01/17 - $GPGSV,3,1,12,02,10,127,,06,19,088,,10,00,268,,12,78,268,*7C

4:11:08:956 Nachm. 04/01/17 - $GPGSV,3,2,12,14,15,320,,15,09,184,,17,18,042,,19,35,053,*7A

4:11:08:956 Nachm. 04/01/17 - $GPGSV,3,3,12,22,,,,24,67,142,,25,33,255,,32,31,302,*4D

4:11:08:957 Nachm. 04/01/17 - $GLGSV,3,1,09,78,63,322,,70,07,355,,86,13,021,,77,45,088,*6A

4:11:08:957 Nachm. 04/01/17 - $GLGSV,3,2,09,79,26,295,,69,27,303,,88,37,149,,87,52,073,*67

4:11:08:958 Nachm. 04/01/17 - $GLGSV,3,3,09,68,18,248,*55

4:11:08:978 Nachm. 04/01/17 - $GPGGA,,,,,,0,,,,,,,,*66

4:11:08:979 Nachm. 04/01/17 - $GNGNS,,,,,,NN,,,,,,*53

4:11:08:983 Nachm. 04/01/17 - $GPVTG,,T,,M,,N,,K,N*2C

4:11:08:983 Nachm. 04/01/17 - $GPRMC,,V,,,,,,,,,,N*53

4:11:08:984 Nachm. 04/01/17 - $GPGSA,A,1,,,,,,,,,,,,,,,*1E

4:11:08:985 Nachm. 04/01/17 - $GNGSA,A,1,,,,,,,,,,,,,,,*00

4:11:09:860 Nachm. 04/01/17 - $GPGSV,3,1,12,14,15,320,25,15,09,184,23,19,35,053,31,24,67,142,33*74

4:11:09:863 Nachm. 04/01/17 - $GPGSV,3,2,12,25,33,255,33,32,31,302,22,02,10,127,,06,19,088,*75

4:11:09:872 Nachm. 04/01/17 - $GPGSV,3,3,12,10,00,268,,12,78,268,,17,18,042,,22,,,*4E

4:11:09:874 Nachm. 04/01/17 - $GLGSV,3,1,09,77,45,088,28,87,52,073,32,68,18,248,21,78,63,322,*6B

4:11:09:875 Nachm. 04/01/17 - $GLGSV,3,2,09,70,07,355,,86,13,021,,79,26,295,,69,27,303,*6F

4:11:09:877 Nachm. 04/01/17 - $GLGSV,3,3,09,88,37,149,*54

4:11:09:882 Nachm. 04/01/17 - $GPGGA,,,,,,0,,,,,,,,*66

4:11:09:882 Nachm. 04/01/17 - $GNGNS,,,,,,NN,,,,,,*53

4:11:09:883 Nachm. 04/01/17 - $GPVTG,,T,,M,,N,,K,N*2C

4:11:09:884 Nachm. 04/01/17 - $GPRMC,,V,,,,,,,,,,N*53

4:11:09:884 Nachm. 04/01/17 - $GPGSA,A,1,,,,,,,,,,,,,,,*1E

4:11:09:897 Nachm. 04/01/17 - $GNGSA,A,1,,,,,,,,,,,,,,,*00

4:11:09:952 Nachm. 04/01/17 - $GPGSV,3,1,12,14,15,320,25,15,09,184,23,19,35,053,31,24,67,142,33*74

4:11:09:952 Nachm. 04/01/17 - $GPGSV,3,2,12,25,33,255,33,32,31,302,22,02,10,127,,06,19,088,*75

4:11:09:953 Nachm. 04/01/17 - $GPGSV,3,3,12,10,00,268,,12,78,268,,17,18,042,,22,,,*4E

4:11:09:955 Nachm. 04/01/17 - $GLGSV,3,1,09,77,45,088,28,87,52,073,32,68,18,248,21,78,63,322,*6B

4:11:09:955 Nachm. 04/01/17 - $GLGSV,3,2,09,70,07,355,,86,13,021,,79,26,295,,69,27,303,*6F

4:11:09:955 Nachm. 04/01/17 - $GLGSV,3,3,09,88,37,149,*54

4:11:09:955 Nachm. 04/01/17 - $GPGGA,,,,,,0,,,,,,,,*66

4:11:09:955 Nachm. 04/01/17 - $GNGNS,,,,,,NN,,,,,,*53

4:11:09:955 Nachm. 04/01/17 - $GPVTG,,T,,M,,N,,K,N*2C

4:11:09:956 Nachm. 04/01/17 - $GPRMC,,V,,,,,,,,,,N*53

4:11:09:956 Nachm. 04/01/17 - $GPGSA,A,1,,,,,,,,,,,,,,,*1E

4:11:09:956 Nachm. 04/01/17 - $GNGSA,A,1,,,,,,,,,,,,,,,*00

4:11:10:954 Nachm. 04/01/17 - $GPGSV,3,1,12,06,19,088,18,12,78,268,28,14,15,320,19,15,09,184,21*7E

4:11:10:955 Nachm. 04/01/17 - $GPGSV,3,2,12,17,18,042,21,19,35,053,24,24,67,142,30,25,33,255,31*7B

4:11:10:956 Nachm. 04/01/17 - $GPGSV,3,3,12,32,31,302,24,02,10,127,,10,00,268,,22,,,*44

4:11:10:956 Nachm. 04/01/17 - $GLGSV,3,1,09,70,07,355,18,77,45,088,25,79,26,295,18,87,52,073,31*61

4:11:10:959 Nachm. 04/01/17 - $GLGSV,3,2,09,68,18,248,21,78,63,322,,86,13,021,,69,27,303,*6B

4:11:10:959 Nachm. 04/01/17 - $GLGSV,3,3,09,88,37,149,*54

4:11:10:969 Nachm. 04/01/17 - $GPGGA,141104.0,5208.420793,N,01138.587882,E,1,06,1.1,55.2,M,45.0,M,,*6F

4:11:10:969 Nachm. 04/01/17 - $GNGNS,141104.0,5208.420793,N,01138.587882,E,AA,07,1.1,55.2,45.0,,*5A

4:11:10:970 Nachm. 04/01/17 - $GPVTG,181.4,T,181.0,M,3.4,N,6.3,K,A*25

4:11:10:970 Nachm. 04/01/17 - $GPRMC,141104.0,A,5208.420793,N,01138.587882,E,3.4,181.4,010417,0.4,E,A*0F

4:11:10:971 Nachm. 04/01/17 - $GPGSA,A,2,12,15,17,19,24,32,,,,,,,1.4,1.1,0.8*30

4:11:10:971 Nachm. 04/01/17 - $GNGSA,A,2,12,15,17,19,24,32,,,,,,,1.4,1.1,0.8*2E

4:11:10:972 Nachm. 04/01/17 - $GNGSA,A,2,87,,,,,,,,,,,,1.4,1.1,0.8*2F

4:11:11:953 Nachm. 04/01/17 - $GPGSV,3,1,12,06,19,088,18,12,78,268,33,14,15,320,16,15,09,184,24*7E

4:11:11:953 Nachm. 04/01/17 - $GPGSV,3,2,12,17,18,042,28,19,35,053,25,24,67,142,31,25,33,255,21*73

4:11:11:954 Nachm. 04/01/17 - $GPGSV,3,3,12,32,31,302,21,02,10,127,,10,00,268,,22,,,*41

4:11:11:954 Nachm. 04/01/17 - $GLGSV,3,1,09,78,63,322,21,70,07,355,19,86,13,021,18,77,45,088,21*6B

4:11:11:958 Nachm. 04/01/17 - $GLGSV,3,2,09,79,26,295,17,88,37,149,17,87,52,073,30,68,18,248,27*62

4:11:11:958 Nachm. 04/01/17 - $GLGSV,3,3,09,69,27,303,*56

4:11:11:959 Nachm. 04/01/17 - $GPGGA,141105.0,5208.419946,N,01138.589181,E,1,06,1.1,52.8,M,45.0,M,,*6B

4:11:11:959 Nachm. 04/01/17 - $GNGNS,141105.0,5208.419946,N,01138.589181,E,AA,07,1.1,52.8,45.0,,*5E

4:11:11:959 Nachm. 04/01/17 - $GPVTG,179.0,T,178.5,M,2.8,N,5.3,K,A*2B

4:11:11:960 Nachm. 04/01/17 - $GPRMC,141105.0,A,5208.419946,N,01138.589181,E,2.8,179.0,010417,0.4,E,A*08

4:11:11:960 Nachm. 04/01/17 - $GPGSA,A,2,12,15,17,19,24,32,,,,,,,1.4,1.1,0.8*30

4:11:11:961 Nachm. 04/01/17 - $GNGSA,A,2,12,15,17,19,24,32,,,,,,,1.4,1.1,0.8*2E

4:11:11:961 Nachm. 04/01/17 - $GNGSA,A,2,87,,,,,,,,,,,,1.4,1.1,0.8*2F

4:11:12:954 Nachm. 04/01/17 - $GPGSV,3,1,12,06,19,088,19,12,78,268,33,14,15,320,21,15,09,184,23*7C

4:11:12:956 Nachm. 04/01/17 - $GPGSV,3,2,12,17,18,042,25,19,35,053,26,24,67,142,25,25,33,255,24*7D

4:11:12:957 Nachm. 04/01/17 - $GPGSV,3,3,12,32,31,302,32,02,10,127,,10,00,268,,22,,,*43

4:11:12:958 Nachm. 04/01/17 - $GLGSV,3,1,09,78,63,322,22,70,07,355,21,86,13,021,19,77,45,088,21*62

4:11:12:960 Nachm. 04/01/17 - $GLGSV,3,2,09,79,26,295,17,69,27,303,15,88,37,149,20,87,52,073,28*6D

4:11:12:960 Nachm. 04/01/17 - $GLGSV,3,3,09,68,18,248,24*53

4:11:12:960 Nachm. 04/01/17 - $GPGGA,141106.0,5208.419642,N,01138.591550,E,1,06,1.1,55.7,M,45.0,M,,*6A

4:11:12:960 Nachm. 04/01/17 - $GNGNS,141106.0,5208.419642,N,01138.591550,E,AA,07,1.1,55.7,45.0,,*5F

4:11:12:960 Nachm. 04/01/17 - $GPVTG,179.0,T,178.5,M,2.2,N,4.1,K,A*22

4:11:12:961 Nachm. 04/01/17 - $GPRMC,141106.0,A,5208.419642,N,01138.591550,E,2.2,179.0,010417,0.4,E,A*0B

4:11:12:961 Nachm. 04/01/17 - $GPGSA,A,2,12,15,17,19,24,32,,,,,,,1.4,1.1,0.8*30

4:11:12:961 Nachm. 04/01/17 - $GNGSA,A,2,12,15,17,19,24,32,,,,,,,1.4,1.1,0.8*2E

4:11:12:961 Nachm. 04/01/17 - $GNGSA,A,2,87,,,,,,,,,,,,1.4,1.1,0.8*2F

4:11:13:953 Nachm. 04/01/17 - $GPGSV,3,1,12,06,19,088,19,12,78,268,33,14,15,320,25,15,09,184,23*78

4:11:13:955 Nachm. 04/01/17 - $GPGSV,3,2,12,17,18,042,27,19,35,053,31,24,67,142,25,25,33,255,25*78

4:11:13:956 Nachm. 04/01/17 - $GPGSV,3,3,12,32,31,302,31,02,10,127,,10,00,268,,22,,,*40

4:11:13:956 Nachm. 04/01/17 - $GLGSV,3,1,09,78,63,322,22,70,07,355,21,86,13,021,19,77,45,088,21*62

4:11:13:962 Nachm. 04/01/17 - $GLGSV,3,2,09,79,26,295,18,69,27,303,17,88,37,149,19,87,52,073,28*6A

4:11:13:963 Nachm. 04/01/17 - $GLGSV,3,3,09,68,18,248,19*5D

4:11:13:964 Nachm. 04/01/17 - $GPGGA,141107.0,5208.417466,N,01138.591254,E,1,06,1.1,55.4,M,45.0,M,,*61

4:11:13:965 Nachm. 04/01/17 - $GNGNS,141107.0,5208.417466,N,01138.591254,E,AA,07,1.1,55.4,45.0,,*54

4:11:13:966 Nachm. 04/01/17 - $GPVTG,189.6,T,189.2,M,2.8,N,5.2,K,A*2A

4:11:13:966 Nachm. 04/01/17 - $GPRMC,141107.0,A,5208.417466,N,01138.591254,E,2.8,189.6,010417,0.4,E,A*00

4:11:13:967 Nachm. 04/01/17 - $GPGSA,A,2,12,15,17,19,24,32,,,,,,,1.4,1.1,0.8*30

