4:17:39:954 Nachm. 04/01/17 - $GPGSV,3,1,12,02,12,126,27,06,20,085,20,12,81,279,25,19,33,052,26*78

4:17:39:954 Nachm. 04/01/17 - $GPGSV,3,2,12,24,64,142,19,14,17,319,,15,06,184,,17,16,040,*72

4:17:39:955 Nachm. 04/01/17 - $GPGSV,3,3,12,22,00,355,,25,35,257,,29,,,,32,33,299,*40

4:17:39:955 Nachm. 04/01/17 - $GLGSV,3,1,10,78,66,327,20,86,10,019,12,77,42,091,26,88,41,147,23*65

4:17:39:956 Nachm. 04/01/17 - $GLGSV,3,2,10,87,52,067,24,68,16,247,13,70,09,352,,79,28,296,*63

4:17:39:957 Nachm. 04/01/17 - $GLGSV,3,3,10,69,26,299,,81,01,178,*6B

4:17:39:957 Nachm. 04/01/17 - $GPGGA,,,,,,0,,,,,,,,*66

4:17:39:957 Nachm. 04/01/17 - $GNGNS,,,,,,NN,,,,,,*53

4:17:39:957 Nachm. 04/01/17 - $GPVTG,,T,,M,,N,,K,N*2C

4:17:39:958 Nachm. 04/01/17 - $GPRMC,,V,,,,,,,,,,N*53

4:17:39:959 Nachm. 04/01/17 - $GPGSA,A,1,,,,,,,,,,,,,,,*1E

4:17:39:959 Nachm. 04/01/17 - $GNGSA,A,1,,,,,,,,,,,,,,,*00

4:17:40:957 Nachm. 04/01/17 - $GPGSV,3,1,12,02,12,126,20,06,20,085,31,12,81,279,23,19,33,052,22*7D

4:17:40:958 Nachm. 04/01/17 - $GPGSV,3,2,12,24,64,142,19,14,17,319,,15,06,184,,17,16,040,*72

4:17:40:962 Nachm. 04/01/17 - $GPGSV,3,3,12,22,00,355,,25,35,257,,29,,,,32,33,299,*40

4:17:40:962 Nachm. 04/01/17 - $GLGSV,3,1,10,78,66,327,16,86,10,019,12,77,42,091,20,88,41,147,25*60

4:17:40:972 Nachm. 04/01/17 - $GLGSV,3,2,10,87,52,067,30,68,16,247,13,70,09,352,,79,28,296,*66

4:17:40:974 Nachm. 04/01/17 - $GLGSV,3,3,10,69,26,299,,81,01,178,*6B

4:17:40:974 Nachm. 04/01/17 - $GPGGA,,,,,,0,,,,,,,,*66

4:17:40:975 Nachm. 04/01/17 - $GNGNS,,,,,,NN,,,,,,*53

4:17:40:978 Nachm. 04/01/17 - $GPVTG,,T,,M,,N,,K,N*2C

4:17:40:978 Nachm. 04/01/17 - $GPRMC,,V,,,,,,,,,,N*53

4:17:40:978 Nachm. 04/01/17 - $GPGSA,A,1,,,,,,,,,,,,,,,*1E

4:17:40:978 Nachm. 04/01/17 - $GNGSA,A,1,,,,,,,,,,,,,,,*00

4:17:41:954 Nachm. 04/01/17 - $GPGSV,3,1,12,02,12,126,19,06,20,085,24,12,81,279,28,19,33,052,29*73

4:17:41:955 Nachm. 04/01/17 - $GPGSV,3,2,12,24,64,142,22,14,17,319,,15,06,184,,17,16,040,*7A

4:17:41:956 Nachm. 04/01/17 - $GPGSV,3,3,12,22,00,355,,25,35,257,,29,,,,32,33,299,*40

4:17:41:957 Nachm. 04/01/17 - $GLGSV,3,1,10,78,66,327,16,86,10,019,12,77,42,091,20,88,41,147,20*65

4:17:41:957 Nachm. 04/01/17 - $GLGSV,3,2,10,87,52,067,31,68,16,247,13,70,09,352,,79,28,296,*67

4:17:41:972 Nachm. 04/01/17 - $GLGSV,3,3,10,69,26,299,,81,01,178,*6B

4:17:41:973 Nachm. 04/01/17 - $GPGGA,,,,,,0,,,,,,,,*66

4:17:41:973 Nachm. 04/01/17 - $GNGNS,,,,,,NN,,,,,,*53

4:17:41:974 Nachm. 04/01/17 - $GPVTG,,T,,M,,N,,K,N*2C

4:17:41:976 Nachm. 04/01/17 - $GPRMC,,V,,,,,,,,,,N*53

4:17:41:976 Nachm. 04/01/17 - $GPGSA,A,1,,,,,,,,,,,,,,,*1E

4:17:41:977 Nachm. 04/01/17 - $GNGSA,A,1,,,,,,,,,,,,,,,*00

4:17:42:953 Nachm. 04/01/17 - $GPGSV,3,1,12,02,12,126,22,06,20,085,29,12,81,279,28,19,33,052,30*7E

4:17:42:953 Nachm. 04/01/17 - $GPGSV,3,2,12,24,64,142,28,14,17,319,,15,06,184,,17,16,040,*70

4:17:42:953 Nachm. 04/01/17 - $GPGSV,3,3,12,22,00,355,,25,35,257,,29,,,,32,33,299,*40

4:17:42:954 Nachm. 04/01/17 - $GLGSV,3,1,10,78,66,327,16,86,10,019,12,77,42,091,21,88,41,147,21*65

4:17:42:954 Nachm. 04/01/17 - $GLGSV,3,2,10,87,52,067,31,68,16,247,13,70,09,352,,79,28,296,*67

4:17:42:957 Nachm. 04/01/17 - $GLGSV,3,3,10,69,26,299,,81,01,178,*6B

4:17:42:958 Nachm. 04/01/17 - $GPGGA,,,,,,0,,,,,,,,*66

4:17:42:960 Nachm. 04/01/17 - $GNGNS,,,,,,NN,,,,,,*53

4:17:42:960 Nachm. 04/01/17 - $GPVTG,,T,,M,,N,,K,N*2C

4:17:42:960 Nachm. 04/01/17 - $GPRMC,,V,,,,,,,,,,N*53

4:17:42:960 Nachm. 04/01/17 - $GPGSA,A,1,,,,,,,,,,,,,,,*1E

4:17:42:960 Nachm. 04/01/17 - $GNGSA,A,1,,,,,,,,,,,,,,,*00

4:22:01:980 Nachm. 04/01/17 - $GPGSV,3,1,12,02,12,126,22,06,20,085,29,12,81,279,28,19,33,052,30*7E

4:22:01:999 Nachm. 04/01/17 - $GPGSV,3,2,12,24,64,142,28,14,17,319,,15,06,184,,17,16,040,*70

4:22:01:999 Nachm. 04/01/17 - $GPGSV,3,3,12,22,00,355,,25,35,257,,29,,,,32,33,299,*40

4:22:02:004 Nachm. 04/01/17 - $GLGSV,3,1,10,78,66,327,16,86,10,019,12,77,42,091,21,88,41,147,21*65

4:22:02:013 Nachm. 04/01/17 - $GLGSV,3,2,10,87,52,067,31,68,16,247,13,70,09,352,,79,28,296,*67

4:22:02:014 Nachm. 04/01/17 - $GLGSV,3,3,10,69,26,299,,81,01,178,*6B

4:22:02:015 Nachm. 04/01/17 - $GPGGA,,,,,,0,,,,,,,,*66

4:22:02:015 Nachm. 04/01/17 - $GNGNS,,,,,,NN,,,,,,*53

4:22:02:016 Nachm. 04/01/17 - $GPVTG,,T,,M,,N,,K,N*2C

4:22:02:016 Nachm. 04/01/17 - $GPRMC,,V,,,,,,,,,,N*53

4:22:02:017 Nachm. 04/01/17 - $GPGSA,A,1,,,,,,,,,,,,,,,*1E

4:22:02:017 Nachm. 04/01/17 - $GNGSA,A,1,,,,,,,,,,,,,,,*00

4:22:02:955 Nachm. 04/01/17 - $GPGSV,3,1,12,14,19,317,30,02,13,125,,06,21,084,,12,82,292,*7C

4:22:02:956 Nachm. 04/01/17 - $GPGSV,3,2,12,15,05,182,,17,14,040,,19,32,050,,22,00,354,*78

4:22:02:956 Nachm. 04/01/17 - $GPGSV,3,3,12,24,62,142,,25,37,258,,29,01,202,,32,34,298,*7C

4:22:02:973 Nachm. 04/01/17 - $GLGSV,3,1,10,77,40,094,27,79,30,298,22,78,68,333,,70,09,351,*6F

4:22:02:980 Nachm. 04/01/17 - $GLGSV,3,2,10,86,08,019,,69,26,296,,88,44,146,,87,51,064,*67

4:22:02:981 Nachm. 04/01/17 - $GLGSV,3,3,10,81,03,178,,68,14,246,*6B

4:22:02:982 Nachm. 04/01/17 - $GPGGA,,,,,,0,,,,,,,,*66

4:22:02:982 Nachm. 04/01/17 - $GNGNS,,,,,,NN,,,,,,*53

4:22:02:982 Nachm. 04/01/17 - $GPVTG,,T,,M,,N,,K,N*2C

4:22:02:983 Nachm. 04/01/17 - $GPRMC,,V,,,,,,,,,,N*53

4:22:02:983 Nachm. 04/01/17 - $GPGSA,A,1,,,,,,,,,,,,,,,*1E

4:22:02:983 Nachm. 04/01/17 - $GNGSA,A,1,,,,,,,,,,,,,,,*00

4:22:03:863 Nachm. 04/01/17 - $GPGSV,3,1,12,06,21,084,26,14,19,317,27,17,14,040,19,19,32,050,28*71

4:22:03:865 Nachm. 04/01/17 - $GPGSV,3,2,12,32,34,298,27,02,13,125,,12,82,292,,15,05,182,*77

4:22:03:865 Nachm. 04/01/17 - $GPGSV,3,3,12,22,00,354,,24,62,142,,25,37,258,,29,01,202,*7B

4:22:03:865 Nachm. 04/01/17 - $GLGSV,3,1,10,70,09,351,28,77,40,094,22,79,30,298,24,69,26,296,20*60

4:22:03:866 Nachm. 04/01/17 - $GLGSV,3,2,10,87,51,064,25,78,68,333,,86,08,019,,88,44,146,*64

4:22:03:866 Nachm. 04/01/17 - $GLGSV,3,3,10,81,03,178,,68,14,246,*6B

4:22:03:874 Nachm. 04/01/17 - $GPGGA,,,,,,0,,,,,,,,*66

4:22:03:875 Nachm. 04/01/17 - $GNGNS,,,,,,NN,,,,,,*53

4:22:03:876 Nachm. 04/01/17 - $GPVTG,,T,,M,,N,,K,N*2C

4:22:03:876 Nachm. 04/01/17 - $GPRMC,,V,,,,,,,,,,N*53

4:22:03:877 Nachm. 04/01/17 - $GPGSA,A,1,,,,,,,,,,,,,,,*1E

4:22:03:878 Nachm. 04/01/17 - $GNGSA,A,1,,,,,,,,,,,,,,,*00

4:22:03:953 Nachm. 04/01/17 - $GPGSV,3,1,12,06,21,084,26,14,19,317,27,17,14,040,19,19,32,050,28*71

4:22:03:954 Nachm. 04/01/17 - $GPGSV,3,2,12,32,34,298,27,02,13,125,,12,82,292,,15,05,182,*77

4:22:03:954 Nachm. 04/01/17 - $GPGSV,3,3,12,22,00,354,,24,62,142,,25,37,258,,29,01,202,*7B

4:22:03:955 Nachm. 04/01/17 - $GLGSV,3,1,10,70,09,351,28,77,40,094,22,79,30,298,24,69,26,296,20*60

4:22:03:956 Nachm. 04/01/17 - $GLGSV,3,2,10,87,51,064,25,78,68,333,,86,08,019,,88,44,146,*64

4:22:03:956 Nachm. 04/01/17 - $GLGSV,3,3,10,81,03,178,,68,14,246,*6B

4:22:03:956 Nachm. 04/01/17 - $GPGGA,,,,,,0,,,,,,,,*66

4:22:03:957 Nachm. 04/01/17 - $GNGNS,,,,,,NN,,,,,,*53

4:22:03:957 Nachm. 04/01/17 - $GPVTG,,T,,M,,N,,K,N*2C

4:22:03:957 Nachm. 04/01/17 - $GPRMC,,V,,,,,,,,,,N*53

4:22:03:957 Nachm. 04/01/17 - $GPGSA,A,1,,,,,,,,,,,,,,,*1E

4:22:03:961 Nachm. 04/01/17 - $GNGSA,A,1,,,,,,,,,,,,,,,*00

4:22:04:951 Nachm. 04/01/17 - $GPGSV,3,1,12,06,21,084,24,12,82,291,31,14,19,317,27,17,14,040,19*74

4:22:04:952 Nachm. 04/01/17 - $GPGSV,3,2,12,19,31,050,29,25,37,258,24,32,34,298,26,02,13,125,*72

4:22:04:952 Nachm. 04/01/17 - $GPGSV,3,3,12,15,05,182,,22,00,354,,24,62,142,,29,01,202,*7D

4:22:04:957 Nachm. 04/01/17 - $GLGSV,3,1,10,78,68,333,23,70,09,351,32,86,08,019,23,77,40,094,18*62

4:22:04:962 Nachm. 04/01/17 - $GLGSV,3,2,10,79,30,298,20,69,26,296,20,87,51,063,25,88,44,146,*67

4:22:04:963 Nachm. 04/01/17 - $GLGSV,3,3,10,81,03,178,,68,14,246,*6B

4:22:04:963 Nachm. 04/01/17 - $GPGGA,,,,,,0,,,,,,,,*66

4:22:04:969 Nachm. 04/01/17 - $GNGNS,,,,,,NN,,,,,,*53

4:22:04:970 Nachm. 04/01/17 - $GPVTG,,T,,M,,N,,K,N*2C

4:22:04:976 Nachm. 04/01/17 - $GPRMC,,V,,,,,,,,,,N*53

4:22:04:977 Nachm. 04/01/17 - $GPGSA,A,1,,,,,,,,,,,,,,,*1E

4:22:04:977 Nachm. 04/01/17 - $GNGSA,A,1,,,,,,,,,,,,,,,*00

4:22:05:952 Nachm. 04/01/17 - $GPGSV,3,1,12,06,21,084,25,12,82,291,30,14,19,317,26,15,05,182,18*79

4:22:05:953 Nachm. 04/01/17 - $GPGSV,3,2,12,17,14,040,19,19,31,050,30,25,37,258,25,32,34,298,21*75

4:22:05:954 Nachm. 04/01/17 - $GPGSV,3,3,12,02,13,125,,22,00,354,,24,62,142,,29,01,202,*71

4:22:05:954 Nachm. 04/01/17 - $GLGSV,3,1,10,78,68,333,23,70,09,351,28,86,08,019,19,77,40,094,18*60

4:22:05:957 Nachm. 04/01/17 - $GLGSV,3,2,10,79,30,298,20,69,26,296,20,87,51,063,23,88,44,146,*61

4:22:05:957 Nachm. 04/01/17 - $GLGSV,3,3,10,81,03,178,,68,14,246,*6B

4:22:05:957 Nachm. 04/01/17 - $GPGGA,,,,,,0,,,,,,,,*66

4:22:05:957 Nachm. 04/01/17 - $GNGNS,,,,,,NN,,,,,,*53

4:22:05:967 Nachm. 04/01/17 - $GPVTG,,T,,M,,N,,K,N*2C

4:22:05:968 Nachm. 04/01/17 - $GPRMC,,V,,,,,,,,,,N*53

4:22:05:969 Nachm. 04/01/17 - $GPGSA,A,1,,,,,,,,,,,,,,,*1E

4:22:05:969 Nachm. 04/01/17 - $GNGSA,A,1,,,,,,,,,,,,,,,*00

4:22:06:952 Nachm. 04/01/17 - $GPGSV,3,1,12,06,21,084,22,12,82,291,31,14,19,317,27,15,05,182,17*71

4:22:06:952 Nachm. 04/01/17 - $GPGSV,3,2,12,17,14,040,16,19,31,050,27,25,37,258,23,32,34,298,24*7F

4:22:06:953 Nachm. 04/01/17 - $GPGSV,3,3,12,02,13,125,,22,00,354,,24,62,142,,29,01,202,*71

4:22:06:953 Nachm. 04/01/17 - $GLGSV,3,1,10,78,68,333,21,70,09,351,30,86,08,019,20,77,40,094,14*6D

4:22:06:953 Nachm. 04/01/17 - $GLGSV,3,2,10,79,30,299,21,69,26,296,19,87,51,063,32,88,44,146,*6B

4:22:06:955 Nachm. 04/01/17 - $GLGSV,3,3,10,81,03,178,,68,14,246,*6B

4:22:06:955 Nachm. 04/01/17 - $GPGGA,,,,,,0,,,,,,,,*66

4:22:06:955 Nachm. 04/01/17 - $GNGNS,,,,,,NN,,,,,,*53

4:22:06:955 Nachm. 04/01/17 - $GPVTG,,T,,M,,N,,K,N*2C

4:22:06:955 Nachm. 04/01/17 - $GPRMC,,V,,,,,,,,,,N*53

4:22:06:955 Nachm. 04/01/17 - $GPGSA,A,1,,,,,,,,,,,,,,,*1E

4:22:06:955 Nachm. 04/01/17 - $GNGSA,A,1,,,,,,,,,,,,,,,*00

4:22:07:953 Nachm. 04/01/17 - $GPGSV,3,1,12,06,21,084,24,12,82,291,31,14,19,317,22,15,05,182,16*73

4:22:07:955 Nachm. 04/01/17 - $GPGSV,3,2,12,17,14,040,18,19,31,050,25,25,37,258,23,32,34,298,23*74

4:22:07:956 Nachm. 04/01/17 - $GPGSV,3,3,12,02,13,125,,22,00,354,,24,62,142,,29,01,202,*71

4:22:07:956 Nachm. 04/01/17 - $GLGSV,3,1,10,78,68,333,21,70,09,351,31,86,08,019,24,77,40,094,19*65

4:22:07:956 Nachm. 04/01/17 - $GLGSV,3,2,10,79,30,299,20,69,26,296,19,87,51,063,33,88,44,146,*6B

4:22:07:961 Nachm. 04/01/17 - $GLGSV,3,3,10,81,03,178,,68,14,246,*6B

4:22:07:967 Nachm. 04/01/17 - $GPGGA,,,,,,0,,,,,,,,*66

4:22:07:974 Nachm. 04/01/17 - $GNGNS,,,,,,NN,,,,,,*53

4:22:07:975 Nachm. 04/01/17 - $GPVTG,,T,,M,,N,,K,N*2C

4:22:07:976 Nachm. 04/01/17 - $GPRMC,,V,,,,,,,,,,N*53

4:22:07:977 Nachm. 04/01/17 - $GPGSA,A,1,,,,,,,,,,,,,,,*1E

4:22:07:978 Nachm. 04/01/17 - $GNGSA,A,1,,,,,,,,,,,,,,,*00

4:22:08:953 Nachm. 04/01/17 - $GPGSV,3,1,12,06,21,084,30,12,82,291,31,14,19,317,22,15,05,182,15*75

4:22:08:954 Nachm. 04/01/17 - $GPGSV,3,2,12,17,14,040,17,19,31,050,23,25,37,258,22,32,34,298,24*7B

4:22:08:957 Nachm. 04/01/17 - $GPGSV,3,3,12,02,13,125,,22,00,354,,24,62,142,,29,01,202,*71

4:22:08:960 Nachm. 04/01/17 - $GLGSV,3,1,10,78,68,333,20,70,09,351,28,86,08,019,18,77,40,094,20*69

4:22:08:961 Nachm. 04/01/17 - $GLGSV,3,2,10,79,30,299,18,69,26,296,19,87,51,063,34,88,44,146,*67

4:22:08:963 Nachm. 04/01/17 - $GLGSV,3,3,10,81,03,178,,68,14,246,*6B

4:22:08:964 Nachm. 04/01/17 - $GPGGA,,,,,,0,,,,,,,,*66

4:22:08:970 Nachm. 04/01/17 - $GNGNS,,,,,,NN,,,,,,*53

4:22:08:975 Nachm. 04/01/17 - $GPVTG,,T,,M,,N,,K,N*2C

4:22:08:976 Nachm. 04/01/17 - $GPRMC,,V,,,,,,,,,,N*53

4:22:08:976 Nachm. 04/01/17 - $GPGSA,A,1,,,,,,,,,,,,,,,*1E

4:22:08:977 Nachm. 04/01/17 - $GNGSA,A,1,,,,,,,,,,,,,,,*00

4:22:09:952 Nachm. 04/01/17 - $GPGSV,3,1,12,06,21,084,28,12,82,291,30,14,19,317,26,15,05,182,15*79

4:22:09:954 Nachm. 04/01/17 - $GPGSV,3,2,12,17,14,040,17,19,31,050,20,25,37,258,17,32,34,298,25*7F

4:22:09:954 Nachm. 04/01/17 - $GPGSV,3,3,12,02,13,125,,22,00,354,,24,62,142,,29,01,202,*71

4:22:09:955 Nachm. 04/01/17 - $GLGSV,3,1,10,78,68,333,17,70,09,351,27,86,08,019,18,77,40,094,22*60

4:22:09:958 Nachm. 04/01/17 - $GLGSV,3,2,10,79,30,299,19,69,26,296,19,87,51,063,35,88,44,146,*67

4:22:09:959 Nachm. 04/01/17 - $GLGSV,3,3,10,81,03,178,,68,14,246,*6B

4:22:09:960 Nachm. 04/01/17 - $GPGGA,,,,,,0,,,,,,,,*66

4:22:09:960 Nachm. 04/01/17 - $GNGNS,,,,,,NN,,,,,,*53

4:22:09:961 Nachm. 04/01/17 - $GPVTG,,T,,M,,N,,K,N*2C

4:22:09:961 Nachm. 04/01/17 - $GPRMC,,V,,,,,,,,,,N*53

4:22:09:962 Nachm. 04/01/17 - $GPGSA,A,1,,,,,,,,,,,,,,,*1E

4:22:09:962 Nachm. 04/01/17 - $GNGSA,A,1,,,,,,,,,,,,,,,*00

4:22:10:955 Nachm. 04/01/17 - $GPGSV,3,1,12,06,21,084,26,12,82,291,30,14,19,317,24,15,05,182,14*74

4:22:10:956 Nachm. 04/01/17 - $GPGSV,3,2,12,17,14,040,20,19,31,050,25,24,62,142,14,25,37,258,22*7A

4:22:10:957 Nachm. 04/01/17 - $GPGSV,3,3,12,32,34,298,22,02,13,125,,22,00,354,,29,01,202,*71

4:22:10:959 Nachm. 04/01/17 - $GLGSV,3,1,10,78,68,333,23,70,09,351,20,86,08,019,15,77,40,094,26*69

4:22:10:971 Nachm. 04/01/17 - $GLGSV,3,2,10,79,30,299,21,69,26,296,16,87,51,063,37,88,44,146,*61

4:22:10:977 Nachm. 04/01/17 - $GLGSV,3,3,10,81,03,178,,68,14,246,*6B

4:22:10:978 Nachm. 04/01/17 - $GPGGA,,,,,,0,,,,,,,,*66

4:22:10:979 Nachm. 04/01/17 - $GNGNS,,,,,,NN,,,,,,*53

4:22:10:979 Nachm. 04/01/17 - $GPVTG,,T,,M,,N,,K,N*2C

4:22:10:984 Nachm. 04/01/17 - $GPRMC,,V,,,,,,,,,,N*53

4:22:10:987 Nachm. 04/01/17 - $GPGSA,A,1,,,,,,,,,,,,,,,*1E

4:22:10:987 Nachm. 04/01/17 - $GNGSA,A,1,,,,,,,,,,,,,,,*00

4:22:11:955 Nachm. 04/01/17 - $GPGSV,3,1,12,06,21,084,29,12,82,291,30,14,19,317,23,15,05,182,14*7C

4:22:11:957 Nachm. 04/01/17 - $GPGSV,3,2,12,17,14,040,25,19,31,050,25,24,62,142,14,25,37,258,20*7D

4:22:11:960 Nachm. 04/01/17 - $GPGSV,3,3,12,32,34,298,25,02,13,125,,22,00,354,,29,01,202,*76

4:22:11:961 Nachm. 04/01/17 - $GLGSV,3,1,10,78,68,333,20,70,09,351,23,86,08,019,15,77,40,094,22*6D

4:22:11:978 Nachm. 04/01/17 - $GLGSV,3,2,10,79,30,299,22,69,26,296,16,87,51,063,34,88,44,146,*61

4:22:11:981 Nachm. 04/01/17 - $GLGSV,3,3,10,81,03,178,,68,14,246,*6B

4:22:11:982 Nachm. 04/01/17 - $GPGGA,,,,,,0,,,,,,,,*66

4:22:11:982 Nachm. 04/01/17 - $GNGNS,,,,,,NN,,,,,,*53

4:22:11:982 Nachm. 04/01/17 - $GPVTG,,T,,M,,N,,K,N*2C

4:22:11:983 Nachm. 04/01/17 - $GPRMC,,V,,,,,,,,,,N*53

4:22:11:984 Nachm. 04/01/17 - $GPGSA,A,1,,,,,,,,,,,,,,,*1E

4:22:11:984 Nachm. 04/01/17 - $GNGSA,A,1,,,,,,,,,,,,,,,*00

4:22:12:952 Nachm. 04/01/17 - $GPGSV,3,1,12,06,21,084,32,12,82,291,31,14,19,317,29,15,05,182,15*7C

4:22:12:954 Nachm. 04/01/17 - $GPGSV,3,2,12,17,14,040,27,19,31,050,24,24,62,142,15,25,37,258,21*7E

4:22:12:956 Nachm. 04/01/17 - $GPGSV,3,3,12,32,34,298,27,02,13,125,,22,00,354,,29,01,202,*74

4:22:12:959 Nachm. 04/01/17 - $GLGSV,3,1,10,78,68,333,21,70,09,351,25,86,08,019,15,77,40,094,20*68

4:22:12:967 Nachm. 04/01/17 - $GLGSV,3,2,10,79,30,299,24,69,26,296,18,87,51,063,27,88,44,146,*6B

4:22:12:975 Nachm. 04/01/17 - $GLGSV,3,3,10,81,03,178,,68,14,246,*6B

4:22:12:976 Nachm. 04/01/17 - $GPGGA,,,,,,0,,,,,,,,*66

4:22:12:978 Nachm. 04/01/17 - $GNGNS,,,,,,NN,,,,,,*53

4:22:12:979 Nachm. 04/01/17 - $GPVTG,,T,,M,,N,,K,N*2C

4:22:12:981 Nachm. 04/01/17 - $GPRMC,,V,,,,,,,,,,N*53

4:22:12:982 Nachm. 04/01/17 - $GPGSA,A,1,,,,,,,,,,,,,,,*1E

4:22:12:984 Nachm. 04/01/17 - $GNGSA,A,1,,,,,,,,,,,,,,,*00

4:22:13:952 Nachm. 04/01/17 - $GPGSV,3,1,12,06,21,084,32,12,82,291,31,14,19,317,23,15,05,182,16*75

4:22:13:955 Nachm. 04/01/17 - $GPGSV,3,2,12,17,14,040,33,19,31,050,24,24,62,142,16,25,37,258,25*7C

4:22:13:956 Nachm. 04/01/17 - $GPGSV,3,3,12,32,34,298,29,02,13,125,,22,00,354,,29,01,202,*7A

4:22:13:961 Nachm. 04/01/17 - $GLGSV,3,1,10,78,68,333,21,70,09,351,28,86,08,019,14,77,40,094,22*66

4:22:13:973 Nachm. 04/01/17 - $GLGSV,3,2,10,79,30,299,26,69,26,296,19,87,51,063,31,88,44,146,*6F

4:22:13:974 Nachm. 04/01/17 - $GLGSV,3,3,10,81,03,178,,68,14,246,*6B

4:22:13:975 Nachm. 04/01/17 - $GPGGA,,,,,,0,,,,,,,,*66

4:22:13:975 Nachm. 04/01/17 - $GNGNS,,,,,,NN,,,,,,*53

4:22:13:975 Nachm. 04/01/17 - $GPVTG,,T,,M,,N,,K,N*2C

4:22:13:976 Nachm. 04/01/17 - $GPRMC,,V,,,,,,,,,,N*53

4:22:13:976 Nachm. 04/01/17 - $GPGSA,A,1,,,,,,,,,,,,,,,*1E

4:22:13:977 Nachm. 04/01/17 - $GNGSA,A,1,,,,,,,,,,,,,,,*00

4:22:14:954 Nachm. 04/01/17 - $GPGSV,3,1,12,06,21,084,30,12,82,291,32,14,19,317,25,15,05,182,16*72

4:22:14:955 Nachm. 04/01/17 - $GPGSV,3,2,12,17,14,040,31,19,31,050,23,24,62,142,16,25,37,258,23*7F

4:22:14:958 Nachm. 04/01/17 - $GPGSV,3,3,12,32,34,298,28,02,13,125,,22,00,354,,29,01,202,*7B

4:22:14:969 Nachm. 04/01/17 - $GLGSV,3,1,10,78,68,333,20,70,09,351,29,86,08,019,18,77,40,094,18*63

4:22:14:970 Nachm. 04/01/17 - $GLGSV,3,2,10,79,30,299,25,69,26,296,22,87,51,063,33,68,14,246,13*6C

4:22:14:972 Nachm. 04/01/17 - $GLGSV,3,3,10,88,44,146,,81,03,178,*63

4:22:14:982 Nachm. 04/01/17 - $GPGGA,,,,,,0,,,,,,,,*66

4:22:14:985 Nachm. 04/01/17 - $GNGNS,,,,,,NN,,,,,,*53

4:22:14:985 Nachm. 04/01/17 - $GPVTG,,T,,M,,N,,K,N*2C

4:22:14:986 Nachm. 04/01/17 - $GPRMC,,V,,,,,,,,,,N*53

4:22:14:987 Nachm. 04/01/17 - $GPGSA,A,1,,,,,,,,,,,,,,,*1E

4:22:14:987 Nachm. 04/01/17 - $GNGSA,A,1,,,,,,,,,,,,,,,*00

4:22:15:955 Nachm. 04/01/17 - $GPGSV,3,1,12,06,21,084,32,12,82,291,32,14,19,317,27,15,05,182,16*72

4:22:15:957 Nachm. 04/01/17 - $GPGSV,3,2,12,17,14,040,29,19,31,050,31,24,62,142,17,25,37,258,23*74

4:22:15:963 Nachm. 04/01/17 - $GPGSV,3,3,12,32,34,298,28,02,13,125,,22,00,354,,29,01,202,*7B

4:22:15:968 Nachm. 04/01/17 - $GLGSV,3,1,10,78,68,333,22,70,09,351,30,86,08,019,19,77,40,094,24*67

4:22:15:977 Nachm. 04/01/17 - $GLGSV,3,2,10,79,30,299,26,69,26,296,23,87,51,063,28,68,14,246,13*64

4:22:15:983 Nachm. 04/01/17 - $GLGSV,3,3,10,88,44,146,,81,03,178,*63

4:22:15:983 Nachm. 04/01/17 - $GPGGA,,,,,,0,,,,,,,,*66

4:22:15:984 Nachm. 04/01/17 - $GNGNS,,,,,,NN,,,,,,*53

4:22:15:986 Nachm. 04/01/17 - $GPVTG,,T,,M,,N,,K,N*2C

4:22:15:986 Nachm. 04/01/17 - $GPRMC,,V,,,,,,,,,,N*53

4:22:15:987 Nachm. 04/01/17 - $GPGSA,A,1,,,,,,,,,,,,,,,*1E

4:22:15:987 Nachm. 04/01/17 - $GNGSA,A,1,,,,,,,,,,,,,,,*00

4:22:16:954 Nachm. 04/01/17 - $GPGSV,3,1,12,06,21,084,33,12,82,291,33,14,19,317,25,15,05,182,16*70

4:22:16:956 Nachm. 04/01/17 - $GPGSV,3,2,12,17,14,040,30,19,31,050,34,24,62,142,24,25,37,258,21*7B

4:22:16:957 Nachm. 04/01/17 - $GPGSV,3,3,12,32,34,298,28,02,13,125,,22,00,354,,29,01,202,*7B

4:22:16:961 Nachm. 04/01/17 - $GLGSV,3,1,10,78,68,333,19,70,09,351,31,86,08,019,19,77,40,094,21*6B

4:22:16:963 Nachm. 04/01/17 - $GLGSV,3,2,10,79,30,299,25,69,26,296,24,87,51,063,27,68,14,246,13*6F

4:22:16:971 Nachm. 04/01/17 - $GLGSV,3,3,10,88,44,146,,81,03,178,*63

4:22:16:975 Nachm. 04/01/17 - $GPGGA,142210.0,5208.389091,N,01138.512901,E,1,06,1.1,123.6,M,45.0,M,,*59

4:22:16:976 Nachm. 04/01/17 - $GNGNS,142210.0,5208.389091,N,01138.512901,E,AA,07,1.1,123.6,45.0,,*6C

4:22:16:977 Nachm. 04/01/17 - $GPVTG,5.8,T,5.4,M,1.9,N,3.6,K,A*22

4:22:16:977 Nachm. 04/01/17 - $GPRMC,142210.0,A,5208.389091,N,01138.512901,E,1.9,5.8,010417,0.4,E,A*03

4:22:16:978 Nachm. 04/01/17 - $GPGSA,A,2,12,15,17,19,24,32,,,,,,,1.4,1.1,0.8*30

4:22:16:979 Nachm. 04/01/17 - $GNGSA,A,2,12,15,17,19,24,32,,,,,,,1.4,1.1,0.8*2E

4:22:16:979 Nachm. 04/01/17 - $GNGSA,A,2,87,,,,,,,,,,,,1.4,1.1,0.8*2F

4:22:17:953 Nachm. 04/01/17 - $GPGSV,3,1,12,06,21,084,31,12,82,291,32,14,19,317,23,15,05,182,16*75

4:22:17:956 Nachm. 04/01/17 - $GPGSV,3,2,12,17,14,040,26,19,31,050,29,24,62,142,27,25,37,258,21*73

4:22:17:957 Nachm. 04/01/17 - $GPGSV,3,3,12,32,34,298,27,02,13,125,,22,00,354,,29,01,202,*74

4:22:17:958 Nachm. 04/01/17 - $GLGSV,3,1,10,78,68,333,21,70,09,351,33,86,08,019,22,77,40,094,27*6C

4:22:17:971 Nachm. 04/01/17 - $GLGSV,3,2,10,79,30,299,23,69,26,296,22,88,44,146,10,87,51,063,28*6B

4:22:17:972 Nachm. 04/01/17 - $GLGSV,3,3,10,68,14,246,13,81,03,178,*69

4:22:17:973 Nachm. 04/01/17 - $GPGGA,142211.0,5208.370976,N,01138.514820,E,1,06,1.1,93.0,M,45.0,M,,*66

4:22:17:974 Nachm. 04/01/17 - $GNGNS,142211.0,5208.370976,N,01138.514820,E,AA,07,1.1,93.0,45.0,,*53

4:22:17:974 Nachm. 04/01/17 - $GPVTG,95.5,T,95.1,M,1.9,N,3.6,K,A*2A

4:22:17:975 Nachm. 04/01/17 - $GPRMC,142211.0,A,5208.370976,N,01138.514820,E,1.9,95.5,010417,0.4,E,A*34

4:22:17:975 Nachm. 04/01/17 - $GPGSA,A,2,12,15,17,19,24,32,,,,,,,1.4,1.1,0.8*30

4:22:17:975 Nachm. 04/01/17 - $GNGSA,A,2,12,15,17,19,24,32,,,,,,,1.4,1.1,0.8*2E

4:22:17:975 Nachm. 04/01/17 - $GNGSA,A,2,87,,,,,,,,,,,,1.4,1.1,0.8*2F

4:22:18:956 Nachm. 04/01/17 - $GPGSV,3,1,12,06,21,084,29,12,82,291,31,14,19,317,27,15,05,182,16*7B

4:22:18:956 Nachm. 04/01/17 - $GPGSV,3,2,12,17,14,040,27,19,31,050,31,24,62,142,26,25,37,258,19*71

4:22:18:959 Nachm. 04/01/17 - $GPGSV,3,3,12,32,34,298,24,02,13,125,,22,00,354,,29,01,202,*77

4:22:18:961 Nachm. 04/01/17 - $GLGSV,3,1,10,78,68,333,21,70,09,351,32,86,08,019,21,77,40,094,29*60

4:22:18:972 Nachm. 04/01/17 - $GLGSV,3,2,10,79,30,299,23,69,26,296,20,88,44,146,10,87,51,063,28*69

4:22:18:973 Nachm. 04/01/17 - $GLGSV,3,3,10,68,14,246,13,81,03,178,*69

4:22:18:973 Nachm. 04/01/17 - $GPGGA,142212.0,5208.366669,N,01138.516986,E,1,06,1.1,84.3,M,45.0,M,,*69

4:22:18:974 Nachm. 04/01/17 - $GNGNS,142212.0,5208.366669,N,01138.516986,E,AA,07,1.1,84.3,45.0,,*5C

4:22:18:974 Nachm. 04/01/17 - $GPVTG,104.2,T,103.7,M,2.4,N,4.5,K,A*26

4:22:18:975 Nachm. 04/01/17 - $GPRMC,142212.0,A,5208.366669,N,01138.516986,E,2.4,104.2,010417,0.4,E,A*0E

4:22:18:977 Nachm. 04/01/17 - $GPGSA,A,2,12,15,17,19,24,32,,,,,,,1.4,1.1,0.8*30

4:22:18:977 Nachm. 04/01/17 - $GNGSA,A,2,12,15,17,19,24,32,,,,,,,1.4,1.1,0.8*2E

4:22:18:978 Nachm. 04/01/17 - $GNGSA,A,2,87,,,,,,,,,,,,1.4,1.1,0.8*2F

4:22:19:955 Nachm. 04/01/17 - $GPGSV,3,1,12,06,21,084,34,12,82,291,32,14,19,317,26,15,05,182,16*75

4:22:19:960 Nachm. 04/01/17 - $GPGSV,3,2,12,17,14,040,24,19,31,050,30,24,62,142,27,25,37,258,21*79

4:22:19:960 Nachm. 04/01/17 - $GPGSV,3,3,12,32,34,298,23,02,13,125,,22,00,354,,29,01,202,*70

4:22:19:964 Nachm. 04/01/17 - $GLGSV,3,1,10,78,68,333,21,70,09,351,29,86,08,019,22,77,40,094,27*67

4:22:19:972 Nachm. 04/01/17 - $GLGSV,3,2,10,79,30,299,19,69,26,296,21,88,44,146,10,87,51,063,33*6B

4:22:19:972 Nachm. 04/01/17 - $GLGSV,3,3,10,68,14,246,13,81,03,178,*69

4:22:19:972 Nachm. 04/01/17 - $GPGGA,142213.0,5208.364991,N,01138.518794,E,1,06,1.1,82.0,M,45.0,M,,*64

4:22:19:972 Nachm. 04/01/17 - $GNGNS,142213.0,5208.364991,N,01138.518794,E,AA,07,1.1,82.0,45.0,,*51

4:22:19:973 Nachm. 04/01/17 - $GPVTG,100.7,T,100.3,M,2.5,N,4.6,K,A*22

4:22:19:973 Nachm. 04/01/17 - $GPRMC,142213.0,A,5208.364991,N,01138.518794,E,2.5,100.7,010417,0.4,E,A*06

4:22:19:973 Nachm. 04/01/17 - $GPGSA,A,2,12,15,17,19,24,32,,,,,,,1.4,1.1,0.8*30

4:22:19:973 Nachm. 04/01/17 - $GNGSA,A,2,12,15,17,19,24,32,,,,,,,1.4,1.1,0.8*2E

4:22:19:973 Nachm. 04/01/17 - $GNGSA,A,2,87,,,,,,,,,,,,1.4,1.1,0.8*2F

4:22:20:957 Nachm. 04/01/17 - $GPGSV,3,1,12,06,21,084,33,12,82,291,31,14,19,317,24,15,05,182,16*73

4:22:20:965 Nachm. 04/01/17 - $GPGSV,3,2,12,17,14,040,28,19,31,050,32,24,62,142,26,25,37,258,17*73

4:22:20:966 Nachm. 04/01/17 - $GPGSV,3,3,12,32,34,298,24,02,13,125,,22,00,354,,29,01,202,*77

4:22:20:971 Nachm. 04/01/17 - $GLGSV,3,1,10,78,68,333,21,70,09,351,25,86,08,019,23,77,40,094,26*6B

4:22:20:973 Nachm. 04/01/17 - $GLGSV,3,2,10,79,30,299,20,69,26,296,18,88,44,146,10,87,51,063,29*60

4:22:20:973 Nachm. 04/01/17 - $GLGSV,3,3,10,68,14,246,13,81,03,178,*69

4:22:20:973 Nachm. 04/01/17 - $GPGGA,142214.0,5208.364709,N,01138.519931,E,1,06,1.1,79.8,M,45.0,M,,*60

4:22:20:973 Nachm. 04/01/17 - $GNGNS,142214.0,5208.364709,N,01138.519931,E,AA,07,1.1,79.8,45.0,,*55

4:22:20:974 Nachm. 04/01/17 - $GPVTG,97.8,T,97.3,M,2.5,N,4.6,K,A*2D

4:22:20:974 Nachm. 04/01/17 - $GPRMC,142214.0,A,5208.364709,N,01138.519931,E,2.5,97.8,010417,0.4,E,A*3E

4:22:20:974 Nachm. 04/01/17 - $GPGSA,A,2,12,15,17,19,24,32,,,,,,,1.4,1.1,0.8*30

4:22:20:974 Nachm. 04/01/17 - $GNGSA,A,2,12,15,17,19,24,32,,,,,,,1.4,1.1,0.8*2E

4:22:20:974 Nachm. 04/01/17 - $GNGSA,A,2,87,,,,,,,,,,,,1.4,1.1,0.8*2F

4:22:21:954 Nachm. 04/01/17 - $GPGSV,3,1,12,06,21,084,35,12,82,291,32,14,19,317,26,15,05,182,16*74

4:22:21:955 Nachm. 04/01/17 - $GPGSV,3,2,12,17,14,040,34,19,31,050,32,24,62,142,29,25,37,258,20*75

4:22:21:956 Nachm. 04/01/17 - $GPGSV,3,3,12,32,34,298,25,02,13,125,,22,00,354,,29,01,202,*76

4:22:21:968 Nachm. 04/01/17 - $GLGSV,3,1,10,78,68,333,13,70,09,351,22,86,08,019,24,77,40,094,27*6B

4:22:21:976 Nachm. 04/01/17 - $GLGSV,3,2,10,79,30,299,20,69,26,296,18,88,44,146,10,87,51,063,29*60

4:22:21:979 Nachm. 04/01/17 - $GLGSV,3,3,10,68,14,246,13,81,03,178,*69

4:22:21:979 Nachm. 04/01/17 - $GPGGA,142215.0,5208.365635,N,01138.520991,E,1,06,1.1,80.4,M,45.0,M,,*64

4:22:21:979 Nachm. 04/01/17 - $GNGNS,142215.0,5208.365635,N,01138.520991,E,AA,07,1.1,80.4,45.0,,*51

4:22:21:979 Nachm. 04/01/17 - $GPVTG,100.0,T,99.6,M,1.8,N,3.4,K,A*1A

4:22:21:979 Nachm. 04/01/17 - $GPRMC,142215.0,A,5208.365635,N,01138.520991,E,1.8,100.0,010417,0.4,E,A*09

4:22:21:980 Nachm. 04/01/17 - $GPGSA,A,2,12,15,17,19,24,32,,,,,,,1.4,1.1,0.8*30

4:22:21:980 Nachm. 04/01/17 - $GNGSA,A,2,12,15,17,19,24,32,,,,,,,1.4,1.1,0.8*2E

4:22:21:980 Nachm. 04/01/17 - $GNGSA,A,2,87,,,,,,,,,,,,1.4,1.1,0.8*2F

4:22:22:952 Nachm. 04/01/17 - $GPGSV,3,1,12,06,21,084,31,12,82,291,31,14,19,317,27,15,05,182,16*72

4:22:22:954 Nachm. 04/01/17 - $GPGSV,3,2,12,17,14,040,36,19,31,050,30,24,62,142,29,25,37,258,20*75

4:22:22:955 Nachm. 04/01/17 - $GPGSV,3,3,12,32,34,298,23,02,13,125,,22,00,354,,29,01,202,*70

4:22:22:961 Nachm. 04/01/17 - $GLGSV,3,1,10,78,68,333,13,70,09,351,22,86,08,019,23,77,40,094,26*6D

4:22:22:974 Nachm. 04/01/17 - $GLGSV,3,2,10,79,30,299,18,69,26,296,17,88,44,146,10,87,51,063,26*6B

4:22:22:975 Nachm. 04/01/17 - $GLGSV,3,3,10,68,14,246,13,81,03,178,*69

4:22:22:976 Nachm. 04/01/17 - $GPGGA,142216.0,5208.363407,N,01138.522926,E,1,06,1.1,77.3,M,45.0,M,,*63

4:22:22:976 Nachm. 04/01/17 - $GNGNS,142216.0,5208.363407,N,01138.522926,E,AA,07,1.1,77.3,45.0,,*56

4:22:22:977 Nachm. 04/01/17 - $GPVTG,101.6,T,101.2,M,2.9,N,5.3,K,A*2A

4:22:22:978 Nachm. 04/01/17 - $GPRMC,142216.0,A,5208.363407,N,01138.522926,E,2.9,101.6,010417,0.4,E,A*04

4:22:22:978 Nachm. 04/01/17 - $GPGSA,A,2,12,15,17,19,24,32,,,,,,,1.4,1.1,0.8*30

4:22:22:979 Nachm. 04/01/17 - $GNGSA,A,2,12,15,17,19,24,32,,,,,,,1.4,1.1,0.8*2E

4:22:22:979 Nachm. 04/01/17 - $GNGSA,A,2,87,,,,,,,,,,,,1.4,1.1,0.8*2F

4:22:23:954 Nachm. 04/01/17 - $GPGSV,3,1,12,06,21,084,30,12,82,291,31,14,19,317,27,15,05,182,16*73

4:22:23:957 Nachm. 04/01/17 - $GPGSV,3,2,12,17,14,040,36,19,31,050,31,24,62,142,31,25,37,258,19*77

4:22:23:961 Nachm. 04/01/17 - $GPGSV,3,3,12,32,34,298,23,02,13,125,,22,00,354,,29,01,202,*70

4:22:23:963 Nachm. 04/01/17 - $GLGSV,3,1,10,78,68,333,13,70,09,351,22,86,08,019,28,77,40,094,28*68

4:22:23:966 Nachm. 04/01/17 - $GLGSV,3,2,10,79,30,299,18,69,26,296,18,88,44,146,10,87,51,063,27*65

4:22:23:971 Nachm. 04/01/17 - $GLGSV,3,3,10,68,14,246,13,81,03,178,*69

4:22:23:975 Nachm. 04/01/17 - $GPGGA,142217.0,5208.363356,N,01138.524326,E,1,05,1.6,77.0,M,45.0,M,,*6A

4:22:23:975 Nachm. 04/01/17 - $GNGNS,142217.0,5208.363356,N,01138.524326,E,AA,06,1.6,77.0,45.0,,*5D

4:22:23:976 Nachm. 04/01/17 - $GPVTG,96.0,T,95.6,M,2.5,N,4.7,K,A*22

4:22:23:976 Nachm. 04/01/17 - $GPRMC,142217.0,A,5208.363356,N,01138.524326,E,2.5,96.0,010417,0.4,E,A*3F

4:22:23:977 Nachm. 04/01/17 - $GPGSA,A,2,12,17,19,24,32,,,,,,,,1.9,1.6,1.0*37

4:22:23:977 Nachm. 04/01/17 - $GNGSA,A,2,12,17,19,24,32,,,,,,,,1.9,1.6,1.0*29

4:22:23:977 Nachm. 04/01/17 - $GNGSA,A,2,87,,,,,,,,,,,,1.9,1.6,1.0*2C

4:22:24:952 Nachm. 04/01/17 - $GPGSV,3,1,12,06,21,084,32,12,82,291,32,14,19,317,27,15,05,182,16*72

4:22:24:952 Nachm. 04/01/17 - $GPGSV,3,2,12,17,14,040,37,19,31,050,33,24,62,142,32,25,37,258,20*7D

4:22:24:953 Nachm. 04/01/17 - $GPGSV,3,3,12,32,34,298,23,02,13,125,,22,00,354,,29,01,202,*70

4:22:24:953 Nachm. 04/01/17 - $GLGSV,3,1,10,78,68,333,15,70,09,351,23,86,08,019,26,77,40,094,27*6E

4:22:24:954 Nachm. 04/01/17 - $GLGSV,3,2,10,79,30,299,17,69,26,296,18,88,44,146,10,87,51,063,30*6C

4:22:24:955 Nachm. 04/01/17 - $GLGSV,3,3,10,68,14,246,13,81,03,178,*69

4:22:24:955 Nachm. 04/01/17 - $GPGGA,142218.0,5208.362344,N,01138.525460,E,1,05,1.6,75.0,M,45.0,M,,*61

4:22:24:956 Nachm. 04/01/17 - $GNGNS,142218.0,5208.362344,N,01138.525460,E,AA,06,1.6,75.0,45.0,,*56

4:22:24:957 Nachm. 04/01/17 - $GPVTG,95.6,T,95.2,M,2.4,N,4.4,K,A*21

4:22:24:958 Nachm. 04/01/17 - $GPRMC,142218.0,A,5208.362344,N,01138.525460,E,2.4,95.6,010417,0.4,E,A*32

4:22:24:958 Nachm. 04/01/17 - $GPGSA,A,2,12,17,19,24,32,,,,,,,,1.9,1.6,1.0*37

4:22:24:959 Nachm. 04/01/17 - $GNGSA,A,2,12,17,19,24,32,,,,,,,,1.9,1.6,1.0*29

4:22:24:959 Nachm. 04/01/17 - $GNGSA,A,2,87,,,,,,,,,,,,1.9,1.6,1.0*2C

4:22:25:956 Nachm. 04/01/17 - $GPGSV,3,1,12,06,21,084,33,12,82,291,33,14,19,317,25,15,05,182,16*70

4:22:25:957 Nachm. 04/01/17 - $GPGSV,3,2,12,17,14,040,31,19,31,050,31,24,62,142,34,25,37,258,24*7B

4:22:25:957 Nachm. 04/01/17 - $GPGSV,3,3,12,32,34,298,23,02,13,125,,22,00,354,,29,01,202,*70

4:22:25:963 Nachm. 04/01/17 - $GLGSV,3,1,10,78,68,333,19,70,09,351,18,86,08,019,27,77,40,094,26*6A

4:22:25:973 Nachm. 04/01/17 - $GLGSV,3,2,10,79,30,299,19,69,26,296,15,88,44,146,10,87,51,063,33*6C

4:22:25:974 Nachm. 04/01/17 - $GLGSV,3,3,10,68,14,246,13,81,03,178,*69

4:22:25:976 Nachm. 04/01/17 - $GPGGA,142219.0,5208.362408,N,01138.527609,E,1,05,1.6,76.4,M,45.0,M,,*67

4:22:25:978 Nachm. 04/01/17 - $GNGNS,142219.0,5208.362408,N,01138.527609,E,AA,06,1.6,76.4,45.0,,*50

4:22:25:980 Nachm. 04/01/17 - $GPVTG,92.5,T,92.0,M,2.4,N,4.4,K,A*20

4:22:25:981 Nachm. 04/01/17 - $GPRMC,142219.0,A,5208.362408,N,01138.527609,E,2.4,92.5,010417,0.4,E,A*37

4:22:25:982 Nachm. 04/01/17 - $GPGSA,A,2,12,17,19,24,32,,,,,,,,1.9,1.6,1.0*37

4:22:25:984 Nachm. 04/01/17 - $GNGSA,A,2,12,17,19,24,32,,,,,,,,1.9,1.6,1.0*29

4:22:25:985 Nachm. 04/01/17 - $GNGSA,A,2,87,,,,,,,,,,,,1.9,1.6,1.0*2C

4:22:26:953 Nachm. 04/01/17 - $GPGSV,3,1,12,06,21,084,33,12,82,291,29,14,19,317,24,15,05,182,16*7A

4:22:26:954 Nachm. 04/01/17 - $GPGSV,3,2,12,17,14,040,36,19,31,050,30,24,62,142,35,25,37,258,23*7B

4:22:26:957 Nachm. 04/01/17 - $GPGSV,3,3,12,32,34,298,23,02,13,125,,22,00,354,,29,01,202,*70

4:22:26:959 Nachm. 04/01/17 - $GLGSV,3,1,10,78,68,333,19,70,09,351,20,86,08,019,24,77,40,094,27*63

4:22:26:960 Nachm. 04/01/17 - $GLGSV,3,2,10,79,30,299,19,69,26,296,15,88,44,146,10,87,51,063,31*6E

4:22:26:962 Nachm. 04/01/17 - $GLGSV,3,3,10,68,14,246,13,81,03,178,*69

4:22:26:963 Nachm. 04/01/17 - $GPGGA,142220.0,5208.362427,N,01138.529335,E,1,05,1.6,76.8,M,45.0,M,,*68

4:22:26:964 Nachm. 04/01/17 - $GNGNS,142220.0,5208.362427,N,01138.529335,E,AA,06,1.6,76.8,45.0,,*5F

4:22:26:966 Nachm. 04/01/17 - $GPVTG,89.7,T,89.3,M,2.8,N,5.1,K,A*29

4:22:26:974 Nachm. 04/01/17 - $GPRMC,142220.0,A,5208.362427,N,01138.529335,E,2.8,89.7,010417,0.4,E,A*30

4:22:26:989 Nachm. 04/01/17 - $GPGSA,A,2,12,17,19,24,32,,,,,,,,1.9,1.6,1.0*37

4:22:26:996 Nachm. 04/01/17 - $GNGSA,A,2,12,17,19,24,32,,,,,,,,1.9,1.6,1.0*29

4:22:26:998 Nachm. 04/01/17 - $GNGSA,A,2,87,,,,,,,,,,,,1.9,1.6,1.0*2C

4:22:27:954 Nachm. 04/01/17 - $GPGSV,3,1,12,06,21,084,34,12,82,291,29,14,19,317,25,15,05,182,16*7C

4:22:27:955 Nachm. 04/01/17 - $GPGSV,3,2,12,17,14,040,32,19,31,050,30,24,62,142,36,25,37,258,23*7C

4:22:27:955 Nachm. 04/01/17 - $GPGSV,3,3,12,32,34,298,25,02,13,125,,22,00,354,,29,01,202,*76

4:22:27:957 Nachm. 04/01/17 - $GLGSV,3,1,10,78,68,333,19,70,09,351,21,86,08,019,24,77,40,094,25*60

4:22:27:967 Nachm. 04/01/17 - $GLGSV,3,2,10,79,30,299,20,69,26,296,19,88,44,146,10,87,51,063,31*68

4:22:27:975 Nachm. 04/01/17 - $GLGSV,3,3,10,68,14,246,13,81,03,178,*69

4:22:27:978 Nachm. 04/01/17 - $GPGGA,142221.0,5208.361611,N,01138.530249,E,1,05,1.6,74.8,M,45.0,M,,*6D

4:22:27:979 Nachm. 04/01/17 - $GNGNS,142221.0,5208.361611,N,01138.530249,E,AA,06,1.6,74.8,45.0,,*5A

4:22:27:979 Nachm. 04/01/17 - $GPVTG,94.3,T,93.9,M,2.1,N,3.9,K,A*27

4:22:27:979 Nachm. 04/01/17 - $GPRMC,142221.0,A,5208.361611,N,01138.530249,E,2.1,94.3,010417,0.4,E,A*36

4:22:27:980 Nachm. 04/01/17 - $GPGSA,A,2,12,17,19,24,32,,,,,,,,1.9,1.6,1.0*37

4:22:27:980 Nachm. 04/01/17 - $GNGSA,A,2,12,17,19,24,32,,,,,,,,1.9,1.6,1.0*29

4:22:27:980 Nachm. 04/01/17 - $GNGSA,A,2,87,,,,,,,,,,,,1.9,1.6,1.0*2C

4:22:28:953 Nachm. 04/01/17 - $GPGSV,3,1,12,06,21,084,33,12,82,291,28,14,19,317,27,15,05,182,16*78

4:22:28:953 Nachm. 04/01/17 - $GPGSV,3,2,12,17,14,040,35,19,31,050,29,24,62,142,37,25,37,258,21*70

4:22:28:956 Nachm. 04/01/17 - $GPGSV,3,3,12,32,34,298,24,02,13,125,,22,00,354,,29,01,202,*77

4:22:28:956 Nachm. 04/01/17 - $GLGSV,3,1,10,78,68,333,19,70,09,351,22,86,08,019,30,77,40,094,25*66

4:22:28:961 Nachm. 04/01/17 - $GLGSV,3,2,10,79,30,299,20,69,26,296,19,88,44,146,10,87,51,063,32*6B

4:22:28:961 Nachm. 04/01/17 - $GLGSV,3,3,10,68,14,246,13,81,03,178,*69

4:22:28:962 Nachm. 04/01/17 - $GPGGA,142222.0,5208.361315,N,01138.531168,E,1,05,1.6,73.6,M,45.0,M,,*67

4:22:28:962 Nachm. 04/01/17 - $GNGNS,142222.0,5208.361315,N,01138.531168,E,AA,06,1.6,73.6,45.0,,*50

4:22:28:962 Nachm. 04/01/17 - $GPVTG,94.3,T,93.9,M,0.0,N,0.0,K,A*2E

4:22:28:962 Nachm. 04/01/17 - $GPRMC,142222.0,A,5208.361315,N,01138.531168,E,0.0,94.3,010417,0.4,E,A*36

4:22:28:962 Nachm. 04/01/17 - $GPGSA,A,2,12,17,19,24,32,,,,,,,,1.9,1.6,1.0*37

4:22:28:963 Nachm. 04/01/17 - $GNGSA,A,2,12,17,19,24,32,,,,,,,,1.9,1.6,1.0*29

4:22:28:963 Nachm. 04/01/17 - $GNGSA,A,2,87,,,,,,,,,,,,1.9,1.6,1.0*2C

4:22:29:958 Nachm. 04/01/17 - $GPGSV,3,1,12,06,21,084,32,12,82,291,30,14,19,317,28,15,05,182,16*7F

4:22:29:959 Nachm. 04/01/17 - $GPGSV,3,2,12,17,14,040,35,19,31,050,31,24,62,142,35,25,37,258,21*7B

4:22:29:960 Nachm. 04/01/17 - $GPGSV,3,3,12,32,34,298,24,02,13,125,,22,00,354,,29,01,202,*77

4:22:29:967 Nachm. 04/01/17 - $GLGSV,3,1,10,78,68,333,15,70,09,351,21,86,08,019,29,77,40,094,21*65

4:22:29:975 Nachm. 04/01/17 - $GLGSV,3,2,10,79,30,299,17,69,26,296,19,88,44,146,10,87,51,063,26*6A

4:22:29:978 Nachm. 04/01/17 - $GLGSV,3,3,10,68,14,246,13,81,03,178,*69

4:22:29:979 Nachm. 04/01/17 - $GPGGA,142223.0,5208.361380,N,01138.531735,E,1,05,1.6,73.5,M,45.0,M,,*67

4:22:29:979 Nachm. 04/01/17 - $GNGNS,142223.0,5208.361380,N,01138.531735,E,AA,06,1.6,73.5,45.0,,*50

4:22:29:980 Nachm. 04/01/17 - $GPVTG,94.3,T,93.9,M,0.0,N,0.0,K,A*2E

4:22:29:981 Nachm. 04/01/17 - $GPRMC,142223.0,A,5208.361380,N,01138.531735,E,0.0,94.3,010417,0.4,E,A*35

4:22:29:981 Nachm. 04/01/17 - $GPGSA,A,2,12,17,19,24,32,,,,,,,,1.9,1.6,1.0*37

4:22:29:982 Nachm. 04/01/17 - $GNGSA,A,2,12,17,19,24,32,,,,,,,,1.9,1.6,1.0*29

4:22:29:983 Nachm. 04/01/17 - $GNGSA,A,2,87,,,,,,,,,,,,1.9,1.6,1.0*2C

4:22:30:954 Nachm. 04/01/17 - $GPGSV,3,1,12,06,21,084,28,12,82,291,29,14,19,317,25,15,05,182,16*71

4:22:30:956 Nachm. 04/01/17 - $GPGSV,3,2,12,17,14,040,31,19,31,050,33,24,62,142,36,25,37,258,21*7E

4:22:30:957 Nachm. 04/01/17 - $GPGSV,3,3,12,32,34,298,24,02,13,125,,22,00,354,,29,01,202,*77

4:22:30:960 Nachm. 04/01/17 - $GLGSV,3,1,10,78,68,333,21,70,09,351,18,86,08,019,28,77,40,094,26*6E

4:22:30:974 Nachm. 04/01/17 - $GLGSV,3,2,10,79,30,299,17,69,26,296,16,88,44,146,10,87,51,063,37*65

4:22:30:974 Nachm. 04/01/17 - $GLGSV,3,3,10,68,14,246,13,81,03,178,*69

4:22:30:974 Nachm. 04/01/17 - $GPGGA,142224.0,5208.361270,N,01138.532463,E,1,05,1.6,73.7,M,45.0,M,,*6F

4:22:30:975 Nachm. 04/01/17 - $GNGNS,142224.0,5208.361270,N,01138.532463,E,AA,06,1.6,73.7,45.0,,*58

4:22:30:975 Nachm. 04/01/17 - $GPVTG,103.9,T,103.5,M,2.9,N,5.3,K,A*22

4:22:30:976 Nachm. 04/01/17 - $GPRMC,142224.0,A,5208.361270,N,01138.532463,E,2.9,103.9,010417,0.4,E,A*01

4:22:30:976 Nachm. 04/01/17 - $GPGSA,A,2,12,17,19,24,32,,,,,,,,1.9,1.6,1.0*37

4:22:30:977 Nachm. 04/01/17 - $GNGSA,A,2,12,17,19,24,32,,,,,,,,1.9,1.6,1.0*29

4:22:30:977 Nachm. 04/01/17 - $GNGSA,A,2,87,,,,,,,,,,,,1.9,1.6,1.0*2C

4:22:31:953 Nachm. 04/01/17 - $GPGSV,3,1,12,06,21,084,29,12,82,291,29,14,19,317,20,15,05,182,16*75

4:22:31:954 Nachm. 04/01/17 - $GPGSV,3,2,12,17,14,040,33,19,31,050,31,24,62,142,36,25,37,258,22*7D

4:22:31:954 Nachm. 04/01/17 - $GPGSV,3,3,12,32,34,298,24,02,13,125,,22,00,354,,29,01,202,*77

4:22:31:954 Nachm. 04/01/17 - $GLGSV,3,1,10,78,68,333,22,70,09,351,21,86,08,019,27,77,40,094,25*6B

4:22:31:958 Nachm. 04/01/17 - $GLGSV,3,2,10,79,30,299,17,69,26,296,18,88,44,146,10,87,51,063,33*6F

4:22:31:959 Nachm. 04/01/17 - $GLGSV,3,3,10,68,14,246,13,81,03,178,*69

4:22:31:960 Nachm. 04/01/17 - $GPGGA,142225.0,5208.360897,N,01138.534327,E,1,05,1.6,73.2,M,45.0,M,,*68

4:22:31:960 Nachm. 04/01/17 - $GNGNS,142225.0,5208.360897,N,01138.534327,E,AA,06,1.6,73.2,45.0,,*5F

4:22:31:960 Nachm. 04/01/17 - $GPVTG,96.9,T,96.5,M,3.0,N,5.6,K,A*2F

4:22:31:960 Nachm. 04/01/17 - $GPRMC,142225.0,A,5208.360897,N,01138.534327,E,3.0,96.9,010417,0.4,E,A*36

4:22:31:960 Nachm. 04/01/17 - $GPGSA,A,2,12,17,19,24,32,,,,,,,,1.9,1.6,1.0*37

4:22:31:961 Nachm. 04/01/17 - $GNGSA,A,2,12,17,19,24,32,,,,,,,,1.9,1.6,1.0*29

4:22:31:961 Nachm. 04/01/17 - $GNGSA,A,2,87,,,,,,,,,,,,1.9,1.6,1.0*2C

4:22:32:954 Nachm. 04/01/17 - $GPGSV,3,1,12,06,21,084,29,12,82,291,31,14,19,317,24,15,05,182,16*78

4:22:32:955 Nachm. 04/01/17 - $GPGSV,3,2,12,17,14,040,27,19,31,050,32,24,62,142,36,25,37,258,21*78

4:22:32:957 Nachm. 04/01/17 - $GPGSV,3,3,12,32,34,298,25,02,13,125,,22,00,354,,29,01,202,*76

4:22:32:958 Nachm. 04/01/17 - $GLGSV,3,1,10,78,68,333,19,70,09,351,23,86,08,019,29,77,40,094,25*6F

4:22:32:967 Nachm. 04/01/17 - $GLGSV,3,2,10,79,30,299,16,69,26,296,22,88,44,146,10,87,51,063,35*61

4:22:32:970 Nachm. 04/01/17 - $GLGSV,3,3,10,68,14,246,13,81,03,178,*69

4:22:32:974 Nachm. 04/01/17 - $GPGGA,142226.0,5208.360447,N,01138.537207,E,1,05,1.6,74.5,M,45.0,M,,*6A

4:22:32:979 Nachm. 04/01/17 - $GNGNS,142226.0,5208.360447,N,01138.537207,E,AA,06,1.6,74.5,45.0,,*5D

4:22:32:979 Nachm. 04/01/17 - $GPVTG,101.3,T,100.8,M,3.0,N,5.6,K,A*29

4:22:32:979 Nachm. 04/01/17 - $GPRMC,142226.0,A,5208.360447,N,01138.537207,E,3.0,101.3,010417,0.4,E,A*01

4:22:32:979 Nachm. 04/01/17 - $GPGSA,A,2,12,17,19,24,32,,,,,,,,1.9,1.6,1.0*37

4:22:32:980 Nachm. 04/01/17 - $GNGSA,A,2,12,17,19,24,32,,,,,,,,1.9,1.6,1.0*29

4:22:32:981 Nachm. 04/01/17 - $GNGSA,A,2,87,,,,,,,,,,,,1.9,1.6,1.0*2C

4:22:33:953 Nachm. 04/01/17 - $GPGSV,3,1,12,06,21,084,30,12,82,291,30,14,19,317,20,15,05,182,16*75

4:22:33:958 Nachm. 04/01/17 - $GPGSV,3,2,12,17,14,040,36,19,31,050,33,24,62,142,36,25,37,258,21*79

4:22:33:961 Nachm. 04/01/17 - $GPGSV,3,3,12,32,34,298,23,02,13,125,,22,00,354,,29,01,202,*70

4:22:33:973 Nachm. 04/01/17 - $GLGSV,3,1,10,78,68,333,21,70,09,351,19,86,08,019,26,77,40,094,25*62

4:22:33:979 Nachm. 04/01/17 - $GLGSV,3,2,10,79,30,299,19,69,26,296,22,88,44,146,10,87,51,063,29*63

4:22:33:980 Nachm. 04/01/17 - $GLGSV,3,3,10,68,14,246,13,81,03,178,*69

4:22:33:980 Nachm. 04/01/17 - $GPGGA,142227.0,5208.359944,N,01138.538300,E,1,05,1.6,73.6,M,45.0,M,,*62

4:22:33:981 Nachm. 04/01/17 - $GNGNS,142227.0,5208.359944,N,01138.538300,E,AA,06,1.6,73.6,45.0,,*55

4:22:33:981 Nachm. 04/01/17 - $GPVTG,105.0,T,104.6,M,2.4,N,4.4,K,A*22

4:22:33:981 Nachm. 04/01/17 - $GPRMC,142227.0,A,5208.359944,N,01138.538300,E,2.4,105.0,010417,0.4,E,A*0F

4:22:33:981 Nachm. 04/01/17 - $GPGSA,A,2,12,17,19,24,32,,,,,,,,1.9,1.6,1.0*37

4:22:33:982 Nachm. 04/01/17 - $GNGSA,A,2,12,17,19,24,32,,,,,,,,1.9,1.6,1.0*29

4:22:33:982 Nachm. 04/01/17 - $GNGSA,A,2,87,,,,,,,,,,,,1.9,1.6,1.0*2C

4:22:34:952 Nachm. 04/01/17 - $GPGSV,3,1,12,06,21,084,29,12,82,291,29,14,19,317,20,15,05,182,16*75

4:22:34:955 Nachm. 04/01/17 - $GPGSV,3,2,12,17,14,040,30,19,31,050,28,24,62,142,36,25,37,258,23*77

4:22:34:956 Nachm. 04/01/17 - $GPGSV,3,3,12,32,34,298,23,02,13,125,,22,00,354,,29,01,202,*70

4:22:34:956 Nachm. 04/01/17 - $GLGSV,3,1,10,78,68,333,18,70,09,351,22,86,08,019,30,77,40,094,24*66

4:22:34:968 Nachm. 04/01/17 - $GLGSV,3,2,10,79,30,299,18,69,26,296,15,88,44,146,10,87,51,063,35*6B

4:22:34:969 Nachm. 04/01/17 - $GLGSV,3,3,10,68,14,246,13,81,03,178,*69

4:22:34:971 Nachm. 04/01/17 - $GPGGA,142228.0,5208.359473,N,01138.539755,E,1,05,1.6,73.9,M,45.0,M,,*6E

4:22:34:972 Nachm. 04/01/17 - $GNGNS,142228.0,5208.359473,N,01138.539755,E,AA,06,1.6,73.9,45.0,,*59

4:22:34:973 Nachm. 04/01/17 - $GPVTG,113.2,T,112.8,M,2.3,N,4.2,K,A*2F

4:22:34:973 Nachm. 04/01/17 - $GPRMC,142228.0,A,5208.359473,N,01138.539755,E,2.3,113.2,010417,0.4,E,A*0E

4:22:34:974 Nachm. 04/01/17 - $GPGSA,A,2,12,17,19,24,32,,,,,,,,1.9,1.6,1.0*37

4:22:34:975 Nachm. 04/01/17 - $GNGSA,A,2,12,17,19,24,32,,,,,,,,1.9,1.6,1.0*29

4:22:34:975 Nachm. 04/01/17 - $GNGSA,A,2,87,,,,,,,,,,,,1.9,1.6,1.0*2C

4:22:35:954 Nachm. 04/01/17 - $GPGSV,3,1,12,06,21,084,30,12,82,291,32,14,19,317,25,17,14,040,31*7A

4:22:35:956 Nachm. 04/01/17 - $GPGSV,3,2,12,19,31,050,32,24,62,142,36,25,37,258,21,32,34,298,23*7E

4:22:35:957 Nachm. 04/01/17 - $GPGSV,3,3,12,02,13,125,,15,05,182,,22,00,354,,29,01,202,*7E

4:22:35:957 Nachm. 04/01/17 - $GLGSV,3,1,10,78,68,333,18,70,09,351,24,86,08,019,26,77,40,094,25*66

4:22:35:962 Nachm. 04/01/17 - $GLGSV,3,2,10,79,30,299,18,69,26,296,15,88,44,146,10,87,51,063,38*66

4:22:35:966 Nachm. 04/01/17 - $GLGSV,3,3,10,68,14,246,13,81,03,178,*69

4:22:35:966 Nachm. 04/01/17 - $GPGGA,142229.0,5208.359198,N,01138.541168,E,1,05,1.6,72.7,M,45.0,M,,*67

4:22:35:966 Nachm. 04/01/17 - $GNGNS,142229.0,5208.359198,N,01138.541168,E,AA,06,1.6,72.7,45.0,,*50

4:22:35:967 Nachm. 04/01/17 - $GPVTG,97.5,T,97.0,M,2.4,N,4.5,K,A*21

4:22:35:967 Nachm. 04/01/17 - $GPRMC,142229.0,A,5208.359198,N,01138.541168,E,2.4,97.5,010417,0.4,E,A*35

4:22:35:968 Nachm. 04/01/17 - $GPGSA,A,2,12,17,19,24,32,,,,,,,,1.9,1.6,1.0*37

4:22:35:969 Nachm. 04/01/17 - $GNGSA,A,2,12,17,19,24,32,,,,,,,,1.9,1.6,1.0*29

4:22:35:969 Nachm. 04/01/17 - $GNGSA,A,2,87,,,,,,,,,,,,1.9,1.6,1.0*2C

4:22:36:953 Nachm. 04/01/17 - $GPGSV,3,1,12,06,21,084,33,12,82,291,32,14,19,317,25,17,14,040,30*78

4:22:36:953 Nachm. 04/01/17 - $GPGSV,3,2,12,19,31,050,28,24,62,142,37,25,37,258,25,32,34,298,22*71

4:22:36:953 Nachm. 04/01/17 - $GPGSV,3,3,12,02,13,125,,15,05,182,,22,00,354,,29,01,202,*7E

4:22:36:953 Nachm. 04/01/17 - $GLGSV,3,1,10,78,68,333,20,70,09,351,21,86,08,019,30,77,40,094,24*6E

4:22:36:963 Nachm. 04/01/17 - $GLGSV,3,2,10,79,30,299,20,69,26,296,16,88,44,146,10,87,51,063,34*62

4:22:36:964 Nachm. 04/01/17 - $GLGSV,3,3,10,81,03,178,,,14,246,*65

4:22:36:964 Nachm. 04/01/17 - $GPGGA,142230.0,5208.358996,N,01138.542677,E,1,05,1.6,72.6,M,45.0,M,,*63

4:22:36:964 Nachm. 04/01/17 - $GNGNS,142230.0,5208.358996,N,01138.542677,E,AA,06,1.6,72.6,45.0,,*54

4:22:36:964 Nachm. 04/01/17 - $GPVTG,97.4,T,96.9,M,2.6,N,4.9,K,A*26

4:22:36:965 Nachm. 04/01/17 - $GPRMC,142230.0,A,5208.358996,N,01138.542677,E,2.6,97.4,010417,0.4,E,A*33

4:22:36:965 Nachm. 04/01/17 - $GPGSA,A,2,12,17,19,24,32,,,,,,,,1.9,1.6,1.0*37

4:22:36:965 Nachm. 04/01/17 - $GNGSA,A,2,12,17,19,24,32,,,,,,,,1.9,1.6,1.0*29

4:22:36:966 Nachm. 04/01/17 - $GNGSA,A,2,87,,,,,,,,,,,,1.9,1.6,1.0*2C

4:24:51:996 Nachm. 04/01/17 - $GPGSV,3,1,12,06,21,084,33,12,82,291,32,14,19,317,25,17,14,040,30*78

4:24:51:997 Nachm. 04/01/17 - $GPGSV,3,2,12,19,31,050,28,24,62,142,37,25,37,258,25,32,34,298,22*71

4:24:51:997 Nachm. 04/01/17 - $GPGSV,3,3,12,02,13,125,,15,05,182,,22,00,354,,29,01,202,*7E

4:24:51:997 Nachm. 04/01/17 - $GLGSV,3,1,10,78,68,333,20,70,09,351,21,86,08,019,30,77,40,094,24*6E

4:24:51:997 Nachm. 04/01/17 - $GLGSV,3,2,10,79,30,299,20,69,26,296,16,88,44,146,10,87,51,063,34*62

4:24:51:999 Nachm. 04/01/17 - $GLGSV,3,3,10,81,03,178,,,14,246,*65

4:24:51:999 Nachm. 04/01/17 - $GPGGA,,,,,,0,,,,,,,,*66

4:24:51:999 Nachm. 04/01/17 - $GNGNS,,,,,,NN,,,,,,*53

4:24:51:999 Nachm. 04/01/17 - $GPVTG,,T,,M,,N,,K,N*2C

4:24:51:999 Nachm. 04/01/17 - $GPRMC,,V,,,,,,,,,,N*53

4:24:51:999 Nachm. 04/01/17 - $GPGSA,A,1,,,,,,,,,,,,,,,*1E

4:24:51:999 Nachm. 04/01/17 - $GNGSA,A,1,,,,,,,,,,,,,,,*00

4:24:52:953 Nachm. 04/01/17 - $GPGSV,3,1,12,32,34,296,32,02,14,123,,06,22,082,,12,83,303,*71

4:24:52:954 Nachm. 04/01/17 - $GPGSV,3,2,12,14,20,317,,15,04,182,,17,13,040,,19,30,049,*74

4:24:52:955 Nachm. 04/01/17 - $GPGSV,3,3,12,22,00,352,,24,61,143,,25,38,260,,29,02,202,*78

4:24:52:955 Nachm. 04/01/17 - $GLGSV,3,1,10,77,40,095,19,79,32,299,27,69,25,295,27,88,45,144,22*6D

4:24:52:955 Nachm. 04/01/17 - $GLGSV,3,2,10,68,12,244,22,78,69,336,,70,10,351,,86,07,018,*6D

4:24:52:955 Nachm. 04/01/17 - $GLGSV,3,3,10,87,50,061,,81,04,178,*6A

4:24:52:959 Nachm. 04/01/17 - $GPGGA,,,,,,0,,,,,,,,*66

4:24:52:966 Nachm. 04/01/17 - $GNGNS,,,,,,NN,,,,,,*53

4:24:52:966 Nachm. 04/01/17 - $GPVTG,,T,,M,,N,,K,N*2C

4:24:52:966 Nachm. 04/01/17 - $GPRMC,,V,,,,,,,,,,N*53

4:24:52:966 Nachm. 04/01/17 - $GPGSA,A,1,,,,,,,,,,,,,,,*1E

4:24:52:966 Nachm. 04/01/17 - $GNGSA,A,1,,,,,,,,,,,,,,,*00

4:24:53:860 Nachm. 04/01/17 - $GPGSV,3,1,12,02,14,123,22,06,22,082,30,19,30,049,31,24,61,143,30*70

4:24:53:861 Nachm. 04/01/17 - $GPGSV,3,2,12,25,38,260,30,32,34,296,31,12,83,303,,14,20,317,*73

4:24:53:862 Nachm. 04/01/17 - $GPGSV,3,3,12,15,04,182,,17,13,040,,22,00,352,,29,02,202,*7C

4:24:53:877 Nachm. 04/01/17 - $GLGSV,3,1,10,70,10,351,25,86,07,018,19,77,40,095,21,79,32,299,24*68

4:24:53:886 Nachm. 04/01/17 - $GLGSV,3,2,10,69,25,295,23,88,45,144,22,87,50,061,33,68,12,244,24*66

4:24:53:887 Nachm. 04/01/17 - $GLGSV,3,3,10,78,69,336,,81,04,178,*61

4:24:53:888 Nachm. 04/01/17 - $GPGGA,,,,,,0,,,,,,,,*66

4:24:53:889 Nachm. 04/01/17 - $GNGNS,,,,,,NN,,,,,,*53

4:24:53:889 Nachm. 04/01/17 - $GPVTG,,T,,M,,N,,K,N*2C

4:24:53:890 Nachm. 04/01/17 - $GPRMC,,V,,,,,,,,,,N*53

4:24:53:890 Nachm. 04/01/17 - $GPGSA,A,1,,,,,,,,,,,,,,,*1E

4:24:53:891 Nachm. 04/01/17 - $GNGSA,A,1,,,,,,,,,,,,,,,*00

4:24:53:951 Nachm. 04/01/17 - $GPGSV,3,1,12,02,14,123,22,06,22,082,30,19,30,049,31,24,61,143,30*70

4:24:53:952 Nachm. 04/01/17 - $GPGSV,3,2,12,25,38,260,30,32,34,296,31,12,83,303,,14,20,317,*73

4:24:53:952 Nachm. 04/01/17 - $GPGSV,3,3,12,15,04,182,,17,13,040,,22,00,352,,29,02,202,*7C

4:24:53:959 Nachm. 04/01/17 - $GLGSV,3,1,10,70,10,351,25,86,07,018,19,77,40,095,21,79,32,299,24*68

4:24:53:960 Nachm. 04/01/17 - $GLGSV,3,2,10,69,25,295,23,88,45,144,22,87,50,061,33,68,12,244,24*66

4:24:53:960 Nachm. 04/01/17 - $GLGSV,3,3,10,78,69,336,,81,04,178,*61

4:24:53:961 Nachm. 04/01/17 - $GPGGA,,,,,,0,,,,,,,,*66

4:24:53:961 Nachm. 04/01/17 - $GNGNS,,,,,,NN,,,,,,*53

4:24:53:977 Nachm. 04/01/17 - $GPVTG,,T,,M,,N,,K,N*2C

4:24:53:978 Nachm. 04/01/17 - $GPRMC,,V,,,,,,,,,,N*53

4:24:53:979 Nachm. 04/01/17 - $GPGSA,A,1,,,,,,,,,,,,,,,*1E

4:24:53:979 Nachm. 04/01/17 - $GNGSA,A,1,,,,,,,,,,,,,,,*00

4:24:54:952 Nachm. 04/01/17 - $GPGSV,3,1,12,02,14,123,23,06,22,082,31,12,83,302,28,15,04,182,24*7E

4:24:54:952 Nachm. 04/01/17 - $GPGSV,3,2,12,19,30,049,29,24,61,143,31,25,38,260,25,32,34,296,27*72

4:24:54:952 Nachm. 04/01/17 - $GPGSV,3,3,12,14,20,317,,17,13,040,,22,00,352,,29,02,202,*75

4:24:54:953 Nachm. 04/01/17 - $GLGSV,3,1,10,78,69,336,25,70,10,351,26,86,07,018,19,77,40,095,25*65

4:24:54:956 Nachm. 04/01/17 - $GLGSV,3,2,10,79,32,299,22,69,25,295,22,88,45,144,20,87,50,061,31*63

4:24:54:956 Nachm. 04/01/17 - $GLGSV,3,3,10,68,12,244,26,81,04,178,*6C

4:24:54:957 Nachm. 04/01/17 - $GPGGA,,,,,,0,,,,,,,,*66

4:24:54:957 Nachm. 04/01/17 - $GNGNS,,,,,,NN,,,,,,*53

4:24:54:962 Nachm. 04/01/17 - $GPVTG,,T,,M,,N,,K,N*2C

4:24:54:963 Nachm. 04/01/17 - $GPRMC,,V,,,,,,,,,,N*53

4:24:54:963 Nachm. 04/01/17 - $GPGSA,A,1,,,,,,,,,,,,,,,*1E

4:24:54:963 Nachm. 04/01/17 - $GNGSA,A,1,,,,,,,,,,,,,,,*00

4:24:55:954 Nachm. 04/01/17 - $GPGSV,3,1,12,02,14,123,19,06,22,082,31,12,83,302,31,15,04,182,23*78

4:24:55:956 Nachm. 04/01/17 - $GPGSV,3,2,12,17,13,040,17,19,30,049,29,24,61,143,30,25,38,260,25*7B

4:24:55:956 Nachm. 04/01/17 - $GPGSV,3,3,12,32,34,296,33,14,20,317,,22,00,352,,29,02,202,*7E

4:24:55:957 Nachm. 04/01/17 - $GLGSV,3,1,10,78,69,336,27,70,10,351,30,86,07,018,16,77,40,095,23*69

4:24:55:973 Nachm. 04/01/17 - $GLGSV,3,2,10,79,32,299,26,69,25,295,23,88,45,144,23,87,50,061,28*6D

4:24:55:983 Nachm. 04/01/17 - $GLGSV,3,3,10,81,04,178,21,68,12,244,24*6D

4:24:55:986 Nachm. 04/01/17 - $GPGGA,142449.0,5208.381864,N,01138.629807,E,1,06,1.1,67.0,M,45.0,M,,*62

4:24:55:987 Nachm. 04/01/17 - $GNGNS,142449.0,5208.381864,N,01138.629807,E,AA,07,1.1,67.0,45.0,,*57

4:24:55:987 Nachm. 04/01/17 - $GPVTG,73.0,T,72.6,M,2.2,N,4.1,K,A*21

4:24:55:987 Nachm. 04/01/17 - $GPRMC,142449.0,A,5208.381864,N,01138.629807,E,2.2,73.0,010417,0.4,E,A*3E

4:24:55:987 Nachm. 04/01/17 - $GPGSA,A,2,12,15,17,19,24,32,,,,,,,1.4,1.1,0.8*30

4:24:55:987 Nachm. 04/01/17 - $GNGSA,A,2,12,15,17,19,24,32,,,,,,,1.4,1.1,0.8*2E

4:24:55:988 Nachm. 04/01/17 - $GNGSA,A,2,87,,,,,,,,,,,,1.4,1.1,0.8*2F

4:24:56:952 Nachm. 04/01/17 - $GPGSV,3,1,12,02,14,123,22,06,22,082,25,12,83,302,30,15,04,182,25*72

4:24:56:953 Nachm. 04/01/17 - $GPGSV,3,2,12,17,13,040,18,19,30,049,23,24,61,143,27,25,38,260,27*7A

4:24:56:954 Nachm. 04/01/17 - $GPGSV,3,3,12,32,34,296,33,14,20,317,,22,00,352,,29,02,202,*7E

4:24:56:960 Nachm. 04/01/17 - $GLGSV,3,1,10,78,69,336,25,70,10,351,20,86,07,018,18,77,40,095,21*66

4:24:56:960 Nachm. 04/01/17 - $GLGSV,3,2,10,79,32,299,22,69,25,295,24,88,45,144,19,87,50,061,28*67

4:24:56:961 Nachm. 04/01/17 - $GLGSV,3,3,10,81,04,178,19,68,12,244,26*64

4:24:56:962 Nachm. 04/01/17 - $GPGGA,142450.0,5208.384788,N,01138.632931,E,1,06,1.1,74.9,M,45.0,M,,*67

4:24:56:962 Nachm. 04/01/17 - $GNGNS,142450.0,5208.384788,N,01138.632931,E,AA,07,1.1,74.9,45.0,,*52

4:24:56:962 Nachm. 04/01/17 - $GPVTG,72.4,T,72.0,M,2.5,N,4.6,K,A*22

4:24:56:963 Nachm. 04/01/17 - $GPRMC,142450.0,A,5208.384788,N,01138.632931,E,2.5,72.4,010417,0.4,E,A*32

4:24:56:963 Nachm. 04/01/17 - $GPGSA,A,2,12,15,17,19,24,32,,,,,,,1.4,1.1,0.8*30

4:24:56:963 Nachm. 04/01/17 - $GNGSA,A,2,12,15,17,19,24,32,,,,,,,1.4,1.1,0.8*2E

4:24:56:963 Nachm. 04/01/17 - $GNGSA,A,2,87,,,,,,,,,,,,1.4,1.1,0.8*2F

4:24:57:954 Nachm. 04/01/17 - $GPGSV,3,1,12,02,14,123,23,06,22,082,23,12,83,302,32,14,20,317,18*70

4:24:57:957 Nachm. 04/01/17 - $GPGSV,3,2,12,15,04,182,19,17,13,040,19,19,30,049,24,24,61,143,25*70

4:24:57:959 Nachm. 04/01/17 - $GPGSV,3,3,12,25,38,260,32,32,34,296,31,22,00,352,,29,02,202,*77

4:24:57:962 Nachm. 04/01/17 - $GLGSV,3,1,10,78,69,336,25,70,10,351,22,86,07,018,17,77,40,095,24*6E

4:24:57:970 Nachm. 04/01/17 - $GLGSV,3,2,10,79,32,299,24,69,25,295,21,88,45,144,24,87,50,061,28*6A

4:24:57:976 Nachm. 04/01/17 - $GLGSV,3,3,10,81,04,178,22,68,12,244,26*6C

4:24:57:977 Nachm. 04/01/17 - $GPGGA,142451.0,5208.385446,N,01138.633602,E,1,06,1.1,75.4,M,45.0,M,,*64

4:24:57:977 Nachm. 04/01/17 - $GNGNS,142451.0,5208.385446,N,01138.633602,E,AA,07,1.1,75.4,45.0,,*51

4:24:57:977 Nachm. 04/01/17 - $GPVTG,62.8,T,62.4,M,2.1,N,3.9,K,A*26

4:24:57:978 Nachm. 04/01/17 - $GPRMC,142451.0,A,5208.385446,N,01138.633602,E,2.1,62.8,010417,0.4,E,A*34

4:24:57:978 Nachm. 04/01/17 - $GPGSA,A,2,12,15,17,19,24,32,,,,,,,1.4,1.1,0.8*30

4:24:57:978 Nachm. 04/01/17 - $GNGSA,A,2,12,15,17,19,24,32,,,,,,,1.4,1.1,0.8*2E

4:24:57:978 Nachm. 04/01/17 - $GNGSA,A,2,87,,,,,,,,,,,,1.4,1.1,0.8*2F

4:24:58:952 Nachm. 04/01/17 - $GPGSV,3,1,12,02,14,123,23,06,22,082,23,12,83,302,33,14,20,317,19*70

4:24:58:953 Nachm. 04/01/17 - $GPGSV,3,2,12,15,04,182,21,17,13,040,19,19,30,049,25,24,61,143,24*7B

4:24:58:955 Nachm. 04/01/17 - $GPGSV,3,3,12,25,38,260,31,32,34,296,28,22,00,352,,29,02,202,*7C

4:24:58:957 Nachm. 04/01/17 - $GLGSV,3,1,10,78,69,336,25,70,10,351,27,86,07,018,17,77,40,095,21*6E

4:24:58:959 Nachm. 04/01/17 - $GLGSV,3,2,10,79,32,299,22,69,25,295,19,88,45,144,22,87,50,061,25*6C

4:24:58:966 Nachm. 04/01/17 - $GLGSV,3,3,10,81,04,178,23,68,12,244,26*6D

4:24:58:967 Nachm. 04/01/17 - $GPGGA,142452.0,5208.387669,N,01138.635658,E,1,06,1.1,76.1,M,45.0,M,,*65

4:24:58:974 Nachm. 04/01/17 - $GNGNS,142452.0,5208.387669,N,01138.635658,E,AA,07,1.1,76.1,45.0,,*50

4:24:58:976 Nachm. 04/01/17 - $GPVTG,57.3,T,56.9,M,2.7,N,5.0,K,A*28

4:24:58:977 Nachm. 04/01/17 - $GPRMC,142452.0,A,5208.387669,N,01138.635658,E,2.7,57.3,010417,0.4,E,A*38

4:24:58:978 Nachm. 04/01/17 - $GPGSA,A,2,12,15,17,19,24,32,,,,,,,1.4,1.1,0.8*30

4:24:58:978 Nachm. 04/01/17 - $GNGSA,A,2,12,15,17,19,24,32,,,,,,,1.4,1.1,0.8*2E

4:24:58:979 Nachm. 04/01/17 - $GNGSA,A,2,87,,,,,,,,,,,,1.4,1.1,0.8*2F

4:24:59:952 Nachm. 04/01/17 - $GPGSV,3,1,12,02,14,123,21,06,22,082,24,12,83,302,33,14,20,317,25*7A

4:24:59:953 Nachm. 04/01/17 - $GPGSV,3,2,12,15,04,182,22,17,13,040,25,19,30,049,29,24,61,143,26*79

4:24:59:953 Nachm. 04/01/17 - $GPGSV,3,3,12,25,38,260,32,32,34,296,34,22,00,352,,29,02,202,*72

4:24:59:954 Nachm. 04/01/17 - $GLGSV,3,1,10,78,69,336,24,70,10,351,25,86,07,018,18,77,40,095,17*67

4:24:59:955 Nachm. 04/01/17 - $GLGSV,3,2,10,79,32,299,25,69,25,295,19,88,45,144,22,87,50,061,25*6B

4:24:59:970 Nachm. 04/01/17 - $GLGSV,3,3,10,81,04,178,24,68,12,244,27*6B

4:24:59:972 Nachm. 04/01/17 - $GPGGA,142453.0,5208.387015,N,01138.637842,E,1,06,1.1,69.5,M,45.0,M,,*64

4:24:59:972 Nachm. 04/01/17 - $GNGNS,142453.0,5208.387015,N,01138.637842,E,AA,07,1.1,69.5,45.0,,*51

4:24:59:973 Nachm. 04/01/17 - $GPVTG,64.2,T,63.8,M,2.5,N,4.6,K,A*2B

4:24:59:974 Nachm. 04/01/17 - $GPRMC,142453.0,A,5208.387015,N,01138.637842,E,2.5,64.2,010417,0.4,E,A*30

4:24:59:976 Nachm. 04/01/17 - $GPGSA,A,2,12,15,17,19,24,32,,,,,,,1.4,1.1,0.8*30

4:24:59:977 Nachm. 04/01/17 - $GNGSA,A,2,12,15,17,19,24,32,,,,,,,1.4,1.1,0.8*2E

4:24:59:979 Nachm. 04/01/17 - $GNGSA,A,2,87,,,,,,,,,,,,1.4,1.1,0.8*2F

4:25:00:951 Nachm. 04/01/17 - $GPGSV,3,1,12,02,14,123,22,06,22,082,22,12,83,302,31,14,20,317,26*7E

4:25:00:952 Nachm. 04/01/17 - $GPGSV,3,2,12,15,04,182,25,17,13,040,22,19,30,049,20,24,61,143,23*75

4:25:00:957 Nachm. 04/01/17 - $GPGSV,3,3,12,25,38,260,30,32,34,296,32,22,00,352,,29,02,202,*76

4:25:00:957 Nachm. 04/01/17 - $GLGSV,3,1,10,78,69,336,27,70,10,351,26,86,07,018,18,77,40,095,20*63

4:25:00:958 Nachm. 04/01/17 - $GLGSV,3,2,10,79,32,299,28,69,25,295,24,88,45,144,22,87,50,061,27*6A

4:25:00:961 Nachm. 04/01/17 - $GLGSV,3,3,10,81,04,178,23,68,12,244,24*6F

4:25:00:962 Nachm. 04/01/17 - $GPGGA,142454.0,5208.388273,N,01138.638676,E,1,06,1.1,68.4,M,45.0,M,,*68

4:25:00:962 Nachm. 04/01/17 - $GNGNS,142454.0,5208.388273,N,01138.638676,E,AA,07,1.1,68.4,45.0,,*5D

4:25:00:963 Nachm. 04/01/17 - $GPVTG,65.4,T,64.9,M,2.5,N,4.6,K,A*2A

4:25:00:963 Nachm. 04/01/17 - $GPRMC,142454.0,A,5208.388273,N,01138.638676,E,2.5,65.4,010417,0.4,E,A*3B

4:25:00:963 Nachm. 04/01/17 - $GPGSA,A,2,12,15,17,19,24,32,,,,,,,1.4,1.1,0.8*30

4:25:00:964 Nachm. 04/01/17 - $GNGSA,A,2,12,15,17,19,24,32,,,,,,,1.4,1.1,0.8*2E

4:25:00:964 Nachm. 04/01/17 - $GNGSA,A,2,87,,,,,,,,,,,,1.4,1.1,0.8*2F

4:25:01:953 Nachm. 04/01/17 - $GPGSV,3,1,12,02,14,123,22,06,22,082,28,12,83,302,30,14,20,317,27*74

4:25:01:957 Nachm. 04/01/17 - $GPGSV,3,2,12,15,04,182,29,17,13,040,19,19,30,049,25,24,61,143,24*73

4:25:01:958 Nachm. 04/01/17 - $GPGSV,3,3,12,25,38,260,26,32,34,296,28,22,00,352,,29,02,202,*7A

4:25:01:959 Nachm. 04/01/17 - $GLGSV,3,1,10,78,69,336,23,70,10,351,23,86,07,018,17,77,40,095,20*6D

4:25:01:959 Nachm. 04/01/17 - $GLGSV,3,2,10,79,32,299,28,69,25,295,24,88,45,144,20,87,50,061,26*69

4:25:01:972 Nachm. 04/01/17 - $GLGSV,3,3,10,81,04,178,22,68,12,244,24*6E

4:25:01:973 Nachm. 04/01/17 - $GPGGA,142455.0,5208.389263,N,01138.639595,E,1,06,1.1,68.9,M,45.0,M,,*6B

4:25:01:973 Nachm. 04/01/17 - $GNGNS,142455.0,5208.389263,N,01138.639595,E,AA,07,1.1,68.9,45.0,,*5E

4:25:01:973 Nachm. 04/01/17 - $GPVTG,71.9,T,71.5,M,2.3,N,4.2,K,A*28

4:25:01:974 Nachm. 04/01/17 - $GPRMC,142455.0,A,5208.389263,N,01138.639595,E,2.3,71.9,010417,0.4,E,A*3B

4:25:01:975 Nachm. 04/01/17 - $GPGSA,A,2,12,15,17,19,24,32,,,,,,,1.4,1.1,0.8*30

4:25:01:975 Nachm. 04/01/17 - $GNGSA,A,2,12,15,17,19,24,32,,,,,,,1.4,1.1,0.8*2E

4:25:01:976 Nachm. 04/01/17 - $GNGSA,A,2,87,,,,,,,,,,,,1.4,1.1,0.8*2F

4:25:02:952 Nachm. 04/01/17 - $GPGSV,3,1,12,02,14,123,22,06,22,082,16,12,83,302,24,14,20,317,30*7A

4:25:02:953 Nachm. 04/01/17 - $GPGSV,3,2,12,15,04,182,32,17,13,040,19,19,30,049,21,24,61,143,23*7A

4:25:02:953 Nachm. 04/01/17 - $GPGSV,3,3,12,25,38,260,21,32,34,296,25,22,00,352,,29,02,202,*70

4:25:02:958 Nachm. 04/01/17 - $GLGSV,3,1,10,78,69,336,23,70,10,351,25,86,07,018,17,77,40,095,20*6B

4:25:02:960 Nachm. 04/01/17 - $GLGSV,3,2,10,79,32,299,31,69,25,295,21,88,45,144,21,87,50,061,20*63

4:25:02:961 Nachm. 04/01/17 - $GLGSV,3,3,10,81,04,178,29,68,12,244,28*69

4:25:02:961 Nachm. 04/01/17 - $GPGGA,142456.0,5208.390409,N,01138.641716,E,1,06,1.1,70.2,M,45.0,M,,*6E

4:25:02:962 Nachm. 04/01/17 - $GNGNS,142456.0,5208.390409,N,01138.641716,E,AA,07,1.1,70.2,45.0,,*5B

4:25:02:963 Nachm. 04/01/17 - $GPVTG,65.3,T,64.9,M,3.2,N,5.9,K,A*25

4:25:02:963 Nachm. 04/01/17 - $GPRMC,142456.0,A,5208.390409,N,01138.641716,E,3.2,65.3,010417,0.4,E,A*33

4:25:02:963 Nachm. 04/01/17 - $GPGSA,A,2,12,15,17,19,24,32,,,,,,,1.4,1.1,0.8*30

4:25:02:964 Nachm. 04/01/17 - $GNGSA,A,2,12,15,17,19,24,32,,,,,,,1.4,1.1,0.8*2E

4:25:02:964 Nachm. 04/01/17 - $GNGSA,A,2,87,,,,,,,,,,,,1.4,1.1,0.8*2F

4:25:03:952 Nachm. 04/01/17 - $GPGSV,3,1,12,02,14,123,22,06,22,082,16,12,83,302,24,14,20,317,29*72

4:25:03:955 Nachm. 04/01/17 - $GPGSV,3,2,12,15,04,182,31,17,13,040,16,19,30,049,21,24,61,143,21*74

4:25:03:955 Nachm. 04/01/17 - $GPGSV,3,3,12,25,38,260,19,32,34,296,24,22,00,352,,29,02,202,*7A

4:25:03:955 Nachm. 04/01/17 - $GLGSV,3,1,10,78,69,336,16,70,10,351,24,86,07,018,14,77,40,095,20*6F

4:25:03:955 Nachm. 04/01/17 - $GLGSV,3,2,10,79,32,299,31,69,25,295,22,88,45,144,20,87,50,061,22*63

4:25:03:957 Nachm. 04/01/17 - $GLGSV,3,3,10,81,04,178,28,68,12,244,27*67

4:25:03:958 Nachm. 04/01/17 - $GPGGA,142457.0,5208.391997,N,01138.641518,E,1,06,1.1,71.1,M,45.0,M,,*6A

4:25:03:958 Nachm. 04/01/17 - $GNGNS,142457.0,5208.391997,N,01138.641518,E,AA,07,1.1,71.1,45.0,,*5F

4:25:03:959 Nachm. 04/01/17 - $GPVTG,38.6,T,38.2,M,3.2,N,5.9,K,A*2A

4:25:03:960 Nachm. 04/01/17 - $GPRMC,142457.0,A,5208.391997,N,01138.641518,E,3.2,38.6,010417,0.4,E,A*38

4:25:03:960 Nachm. 04/01/17 - $GPGSA,A,2,12,15,17,19,24,32,,,,,,,1.4,1.1,0.8*30

4:25:03:961 Nachm. 04/01/17 - $GNGSA,A,2,12,15,17,19,24,32,,,,,,,1.4,1.1,0.8*2E

4:25:03:961 Nachm. 04/01/17 - $GNGSA,A,2,87,,,,,,,,,,,,1.4,1.1,0.8*2F

4:25:04:954 Nachm. 04/01/17 - $GPGSV,3,1,12,02,14,123,22,06,22,082,16,12,83,302,24,14,20,317,28*73

4:25:04:954 Nachm. 04/01/17 - $GPGSV,3,2,12,15,04,182,29,17,13,040,16,19,30,049,21,24,61,143,21*7D

4:25:04:954 Nachm. 04/01/17 - $GPGSV,3,3,12,25,38,260,19,32,34,296,26,22,00,352,,29,02,202,*78

4:25:04:954 Nachm. 04/01/17 - $GLGSV,3,1,10,78,69,336,18,70,10,351,23,86,07,018,14,77,40,095,20*66

4:25:04:954 Nachm. 04/01/17 - $GLGSV,3,2,10,79,32,299,31,69,25,295,24,88,45,144,19,87,50,061,21*6C

4:25:04:955 Nachm. 04/01/17 - $GLGSV,3,3,10,81,04,178,27,68,12,244,26*69

4:25:04:955 Nachm. 04/01/17 - $GPGGA,142458.0,5208.392176,N,01138.641944,E,1,06,1.1,72.6,M,45.0,M,,*60

4:25:04:956 Nachm. 04/01/17 - $GNGNS,142458.0,5208.392176,N,01138.641944,E,AA,07,1.1,72.6,45.0,,*55

4:25:04:956 Nachm. 04/01/17 - $GPVTG,38.6,T,38.2,M,2.8,N,5.1,K,A*29

4:25:04:956 Nachm. 04/01/17 - $GPRMC,142458.0,A,5208.392176,N,01138.641944,E,2.8,38.6,010417,0.4,E,A*3D

4:25:04:959 Nachm. 04/01/17 - $GPGSA,A,2,12,15,17,19,24,32,,,,,,,1.4,1.1,0.8*30

4:25:04:959 Nachm. 04/01/17 - $GNGSA,A,2,12,15,17,19,24,32,,,,,,,1.4,1.1,0.8*2E

4:25:04:960 Nachm. 04/01/17 - $GNGSA,A,2,87,,,,,,,,,,,,1.4,1.1,0.8*2F

4:25:05:955 Nachm. 04/01/17 - $GPGSV,3,1,12,02,14,123,15,06,22,082,22,12,83,302,33,14,20,317,21*7F

4:25:05:956 Nachm. 04/01/17 - $GPGSV,3,2,12,15,04,182,29,17,13,040,16,19,30,049,25,22,00,352,13*7B

4:25:05:958 Nachm. 04/01/17 - $GPGSV,3,3,12,24,61,143,25,25,38,260,29,32,34,296,31,29,02,202,*79

4:25:05:961 Nachm. 04/01/17 - $GLGSV,3,1,10,78,69,336,24,70,10,351,23,86,07,018,16,77,40,095,14*6C

4:25:05:961 Nachm. 04/01/17 - $GLGSV,3,2,10,79,32,299,26,69,25,295,20,88,45,144,21,87,50,061,26*62

4:25:05:963 Nachm. 04/01/17 - $GLGSV,3,3,10,81,04,178,22,68,12,244,25*6F

4:25:05:964 Nachm. 04/01/17 - $GPGGA,142459.0,5208.391811,N,01138.639274,E,1,06,1.1,73.6,M,45.0,M,,*6C

4:25:05:964 Nachm. 04/01/17 - $GNGNS,142459.0,5208.391811,N,01138.639274,E,AA,07,1.1,73.6,45.0,,*59

4:25:05:964 Nachm. 04/01/17 - $GPVTG,38.6,T,38.2,M,0.5,N,0.9,K,A*2B

4:25:05:964 Nachm. 04/01/17 - $GPRMC,142459.0,A,5208.391811,N,01138.639274,E,0.5,38.6,010417,0.4,E,A*3F

4:25:05:965 Nachm. 04/01/17 - $GPGSA,A,2,12,15,17,19,24,32,,,,,,,1.4,1.1,0.8*30

