2:49:36:588 Nachm. 03/28/17 - $GPGSV,3,1,12,10,18,306,13,12,32,226,29,15,51,199,18,17,41,080,15*7F

2:49:36:592 Nachm. 03/28/17 - $GPGSV,3,2,12,24,62,285,24,01,05,026,,11,,,,13,29,157,*4A

2:49:36:594 Nachm. 03/28/17 - $GPGSV,3,3,12,18,18,277,,19,40,112,,28,16,053,,32,,,*4C

2:49:36:595 Nachm. 03/28/17 - $GLGSV,1,1,01,71,37,232,27*50

2:49:36:605 Nachm. 03/28/17 - $GPGGA,124932.0,5208.382434,N,01138.450889,E,1,04,2.1,92.3,M,45.0,M,,*6B

2:49:36:607 Nachm. 03/28/17 - $GNGNS,124932.0,5208.382434,N,01138.450889,E,AN,04,2.1,92.3,45.0,,*50

2:49:36:613 Nachm. 03/28/17 - $GPVTG,132.5,T,132.1,M,0.0,N,0.0,K,A*27

2:49:36:613 Nachm. 03/28/17 - $GPRMC,124932.0,A,5208.382434,N,01138.450889,E,0.0,132.5,280317,0.4,E,A*02

2:49:36:614 Nachm. 03/28/17 - $GPGSA,A,2,12,15,17,24,,,,,,,,,2.3,2.1,1.0*37

2:49:36:614 Nachm. 03/28/17 - $GNGSA,A,2,12,15,17,24,,,,,,,,,2.3,2.1,1.0*29

2:49:36:614 Nachm. 03/28/17 - $GNGSA,A,2,,,,,,,,,,,,,2.3,2.1,1.0*2E

2:49:37:588 Nachm. 03/28/17 - $GPGSV,3,1,12,10,18,306,13,12,32,226,30,15,51,199,21,17,41,080,15*7D

2:49:37:589 Nachm. 03/28/17 - $GPGSV,3,2,12,24,62,285,26,01,05,026,,11,,,,13,29,157,*48

2:49:37:590 Nachm. 03/28/17 - $GPGSV,3,3,12,18,18,277,,19,40,112,,28,16,053,,32,,,*4C

2:49:37:596 Nachm. 03/28/17 - $GLGSV,1,1,01,71,37,232,29*5E

2:49:37:597 Nachm. 03/28/17 - $GPGGA,124933.0,5208.382435,N,01138.450894,E,1,04,2.1,92.3,M,45.0,M,,*67

2:49:37:597 Nachm. 03/28/17 - $GNGNS,124933.0,5208.382435,N,01138.450894,E,AN,04,2.1,92.3,45.0,,*5C

2:49:37:605 Nachm. 03/28/17 - $GPVTG,132.5,T,132.1,M,0.0,N,0.0,K,A*27

2:49:37:614 Nachm. 03/28/17 - $GPRMC,124933.0,A,5208.382435,N,01138.450894,E,0.0,132.5,280317,0.4,E,A*0E

2:49:37:615 Nachm. 03/28/17 - $GPGSA,A,2,12,15,17,24,,,,,,,,,2.3,2.1,1.0*37

2:49:37:615 Nachm. 03/28/17 - $GNGSA,A,2,12,15,17,24,,,,,,,,,2.3,2.1,1.0*29

2:49:37:616 Nachm. 03/28/17 - $GNGSA,A,2,,,,,,,,,,,,,2.3,2.1,1.0*2E

2:49:38:588 Nachm. 03/28/17 - $GPGSV,3,1,12,10,18,306,13,12,32,226,32,15,51,199,25,17,41,080,18*76

2:49:38:588 Nachm. 03/28/17 - $GPGSV,3,2,12,24,62,285,28,01,05,026,,11,,,,13,29,157,*46

2:49:38:590 Nachm. 03/28/17 - $GPGSV,3,3,12,18,18,277,,19,40,112,,28,16,053,,32,,,*4C

2:49:38:591 Nachm. 03/28/17 - $GLGSV,1,1,01,71,37,232,33*55

2:49:38:592 Nachm. 03/28/17 - $GPGGA,124934.0,5208.382458,N,01138.450923,E,1,04,2.1,92.2,M,45.0,M,,*67

2:49:38:595 Nachm. 03/28/17 - $GNGNS,124934.0,5208.382458,N,01138.450923,E,AN,04,2.1,92.2,45.0,,*5C

2:49:38:596 Nachm. 03/28/17 - $GPVTG,132.5,T,132.1,M,0.0,N,0.0,K,A*27

2:49:38:596 Nachm. 03/28/17 - $GPRMC,124934.0,A,5208.382458,N,01138.450923,E,0.0,132.5,280317,0.4,E,A*0F

2:49:38:601 Nachm. 03/28/17 - $GPGSA,A,2,12,15,17,24,,,,,,,,,2.3,2.1,1.0*37

2:49:38:601 Nachm. 03/28/17 - $GNGSA,A,2,12,15,17,24,,,,,,,,,2.3,2.1,1.0*29

2:49:38:601 Nachm. 03/28/17 - $GNGSA,A,2,,,,,,,,,,,,,2.3,2.1,1.0*2E

2:49:39:587 Nachm. 03/28/17 - $GPGSV,3,1,12,10,18,306,13,12,32,226,34,15,51,199,27,17,41,080,19*73

2:49:39:588 Nachm. 03/28/17 - $GPGSV,3,2,12,24,62,285,28,01,05,026,,11,,,,13,29,157,*46

2:49:39:589 Nachm. 03/28/17 - $GPGSV,3,3,12,18,18,277,,19,40,112,,28,16,053,,32,,,*4C

2:49:39:589 Nachm. 03/28/17 - $GLGSV,1,1,01,71,37,232,34*52

2:49:39:590 Nachm. 03/28/17 - $GPGGA,124935.0,5208.382525,N,01138.450961,E,1,04,2.1,92.0,M,45.0,M,,*69

2:49:39:590 Nachm. 03/28/17 - $GNGNS,124935.0,5208.382525,N,01138.450961,E,AN,04,2.1,92.0,45.0,,*52

2:49:39:591 Nachm. 03/28/17 - $GPVTG,132.5,T,132.1,M,0.0,N,0.0,K,A*27

2:49:39:592 Nachm. 03/28/17 - $GPRMC,124935.0,A,5208.382525,N,01138.450961,E,0.0,132.5,280317,0.4,E,A*03

2:49:39:593 Nachm. 03/28/17 - $GPGSA,A,2,12,15,17,24,,,,,,,,,2.3,2.1,1.0*37

2:49:39:593 Nachm. 03/28/17 - $GNGSA,A,2,12,15,17,24,,,,,,,,,2.3,2.1,1.0*29

2:49:39:593 Nachm. 03/28/17 - $GNGSA,A,2,,,,,,,,,,,,,2.3,2.1,1.0*2E

2:49:40:588 Nachm. 03/28/17 - $GPGSV,3,1,12,10,18,306,14,12,32,226,33,15,51,199,28,17,41,080,19*7C

2:49:40:590 Nachm. 03/28/17 - $GPGSV,3,2,12,18,18,277,14,19,40,112,15,24,62,285,28,01,05,026,*71

2:49:40:594 Nachm. 03/28/17 - $GPGSV,3,3,12,11,,,,13,29,157,,28,16,053,,32,,,*7A

2:49:40:597 Nachm. 03/28/17 - $GLGSV,1,1,01,71,37,232,35*53

2:49:40:611 Nachm. 03/28/17 - $GPGGA,124936.0,5208.382497,N,01138.450928,E,1,07,1.2,91.9,M,45.0,M,,*66

2:49:40:611 Nachm. 03/28/17 - $GNGNS,124936.0,5208.382497,N,01138.450928,E,AN,07,1.2,91.9,45.0,,*5D

2:49:40:612 Nachm. 03/28/17 - $GPVTG,132.5,T,132.1,M,0.0,N,0.0,K,A*27

2:49:40:612 Nachm. 03/28/17 - $GPRMC,124936.0,A,5208.382497,N,01138.450928,E,0.0,132.5,280317,0.4,E,A*05

2:49:40:613 Nachm. 03/28/17 - $GPGSA,A,2,10,12,15,17,18,19,24,,,,,,1.5,1.2,0.9*3A

2:49:40:614 Nachm. 03/28/17 - $GNGSA,A,2,10,12,15,17,18,19,24,,,,,,1.5,1.2,0.9*24

2:49:40:615 Nachm. 03/28/17 - $GNGSA,A,2,,,,,,,,,,,,,1.5,1.2,0.9*23

2:49:41:591 Nachm. 03/28/17 - $GPGSV,3,1,12,10,18,306,14,12,32,226,33,15,51,199,30,17,41,080,22*7D

2:49:41:592 Nachm. 03/28/17 - $GPGSV,3,2,12,18,18,277,14,19,40,112,15,24,62,285,29,01,05,026,*70

2:49:41:592 Nachm. 03/28/17 - $GPGSV,3,3,12,11,,,,13,29,157,,28,16,053,,32,,,*7A

2:49:41:593 Nachm. 03/28/17 - $GLGSV,1,1,01,71,37,232,34*52

2:49:41:599 Nachm. 03/28/17 - $GPGGA,124937.0,5208.382444,N,01138.450787,E,1,07,1.2,91.9,M,45.0,M,,*62

2:49:41:601 Nachm. 03/28/17 - $GNGNS,124937.0,5208.382444,N,01138.450787,E,AN,07,1.2,91.9,45.0,,*59

2:49:41:613 Nachm. 03/28/17 - $GPVTG,132.5,T,132.1,M,0.0,N,0.0,K,A*27

2:49:41:615 Nachm. 03/28/17 - $GPRMC,124937.0,A,5208.382444,N,01138.450787,E,0.0,132.5,280317,0.4,E,A*01

2:49:41:616 Nachm. 03/28/17 - $GPGSA,A,2,10,12,15,17,18,19,24,,,,,,1.5,1.2,0.9*3A

2:49:41:618 Nachm. 03/28/17 - $GNGSA,A,2,10,12,15,17,18,19,24,,,,,,1.5,1.2,0.9*24

2:49:41:618 Nachm. 03/28/17 - $GNGSA,A,2,,,,,,,,,,,,,1.5,1.2,0.9*23

2:49:42:587 Nachm. 03/28/17 - $GPGSV,3,1,12,10,18,306,14,12,33,226,33,15,51,199,29,17,41,080,21*77

2:49:42:589 Nachm. 03/28/17 - $GPGSV,3,2,12,18,18,277,14,19,40,112,15,24,62,285,29,01,05,026,*70

2:49:42:591 Nachm. 03/28/17 - $GPGSV,3,3,12,11,,,,13,29,157,,28,16,053,,32,,,*7A

2:49:42:594 Nachm. 03/28/17 - $GLGSV,1,1,01,71,37,232,34*52

2:49:42:595 Nachm. 03/28/17 - $GPGGA,124938.0,5208.382391,N,01138.450692,E,1,07,1.2,92.0,M,45.0,M,,*6D

2:49:42:601 Nachm. 03/28/17 - $GNGNS,124938.0,5208.382391,N,01138.450692,E,AN,07,1.2,92.0,45.0,,*56

2:49:42:604 Nachm. 03/28/17 - $GPVTG,132.5,T,132.1,M,0.0,N,0.0,K,A*27

2:49:42:608 Nachm. 03/28/17 - $GPRMC,124938.0,A,5208.382391,N,01138.450692,E,0.0,132.5,280317,0.4,E,A*04

2:49:42:609 Nachm. 03/28/17 - $GPGSA,A,2,10,12,15,17,18,19,24,,,,,,1.5,1.2,0.9*3A

2:49:42:611 Nachm. 03/28/17 - $GNGSA,A,2,10,12,15,17,18,19,24,,,,,,1.5,1.2,0.9*24

2:49:42:612 Nachm. 03/28/17 - $GNGSA,A,2,,,,,,,,,,,,,1.5,1.2,0.9*23

2:49:43:588 Nachm. 03/28/17 - $GPGSV,3,1,12,10,18,306,14,12,33,226,33,15,51,199,29,17,41,080,21*77

2:49:43:588 Nachm. 03/28/17 - $GPGSV,3,2,12,18,18,277,14,19,40,112,15,24,62,285,27,01,05,026,*7E

2:49:43:590 Nachm. 03/28/17 - $GPGSV,3,3,12,11,,,,13,29,157,,28,16,053,,32,,,*7A

2:49:43:598 Nachm. 03/28/17 - $GLGSV,1,1,01,71,37,232,34*52

2:49:43:601 Nachm. 03/28/17 - $GPGGA,124939.0,5208.382384,N,01138.450774,E,1,07,1.2,92.0,M,45.0,M,,*61

2:49:43:604 Nachm. 03/28/17 - $GNGNS,124939.0,5208.382384,N,01138.450774,E,AN,07,1.2,92.0,45.0,,*5A

2:49:43:607 Nachm. 03/28/17 - $GPVTG,132.5,T,132.1,M,0.0,N,0.0,K,A*27

2:49:43:607 Nachm. 03/28/17 - $GPRMC,124939.0,A,5208.382384,N,01138.450774,E,0.0,132.5,280317,0.4,E,A*08

2:49:43:609 Nachm. 03/28/17 - $GPGSA,A,2,10,12,15,17,18,19,24,,,,,,1.5,1.2,0.9*3A

2:49:43:609 Nachm. 03/28/17 - $GNGSA,A,2,10,12,15,17,18,19,24,,,,,,1.5,1.2,0.9*24

2:49:43:610 Nachm. 03/28/17 - $GNGSA,A,2,,,,,,,,,,,,,1.5,1.2,0.9*23

2:49:44:589 Nachm. 03/28/17 - $GPGSV,3,1,12,10,18,306,15,12,33,226,33,15,51,199,29,17,41,080,23*74

2:49:44:590 Nachm. 03/28/17 - $GPGSV,3,2,12,18,18,277,14,19,40,112,15,24,62,285,26,01,05,026,*7F

2:49:44:598 Nachm. 03/28/17 - $GPGSV,3,3,12,11,,,,13,29,157,,28,16,053,,32,,,*7A

2:49:44:600 Nachm. 03/28/17 - $GLGSV,1,1,01,71,37,232,35*53

2:49:44:601 Nachm. 03/28/17 - $GPGGA,124940.0,5208.382402,N,01138.450634,E,1,07,1.2,92.0,M,45.0,M,,*63

2:49:44:603 Nachm. 03/28/17 - $GNGNS,124940.0,5208.382402,N,01138.450634,E,AN,07,1.2,92.0,45.0,,*58

2:49:44:606 Nachm. 03/28/17 - $GPVTG,132.5,T,132.1,M,0.0,N,0.0,K,A*27

2:49:44:607 Nachm. 03/28/17 - $GPRMC,124940.0,A,5208.382402,N,01138.450634,E,0.0,132.5,280317,0.4,E,A*0A

2:49:44:608 Nachm. 03/28/17 - $GPGSA,A,2,10,12,15,17,18,19,24,,,,,,1.5,1.2,0.9*3A

2:49:44:618 Nachm. 03/28/17 - $GNGSA,A,2,10,12,15,17,18,19,24,,,,,,1.5,1.2,0.9*24

2:49:44:623 Nachm. 03/28/17 - $GNGSA,A,2,,,,,,,,,,,,,1.5,1.2,0.9*23

2:49:45:588 Nachm. 03/28/17 - $GPGSV,3,1,12,10,18,306,15,12,33,226,30,15,51,199,28,17,41,080,20*75

2:49:45:590 Nachm. 03/28/17 - $GPGSV,3,2,12,18,18,277,14,19,40,112,15,24,62,285,26,01,05,026,*7F

2:49:45:590 Nachm. 03/28/17 - $GPGSV,3,3,12,11,,,,13,29,157,,28,16,053,,32,,,*7A

2:49:45:591 Nachm. 03/28/17 - $GLGSV,1,1,01,71,37,232,33*55

2:49:45:614 Nachm. 03/28/17 - $GPGGA,124941.0,5208.382424,N,01138.450528,E,1,07,1.2,92.0,M,45.0,M,,*68

2:49:45:617 Nachm. 03/28/17 - $GNGNS,124941.0,5208.382424,N,01138.450528,E,AN,07,1.2,92.0,45.0,,*53

2:49:45:617 Nachm. 03/28/17 - $GPVTG,132.5,T,132.1,M,0.0,N,0.0,K,A*27

2:49:45:617 Nachm. 03/28/17 - $GPRMC,124941.0,A,5208.382424,N,01138.450528,E,0.0,132.5,280317,0.4,E,A*01

2:49:45:618 Nachm. 03/28/17 - $GPGSA,A,2,10,12,15,17,18,19,24,,,,,,1.5,1.2,0.9*3A

2:49:45:618 Nachm. 03/28/17 - $GNGSA,A,2,10,12,15,17,18,19,24,,,,,,1.5,1.2,0.9*24

2:49:45:618 Nachm. 03/28/17 - $GNGSA,A,2,,,,,,,,,,,,,1.5,1.2,0.9*23

2:49:46:588 Nachm. 03/28/17 - $GPGSV,3,1,12,10,18,306,15,12,33,226,33,15,51,199,30,17,41,080,22*7D

2:49:46:589 Nachm. 03/28/17 - $GPGSV,3,2,12,18,18,277,14,19,40,112,15,24,62,285,29,01,05,026,*70

2:49:46:591 Nachm. 03/28/17 - $GPGSV,3,3,12,11,,,,13,29,157,,28,16,053,,32,,,*7A

2:49:46:614 Nachm. 03/28/17 - $GLGSV,1,1,01,71,37,232,35*53

2:49:46:614 Nachm. 03/28/17 - $GPGGA,124942.0,5208.382389,N,01138.450443,E,1,07,1.2,91.9,M,45.0,M,,*6D

2:49:46:620 Nachm. 03/28/17 - $GNGNS,124942.0,5208.382389,N,01138.450443,E,AN,07,1.2,91.9,45.0,,*56

2:49:46:621 Nachm. 03/28/17 - $GPVTG,132.5,T,132.1,M,0.0,N,0.0,K,A*27

2:49:46:621 Nachm. 03/28/17 - $GPRMC,124942.0,A,5208.382389,N,01138.450443,E,0.0,132.5,280317,0.4,E,A*0E

2:49:46:621 Nachm. 03/28/17 - $GPGSA,A,2,10,12,15,17,18,19,24,,,,,,1.5,1.2,0.9*3A

2:49:46:622 Nachm. 03/28/17 - $GNGSA,A,2,10,12,15,17,18,19,24,,,,,,1.5,1.2,0.9*24

2:49:46:622 Nachm. 03/28/17 - $GNGSA,A,2,,,,,,,,,,,,,1.5,1.2,0.9*23

2:49:47:588 Nachm. 03/28/17 - $GPGSV,3,1,12,10,18,306,15,12,33,226,32,15,51,199,30,17,41,080,22*7C

2:49:47:592 Nachm. 03/28/17 - $GPGSV,3,2,12,18,18,277,14,19,40,112,15,24,62,285,29,01,05,026,*70

2:49:47:593 Nachm. 03/28/17 - $GPGSV,3,3,12,11,,,,13,29,157,,28,16,053,,32,,,*7A

2:49:47:606 Nachm. 03/28/17 - $GLGSV,1,1,01,71,37,232,35*53

2:49:47:609 Nachm. 03/28/17 - $GPGGA,124943.0,5208.382527,N,01138.450598,E,1,07,1.2,91.6,M,45.0,M,,*66

2:49:47:611 Nachm. 03/28/17 - $GNGNS,124943.0,5208.382527,N,01138.450598,E,AN,07,1.2,91.6,45.0,,*5D

2:49:47:613 Nachm. 03/28/17 - $GPVTG,132.5,T,132.1,M,0.0,N,0.0,K,A*27

2:49:47:614 Nachm. 03/28/17 - $GPRMC,124943.0,A,5208.382527,N,01138.450598,E,0.0,132.5,280317,0.4,E,A*0A

2:49:47:616 Nachm. 03/28/17 - $GPGSA,A,2,10,12,15,17,18,19,24,,,,,,1.5,1.2,0.9*3A

2:49:47:618 Nachm. 03/28/17 - $GNGSA,A,2,10,12,15,17,18,19,24,,,,,,1.5,1.2,0.9*24

2:49:47:618 Nachm. 03/28/17 - $GNGSA,A,2,,,,,,,,,,,,,1.5,1.2,0.9*23

2:49:48:588 Nachm. 03/28/17 - $GPGSV,3,1,12,10,18,306,15,12,33,226,33,15,51,199,30,17,41,080,21*7E

2:49:48:588 Nachm. 03/28/17 - $GPGSV,3,2,12,18,18,277,14,19,40,112,15,24,62,285,29,01,05,026,*70

2:49:48:589 Nachm. 03/28/17 - $GPGSV,3,3,12,11,,,,13,29,157,,28,16,053,,32,,,*7A

2:49:48:595 Nachm. 03/28/17 - $GLGSV,1,1,01,71,37,232,35*53

2:49:48:596 Nachm. 03/28/17 - $GPGGA,124944.0,5208.382549,N,01138.450585,E,1,07,1.2,91.5,M,45.0,M,,*66

2:49:48:602 Nachm. 03/28/17 - $GNGNS,124944.0,5208.382549,N,01138.450585,E,AN,07,1.2,91.5,45.0,,*5D

2:49:48:609 Nachm. 03/28/17 - $GPVTG,132.5,T,132.1,M,0.0,N,0.0,K,A*27

2:49:48:612 Nachm. 03/28/17 - $GPRMC,124944.0,A,5208.382549,N,01138.450585,E,0.0,132.5,280317,0.4,E,A*09

2:49:48:613 Nachm. 03/28/17 - $GPGSA,A,2,10,12,15,17,18,19,24,,,,,,1.5,1.2,0.9*3A

2:49:48:613 Nachm. 03/28/17 - $GNGSA,A,2,10,12,15,17,18,19,24,,,,,,1.5,1.2,0.9*24

2:49:48:613 Nachm. 03/28/17 - $GNGSA,A,2,,,,,,,,,,,,,1.5,1.2,0.9*23

2:49:49:588 Nachm. 03/28/17 - $GPGSV,3,1,12,10,18,306,15,12,33,226,33,15,51,199,30,17,41,080,20*7F

2:49:49:596 Nachm. 03/28/17 - $GPGSV,3,2,12,18,18,277,14,19,40,112,15,24,62,285,28,01,05,026,*71

2:49:49:598 Nachm. 03/28/17 - $GPGSV,3,3,12,11,,,,13,29,157,,28,16,053,,32,,,*7A

2:49:49:598 Nachm. 03/28/17 - $GLGSV,1,1,01,71,37,232,35*53

2:49:49:599 Nachm. 03/28/17 - $GPGGA,124945.0,5208.382577,N,01138.450593,E,1,07,1.2,91.3,M,45.0,M,,*6B

2:49:49:600 Nachm. 03/28/17 - $GNGNS,124945.0,5208.382577,N,01138.450593,E,AN,07,1.2,91.3,45.0,,*50

2:49:49:608 Nachm. 03/28/17 - $GPVTG,132.5,T,132.1,M,0.0,N,0.0,K,A*27

2:49:49:615 Nachm. 03/28/17 - $GPRMC,124945.0,A,5208.382577,N,01138.450593,E,0.0,132.5,280317,0.4,E,A*02

2:49:49:617 Nachm. 03/28/17 - $GPGSA,A,2,10,12,15,17,18,19,24,,,,,,1.5,1.2,0.9*3A

2:49:49:617 Nachm. 03/28/17 - $GNGSA,A,2,10,12,15,17,18,19,24,,,,,,1.5,1.2,0.9*24

2:49:49:618 Nachm. 03/28/17 - $GNGSA,A,2,,,,,,,,,,,,,1.5,1.2,0.9*23

2:49:50:588 Nachm. 03/28/17 - $GPGSV,3,1,12,10,18,306,15,12,33,226,33,15,51,199,30,17,41,080,19*75

2:49:50:595 Nachm. 03/28/17 - $GPGSV,3,2,12,18,18,277,14,19,40,112,15,24,62,285,28,01,05,026,*71

2:49:50:597 Nachm. 03/28/17 - $GPGSV,3,3,12,11,,,,13,29,157,,28,16,053,,32,,,*7A

2:49:50:602 Nachm. 03/28/17 - $GLGSV,1,1,01,71,37,232,35*53

2:49:50:609 Nachm. 03/28/17 - $GPGGA,124946.0,5208.382585,N,01138.450574,E,1,07,1.2,91.2,M,45.0,M,,*6D

2:49:50:612 Nachm. 03/28/17 - $GNGNS,124946.0,5208.382585,N,01138.450574,E,AN,07,1.2,91.2,45.0,,*56

2:49:50:613 Nachm. 03/28/17 - $GPVTG,132.5,T,132.1,M,0.0,N,0.0,K,A*27

2:49:50:614 Nachm. 03/28/17 - $GPRMC,124946.0,A,5208.382585,N,01138.450574,E,0.0,132.5,280317,0.4,E,A*05

2:49:50:616 Nachm. 03/28/17 - $GPGSA,A,2,10,12,15,17,18,19,24,,,,,,1.5,1.2,0.9*3A

2:49:50:617 Nachm. 03/28/17 - $GNGSA,A,2,10,12,15,17,18,19,24,,,,,,1.5,1.2,0.9*24

2:49:50:618 Nachm. 03/28/17 - $GNGSA,A,2,,,,,,,,,,,,,1.5,1.2,0.9*23

2:49:51:588 Nachm. 03/28/17 - $GPGSV,3,1,12,10,18,306,15,12,33,226,33,15,51,199,30,17,41,080,18*74

2:49:51:590 Nachm. 03/28/17 - $GPGSV,3,2,12,18,18,277,14,19,40,112,15,24,62,285,29,01,05,026,*70

2:49:51:591 Nachm. 03/28/17 - $GPGSV,3,3,12,11,,,,13,29,157,,28,16,053,,32,,,*7A

2:49:51:591 Nachm. 03/28/17 - $GLGSV,1,1,01,71,37,232,35*53

2:49:51:592 Nachm. 03/28/17 - $GPGGA,124947.0,5208.382574,N,01138.450520,E,1,06,1.5,91.1,M,45.0,M,,*66

2:49:51:592 Nachm. 03/28/17 - $GNGNS,124947.0,5208.382574,N,01138.450520,E,AN,06,1.5,91.1,45.0,,*5D

2:49:51:599 Nachm. 03/28/17 - $GPVTG,132.5,T,132.1,M,0.0,N,0.0,K,A*27

2:49:51:599 Nachm. 03/28/17 - $GPRMC,124947.0,A,5208.382574,N,01138.450520,E,0.0,132.5,280317,0.4,E,A*0B

2:49:51:609 Nachm. 03/28/17 - $GPGSA,A,2,12,15,17,18,19,24,,,,,,,1.7,1.5,0.9*3E

2:49:51:610 Nachm. 03/28/17 - $GNGSA,A,2,12,15,17,18,19,24,,,,,,,1.7,1.5,0.9*20

2:49:51:610 Nachm. 03/28/17 - $GNGSA,A,2,,,,,,,,,,,,,1.7,1.5,0.9*26

2:49:52:588 Nachm. 03/28/17 - $GPGSV,3,1,12,10,18,306,15,12,33,226,33,15,51,199,29,17,41,080,18*7C

2:49:52:589 Nachm. 03/28/17 - $GPGSV,3,2,12,18,18,277,14,19,40,112,15,24,62,285,29,01,05,026,*70

2:49:52:593 Nachm. 03/28/17 - $GPGSV,3,3,12,11,,,,13,29,157,,28,16,053,,32,,,*7A

2:49:52:599 Nachm. 03/28/17 - $GLGSV,1,1,01,71,37,232,35*53

2:49:52:600 Nachm. 03/28/17 - $GPGGA,124948.0,5208.382615,N,01138.450477,E,1,05,1.8,91.1,M,45.0,M,,*60

2:49:52:601 Nachm. 03/28/17 - $GNGNS,124948.0,5208.382615,N,01138.450477,E,AN,05,1.8,91.1,45.0,,*5B

2:49:52:603 Nachm. 03/28/17 - $GPVTG,132.5,T,132.1,M,0.0,N,0.0,K,A*27

2:49:52:610 Nachm. 03/28/17 - $GPRMC,124948.0,A,5208.382615,N,01138.450477,E,0.0,132.5,280317,0.4,E,A*03

2:49:52:613 Nachm. 03/28/17 - $GPGSA,A,2,12,15,17,19,24,,,,,,,,2.1,1.8,1.0*37

2:49:52:615 Nachm. 03/28/17 - $GNGSA,A,2,12,15,17,19,24,,,,,,,,2.1,1.8,1.0*29

2:49:52:616 Nachm. 03/28/17 - $GNGSA,A,2,,,,,,,,,,,,,2.1,1.8,1.0*26

2:49:53:588 Nachm. 03/28/17 - $GPGSV,3,1,12,10,18,306,15,12,33,226,34,15,51,199,30,17,41,080,18*73

2:49:53:589 Nachm. 03/28/17 - $GPGSV,3,2,12,18,18,277,14,19,40,112,15,24,62,285,29,01,05,026,*70

2:49:53:589 Nachm. 03/28/17 - $GPGSV,3,3,12,11,,,,13,29,157,,28,16,053,,32,,,*7A

2:49:53:590 Nachm. 03/28/17 - $GLGSV,1,1,01,71,37,232,36*50

2:49:53:594 Nachm. 03/28/17 - $GPGGA,124949.0,5208.382617,N,01138.450431,E,1,05,1.8,90.9,M,45.0,M,,*68

2:49:53:595 Nachm. 03/28/17 - $GNGNS,124949.0,5208.382617,N,01138.450431,E,AN,05,1.8,90.9,45.0,,*53

2:49:53:596 Nachm. 03/28/17 - $GPVTG,132.5,T,132.1,M,0.0,N,0.0,K,A*27

2:49:53:600 Nachm. 03/28/17 - $GPRMC,124949.0,A,5208.382617,N,01138.450431,E,0.0,132.5,280317,0.4,E,A*02

2:49:53:604 Nachm. 03/28/17 - $GPGSA,A,2,12,15,17,19,24,,,,,,,,2.1,1.8,1.0*37

2:49:53:605 Nachm. 03/28/17 - $GNGSA,A,2,12,15,17,19,24,,,,,,,,2.1,1.8,1.0*29

2:49:53:606 Nachm. 03/28/17 - $GNGSA,A,2,,,,,,,,,,,,,2.1,1.8,1.0*26

2:49:54:587 Nachm. 03/28/17 - $GPGSV,3,1,12,10,18,306,15,12,33,226,33,15,51,199,29,17,41,080,17*73

2:49:54:589 Nachm. 03/28/17 - $GPGSV,3,2,12,18,18,277,14,19,40,112,15,24,62,285,28,01,05,026,*71

2:49:54:589 Nachm. 03/28/17 - $GPGSV,3,3,12,11,,,,13,29,157,,28,16,053,,32,,,*7A

2:49:54:589 Nachm. 03/28/17 - $GLGSV,1,1,01,71,37,232,35*53

2:49:54:591 Nachm. 03/28/17 - $GPGGA,124950.0,5208.382668,N,01138.450453,E,1,04,2.1,90.7,M,45.0,M,,*69

2:49:54:591 Nachm. 03/28/17 - $GNGNS,124950.0,5208.382668,N,01138.450453,E,AN,04,2.1,90.7,45.0,,*52

2:49:54:591 Nachm. 03/28/17 - $GPVTG,132.5,T,132.1,M,0.0,N,0.0,K,A*27

2:49:54:594 Nachm. 03/28/17 - $GPRMC,124950.0,A,5208.382668,N,01138.450453,E,0.0,132.5,280317,0.4,E,A*06

2:49:54:597 Nachm. 03/28/17 - $GPGSA,A,2,12,15,17,24,,,,,,,,,2.3,2.1,1.0*37

2:49:54:598 Nachm. 03/28/17 - $GNGSA,A,2,12,15,17,24,,,,,,,,,2.3,2.1,1.0*29

2:49:54:598 Nachm. 03/28/17 - $GNGSA,A,2,,,,,,,,,,,,,2.3,2.1,1.0*2E

2:49:55:587 Nachm. 03/28/17 - $GPGSV,3,1,12,10,18,306,15,12,33,226,34,15,51,199,30,17,41,080,20*78

2:49:55:587 Nachm. 03/28/17 - $GPGSV,3,2,12,18,18,277,14,19,40,112,15,24,62,285,29,01,05,026,*70

2:49:55:588 Nachm. 03/28/17 - $GPGSV,3,3,12,11,,,,13,29,157,,28,16,053,,32,,,*7A

2:49:55:588 Nachm. 03/28/17 - $GLGSV,1,1,01,71,37,232,35*53

2:49:55:591 Nachm. 03/28/17 - $GPGGA,124951.0,5208.382709,N,01138.450578,E,1,04,2.1,90.4,M,45.0,M,,*65

2:49:55:592 Nachm. 03/28/17 - $GNGNS,124951.0,5208.382709,N,01138.450578,E,AN,04,2.1,90.4,45.0,,*5E

2:49:55:593 Nachm. 03/28/17 - $GPVTG,132.5,T,132.1,M,0.0,N,0.0,K,A*27

2:49:55:595 Nachm. 03/28/17 - $GPRMC,124951.0,A,5208.382709,N,01138.450578,E,0.0,132.5,280317,0.4,E,A*09

2:49:55:595 Nachm. 03/28/17 - $GPGSA,A,2,12,15,17,24,,,,,,,,,2.3,2.1,1.0*37

2:49:55:596 Nachm. 03/28/17 - $GNGSA,A,2,12,15,17,24,,,,,,,,,2.3,2.1,1.0*29

2:49:55:596 Nachm. 03/28/17 - $GNGSA,A,2,,,,,,,,,,,,,2.3,2.1,1.0*2E

2:49:56:588 Nachm. 03/28/17 - $GPGSV,3,1,12,10,18,306,15,12,33,226,33,15,51,199,30,17,41,080,20*7F

2:49:56:589 Nachm. 03/28/17 - $GPGSV,3,2,12,18,18,277,12,19,40,112,15,24,62,285,28,01,05,026,*77

2:49:56:598 Nachm. 03/28/17 - $GPGSV,3,3,12,11,,,,13,29,157,,28,16,053,,32,,,*7A

2:49:56:602 Nachm. 03/28/17 - $GLGSV,1,1,01,71,37,232,36*50

2:49:56:603 Nachm. 03/28/17 - $GPGGA,124952.0,5208.382716,N,01138.450629,E,1,05,1.6,90.3,M,45.0,M,,*6D

2:49:56:605 Nachm. 03/28/17 - $GNGNS,124952.0,5208.382716,N,01138.450629,E,AN,05,1.6,90.3,45.0,,*56

2:49:56:624 Nachm. 03/28/17 - $GPVTG,132.5,T,132.1,M,0.0,N,0.0,K,A*27

2:49:56:625 Nachm. 03/28/17 - $GPRMC,124952.0,A,5208.382716,N,01138.450629,E,0.0,132.5,280317,0.4,E,A*03

2:49:56:625 Nachm. 03/28/17 - $GPGSA,A,2,12,15,17,18,24,,,,,,,,1.8,1.6,0.9*3A

2:49:56:626 Nachm. 03/28/17 - $GNGSA,A,2,12,15,17,18,24,,,,,,,,1.8,1.6,0.9*24

2:49:56:627 Nachm. 03/28/17 - $GNGSA,A,2,,,,,,,,,,,,,1.8,1.6,0.9*2A

2:49:57:588 Nachm. 03/28/17 - $GPGSV,3,1,12,10,18,306,15,12,33,226,33,15,51,199,29,17,41,080,21*76

2:49:57:592 Nachm. 03/28/17 - $GPGSV,3,2,12,18,18,277,12,19,40,112,15,24,62,285,28,01,05,026,*77

2:49:57:594 Nachm. 03/28/17 - $GPGSV,3,3,12,11,,,,13,29,157,,28,16,053,,32,,,*7A

2:49:57:595 Nachm. 03/28/17 - $GLGSV,1,1,01,71,37,232,35*53

2:49:57:596 Nachm. 03/28/17 - $GPGGA,124953.0,5208.382815,N,01138.450655,E,1,05,1.6,90.0,M,45.0,M,,*68

2:49:57:597 Nachm. 03/28/17 - $GNGNS,124953.0,5208.382815,N,01138.450655,E,AN,05,1.6,90.0,45.0,,*53

2:49:57:598 Nachm. 03/28/17 - $GPVTG,132.5,T,132.1,M,0.0,N,0.0,K,A*27

2:49:57:599 Nachm. 03/28/17 - $GPRMC,124953.0,A,5208.382815,N,01138.450655,E,0.0,132.5,280317,0.4,E,A*05

2:49:57:607 Nachm. 03/28/17 - $GPGSA,A,2,12,15,17,18,24,,,,,,,,1.8,1.6,0.9*3A

2:49:57:608 Nachm. 03/28/17 - $GNGSA,A,2,12,15,17,18,24,,,,,,,,1.8,1.6,0.9*24

2:49:57:608 Nachm. 03/28/17 - $GNGSA,A,2,,,,,,,,,,,,,1.8,1.6,0.9*2A

2:49:58:589 Nachm. 03/28/17 - $GPGSV,3,1,12,10,18,306,15,12,33,226,33,15,51,199,29,17,41,080,20*77

2:49:58:589 Nachm. 03/28/17 - $GPGSV,3,2,12,18,18,277,12,19,40,112,15,24,62,285,29,01,05,026,*76

2:49:58:590 Nachm. 03/28/17 - $GPGSV,3,3,12,11,,,,13,29,157,,28,16,053,,32,,,*7A

2:49:58:593 Nachm. 03/28/17 - $GLGSV,1,1,01,71,37,232,35*53

2:49:58:594 Nachm. 03/28/17 - $GPGGA,124954.0,5208.382764,N,01138.450732,E,1,05,1.6,89.8,M,45.0,M,,*66

2:49:58:594 Nachm. 03/28/17 - $GNGNS,124954.0,5208.382764,N,01138.450732,E,AN,05,1.6,89.8,45.0,,*5D

2:49:58:594 Nachm. 03/28/17 - $GPVTG,132.5,T,132.1,M,0.0,N,0.0,K,A*27

2:49:58:595 Nachm. 03/28/17 - $GPRMC,124954.0,A,5208.382764,N,01138.450732,E,0.0,132.5,280317,0.4,E,A*0B

2:49:58:595 Nachm. 03/28/17 - $GPGSA,A,2,12,15,17,18,24,,,,,,,,1.8,1.6,0.9*3A

2:49:58:595 Nachm. 03/28/17 - $GNGSA,A,2,12,15,17,18,24,,,,,,,,1.8,1.6,0.9*24

2:49:58:596 Nachm. 03/28/17 - $GNGSA,A,2,,,,,,,,,,,,,1.8,1.6,0.9*2A

2:49:59:589 Nachm. 03/28/17 - $GPGSV,3,1,12,10,18,306,15,12,33,226,33,15,51,199,29,17,41,080,23*74

2:49:59:590 Nachm. 03/28/17 - $GPGSV,3,2,12,18,18,277,12,19,40,112,15,24,62,285,29,01,05,026,*76

2:49:59:591 Nachm. 03/28/17 - $GPGSV,3,3,12,11,,,,13,29,157,,28,16,053,,32,,,*7A

2:49:59:595 Nachm. 03/28/17 - $GLGSV,1,1,01,71,37,232,36*50

2:49:59:597 Nachm. 03/28/17 - $GPGGA,124955.0,5208.382757,N,01138.450708,E,1,05,1.6,89.7,M,45.0,M,,*61

2:49:59:598 Nachm. 03/28/17 - $GNGNS,124955.0,5208.382757,N,01138.450708,E,AN,05,1.6,89.7,45.0,,*5A

2:49:59:606 Nachm. 03/28/17 - $GPVTG,132.5,T,132.1,M,0.0,N,0.0,K,A*27

2:49:59:607 Nachm. 03/28/17 - $GPRMC,124955.0,A,5208.382757,N,01138.450708,E,0.0,132.5,280317,0.4,E,A*03

2:49:59:610 Nachm. 03/28/17 - $GPGSA,A,2,12,15,17,18,24,,,,,,,,1.8,1.6,0.9*3A

2:49:59:617 Nachm. 03/28/17 - $GNGSA,A,2,12,15,17,18,24,,,,,,,,1.8,1.6,0.9*24

2:49:59:617 Nachm. 03/28/17 - $GNGSA,A,2,,,,,,,,,,,,,1.8,1.6,0.9*2A

2:50:00:586 Nachm. 03/28/17 - $GPGSV,3,1,12,10,18,306,15,12,33,226,32,15,51,199,28,17,41,080,21*76

2:50:00:587 Nachm. 03/28/17 - $GPGSV,3,2,12,18,18,277,12,19,40,112,15,24,62,285,28,01,05,026,*77

2:50:00:587 Nachm. 03/28/17 - $GPGSV,3,3,12,11,,,,13,29,157,,28,16,053,,32,,,*7A

2:50:00:588 Nachm. 03/28/17 - $GLGSV,1,1,01,71,37,232,35*53

2:50:00:595 Nachm. 03/28/17 - $GPGGA,124956.0,5208.382720,N,01138.450844,E,1,05,1.6,89.6,M,45.0,M,,*64

2:50:00:596 Nachm. 03/28/17 - $GNGNS,124956.0,5208.382720,N,01138.450844,E,AN,05,1.6,89.6,45.0,,*5F

2:50:00:596 Nachm. 03/28/17 - $GPVTG,132.5,T,132.1,M,0.0,N,0.0,K,A*27

2:50:00:597 Nachm. 03/28/17 - $GPRMC,124956.0,A,5208.382720,N,01138.450844,E,0.0,132.5,280317,0.4,E,A*07

2:50:00:597 Nachm. 03/28/17 - $GPGSA,A,2,12,15,17,18,24,,,,,,,,1.8,1.6,0.9*3A

2:50:00:597 Nachm. 03/28/17 - $GNGSA,A,2,12,15,17,18,24,,,,,,,,1.8,1.6,0.9*24

2:50:00:597 Nachm. 03/28/17 - $GNGSA,A,2,,,,,,,,,,,,,1.8,1.6,0.9*2A

2:50:01:586 Nachm. 03/28/17 - $GPGSV,3,1,12,10,18,306,15,12,33,226,33,15,51,199,29,17,41,080,23*74

2:50:01:588 Nachm. 03/28/17 - $GPGSV,3,2,12,18,18,277,12,19,40,112,15,24,62,285,28,01,05,026,*77

2:50:01:588 Nachm. 03/28/17 - $GPGSV,3,3,12,11,,,,13,29,157,,28,16,053,,32,,,*7A

2:50:01:589 Nachm. 03/28/17 - $GLGSV,1,1,01,71,37,232,35*53

2:50:01:590 Nachm. 03/28/17 - $GPGGA,124957.0,5208.382787,N,01138.450891,E,1,05,1.6,89.3,M,45.0,M,,*65

2:50:01:590 Nachm. 03/28/17 - $GNGNS,124957.0,5208.382787,N,01138.450891,E,AN,05,1.6,89.3,45.0,,*5E

2:50:01:592 Nachm. 03/28/17 - $GPVTG,132.5,T,132.1,M,0.0,N,0.0,K,A*27

2:50:01:597 Nachm. 03/28/17 - $GPRMC,124957.0,A,5208.382787,N,01138.450891,E,0.0,132.5,280317,0.4,E,A*03

2:50:01:597 Nachm. 03/28/17 - $GPGSA,A,2,12,15,17,18,24,,,,,,,,1.8,1.6,0.9*3A

2:50:01:598 Nachm. 03/28/17 - $GNGSA,A,2,12,15,17,18,24,,,,,,,,1.8,1.6,0.9*24

2:50:01:599 Nachm. 03/28/17 - $GNGSA,A,2,,,,,,,,,,,,,1.8,1.6,0.9*2A

2:50:02:588 Nachm. 03/28/17 - $GPGSV,3,1,12,10,18,306,15,12,33,226,33,15,51,199,29,17,41,080,24*73

2:50:02:589 Nachm. 03/28/17 - $GPGSV,3,2,12,18,18,277,12,19,40,112,15,24,62,285,28,01,05,026,*77

2:50:02:589 Nachm. 03/28/17 - $GPGSV,3,3,12,11,,,,13,29,157,,28,16,053,,32,,,*7A

2:50:02:608 Nachm. 03/28/17 - $GLGSV,1,1,01,71,37,232,35*53

2:50:02:609 Nachm. 03/28/17 - $GPGGA,124958.0,5208.382769,N,01138.450854,E,1,05,1.6,89.3,M,45.0,M,,*63

2:50:02:609 Nachm. 03/28/17 - $GNGNS,124958.0,5208.382769,N,01138.450854,E,AN,05,1.6,89.3,45.0,,*58

2:50:02:610 Nachm. 03/28/17 - $GPVTG,132.5,T,132.1,M,0.0,N,0.0,K,A*27

2:50:02:610 Nachm. 03/28/17 - $GPRMC,124958.0,A,5208.382769,N,01138.450854,E,0.0,132.5,280317,0.4,E,A*05

2:50:02:610 Nachm. 03/28/17 - $GPGSA,A,2,12,15,17,18,24,,,,,,,,1.8,1.6,0.9*3A

2:50:02:610 Nachm. 03/28/17 - $GNGSA,A,2,12,15,17,18,24,,,,,,,,1.8,1.6,0.9*24

2:50:02:610 Nachm. 03/28/17 - $GNGSA,A,2,,,,,,,,,,,,,1.8,1.6,0.9*2A

2:50:03:587 Nachm. 03/28/17 - $GPGSV,3,1,12,10,18,306,15,12,33,226,32,15,51,199,29,17,41,080,24*72

2:50:03:589 Nachm. 03/28/17 - $GPGSV,3,2,12,18,18,277,12,19,40,112,15,24,62,285,29,01,05,026,*76

2:50:03:589 Nachm. 03/28/17 - $GPGSV,3,3,12,11,,,,13,29,157,,28,16,053,,32,,,*7A

2:50:03:589 Nachm. 03/28/17 - $GLGSV,1,1,01,71,37,232,35*53

2:50:03:597 Nachm. 03/28/17 - $GPGGA,124959.0,5208.382794,N,01138.451002,E,1,04,2.1,89.1,M,45.0,M,,*6D

2:50:03:598 Nachm. 03/28/17 - $GNGNS,124959.0,5208.382794,N,01138.451002,E,AN,04,2.1,89.1,45.0,,*56

2:50:03:598 Nachm. 03/28/17 - $GPVTG,132.5,T,132.1,M,0.0,N,0.0,K,A*27

2:50:03:598 Nachm. 03/28/17 - $GPRMC,124959.0,A,5208.382794,N,01138.451002,E,0.0,132.5,280317,0.4,E,A*0C

2:50:03:599 Nachm. 03/28/17 - $GPGSA,A,2,12,15,17,24,,,,,,,,,2.3,2.1,1.0*37

2:50:03:600 Nachm. 03/28/17 - $GNGSA,A,2,12,15,17,24,,,,,,,,,2.3,2.1,1.0*29

2:50:03:601 Nachm. 03/28/17 - $GNGSA,A,2,,,,,,,,,,,,,2.3,2.1,1.0*2E

2:50:04:588 Nachm. 03/28/17 - $GPGSV,3,1,12,10,18,306,15,12,33,226,32,15,51,199,29,17,41,080,25*73

2:50:04:589 Nachm. 03/28/17 - $GPGSV,3,2,12,18,18,277,14,19,40,112,15,24,62,285,28,01,05,026,*71

2:50:04:590 Nachm. 03/28/17 - $GPGSV,3,3,12,11,,,,13,29,157,,28,16,053,,32,,,*7A

2:50:04:599 Nachm. 03/28/17 - $GLGSV,1,1,01,71,37,232,35*53

2:50:04:600 Nachm. 03/28/17 - $GPGGA,125000.0,5208.382755,N,01138.450787,E,1,05,1.6,89.3,M,45.0,M,,*68

2:50:04:602 Nachm. 03/28/17 - $GNGNS,125000.0,5208.382755,N,01138.450787,E,AN,05,1.6,89.3,45.0,,*53

2:50:04:609 Nachm. 03/28/17 - $GPVTG,132.5,T,132.1,M,0.0,N,0.0,K,A*27

2:50:04:614 Nachm. 03/28/17 - $GPRMC,125000.0,A,5208.382755,N,01138.450787,E,0.0,132.5,280317,0.4,E,A*0E

2:50:04:618 Nachm. 03/28/17 - $GPGSA,A,2,12,15,17,18,24,,,,,,,,1.8,1.6,0.9*3A

2:50:04:619 Nachm. 03/28/17 - $GNGSA,A,2,12,15,17,18,24,,,,,,,,1.8,1.6,0.9*24

2:50:04:620 Nachm. 03/28/17 - $GNGSA,A,2,,,,,,,,,,,,,1.8,1.6,0.9*2A

2:50:05:590 Nachm. 03/28/17 - $GPGSV,3,1,12,10,18,306,15,12,33,226,31,15,51,199,29,17,41,080,24*71

2:50:05:591 Nachm. 03/28/17 - $GPGSV,3,2,12,18,18,277,14,19,40,112,15,24,62,285,27,01,05,026,*7E

2:50:05:597 Nachm. 03/28/17 - $GPGSV,3,3,12,11,,,,13,29,157,,28,16,053,,32,,,*7A

2:50:05:598 Nachm. 03/28/17 - $GLGSV,1,1,01,71,37,232,35*53

2:50:05:600 Nachm. 03/28/17 - $GPGGA,125001.0,5208.382806,N,01138.450645,E,1,05,1.6,89.3,M,45.0,M,,*6F

2:50:05:601 Nachm. 03/28/17 - $GNGNS,125001.0,5208.382806,N,01138.450645,E,AN,05,1.6,89.3,45.0,,*54

2:50:05:603 Nachm. 03/28/17 - $GPVTG,132.5,T,132.1,M,0.0,N,0.0,K,A*27

2:50:05:604 Nachm. 03/28/17 - $GPRMC,125001.0,A,5208.382806,N,01138.450645,E,0.0,132.5,280317,0.4,E,A*09

2:50:05:605 Nachm. 03/28/17 - $GPGSA,A,2,12,15,17,18,24,,,,,,,,1.8,1.6,0.9*3A

2:50:05:607 Nachm. 03/28/17 - $GNGSA,A,2,12,15,17,18,24,,,,,,,,1.8,1.6,0.9*24

2:50:05:607 Nachm. 03/28/17 - $GNGSA,A,2,,,,,,,,,,,,,1.8,1.6,0.9*2A

2:50:06:588 Nachm. 03/28/17 - $GPGSV,3,1,12,10,18,306,15,12,33,226,31,15,51,199,29,17,41,080,25*70

2:50:06:589 Nachm. 03/28/17 - $GPGSV,3,2,12,18,18,277,16,24,62,285,28,01,05,026,,11,,,*49

2:50:06:593 Nachm. 03/28/17 - $GPGSV,3,3,12,13,29,157,,19,40,112,,28,16,053,,32,,,*44

2:50:06:595 Nachm. 03/28/17 - $GLGSV,1,1,01,71,37,232,35*53

2:50:06:607 Nachm. 03/28/17 - $GPGGA,125002.0,5208.382802,N,01138.451048,E,1,05,1.5,89.5,M,45.0,M,,*67

2:50:06:608 Nachm. 03/28/17 - $GNGNS,125002.0,5208.382802,N,01138.451048,E,AA,06,1.5,89.5,45.0,,*50

2:50:06:609 Nachm. 03/28/17 - $GPVTG,132.5,T,132.1,M,0.0,N,0.0,K,A*27

2:50:06:609 Nachm. 03/28/17 - $GPRMC,125002.0,A,5208.382802,N,01138.451048,E,0.0,132.5,280317,0.4,E,A*04

2:50:06:609 Nachm. 03/28/17 - $GPGSA,A,2,12,15,17,18,24,,,,,,,,1.8,1.5,0.9*39

2:50:06:610 Nachm. 03/28/17 - $GNGSA,A,2,12,15,17,18,24,,,,,,,,1.8,1.5,0.9*27

2:50:06:610 Nachm. 03/28/17 - $GNGSA,A,2,71,,,,,,,,,,,,1.8,1.5,0.9*2F

2:50:07:588 Nachm. 03/28/17 - $GPGSV,3,1,11,12,33,226,27,15,51,199,28,17,41,080,21,18,18,277,16*7D

2:50:07:589 Nachm. 03/28/17 - $GPGSV,3,2,11,24,62,285,25,01,05,026,,11,,,,13,29,157,*48

2:50:07:589 Nachm. 03/28/17 - $GPGSV,3,3,11,19,40,112,,28,16,053,,32,,,*7D

2:50:07:590 Nachm. 03/28/17 - $GLGSV,1,1,01,71,37,232,32*54

2:50:07:591 Nachm. 03/28/17 - $GPGGA,125003.0,5208.382853,N,01138.451365,E,1,05,1.5,89.4,M,45.0,M,,*6F

2:50:07:591 Nachm. 03/28/17 - $GNGNS,125003.0,5208.382853,N,01138.451365,E,AA,06,1.5,89.4,45.0,,*58

2:50:07:592 Nachm. 03/28/17 - $GPVTG,132.5,T,132.1,M,0.0,N,0.0,K,A*27

2:50:07:593 Nachm. 03/28/17 - $GPRMC,125003.0,A,5208.382853,N,01138.451365,E,0.0,132.5,280317,0.4,E,A*0D

2:50:07:594 Nachm. 03/28/17 - $GPGSA,A,2,12,15,17,18,24,,,,,,,,1.8,1.5,0.9*39

2:50:07:597 Nachm. 03/28/17 - $GNGSA,A,2,12,15,17,18,24,,,,,,,,1.8,1.5,0.9*27

2:50:07:597 Nachm. 03/28/17 - $GNGSA,A,2,71,,,,,,,,,,,,1.8,1.5,0.9*2F

2:50:08:588 Nachm. 03/28/17 - $GPGSV,3,1,12,12,33,226,34,15,51,199,30,17,41,080,21,18,18,277,16*75

2:50:08:596 Nachm. 03/28/17 - $GPGSV,3,2,12,24,62,285,25,01,05,026,,10,18,306,,11,,,*4C

2:50:08:601 Nachm. 03/28/17 - $GPGSV,3,3,12,13,29,157,,19,40,112,,28,16,053,,32,,,*44

2:50:08:615 Nachm. 03/28/17 - $GLGSV,1,1,01,71,37,232,34*52

2:50:08:616 Nachm. 03/28/17 - $GPGGA,125004.0,5208.382820,N,01138.451424,E,1,05,1.5,89.3,M,45.0,M,,*69

2:50:08:618 Nachm. 03/28/17 - $GNGNS,125004.0,5208.382820,N,01138.451424,E,AA,06,1.5,89.3,45.0,,*5E

2:50:08:618 Nachm. 03/28/17 - $GPVTG,132.5,T,132.1,M,0.0,N,0.0,K,A*27

2:50:08:619 Nachm. 03/28/17 - $GPRMC,125004.0,A,5208.382820,N,01138.451424,E,0.0,132.5,280317,0.4,E,A*0C

2:50:08:619 Nachm. 03/28/17 - $GPGSA,A,2,12,15,17,18,24,,,,,,,,1.8,1.5,0.9*39

2:50:08:619 Nachm. 03/28/17 - $GNGSA,A,2,12,15,17,18,24,,,,,,,,1.8,1.5,0.9*27

2:50:08:620 Nachm. 03/28/17 - $GNGSA,A,2,71,,,,,,,,,,,,1.8,1.5,0.9*2F

2:50:09:587 Nachm. 03/28/17 - $GPGSV,3,1,12,12,33,226,34,15,51,199,32,17,41,080,18,18,18,277,16*7D

2:50:09:589 Nachm. 03/28/17 - $GPGSV,3,2,12,24,62,285,28,01,05,026,,10,18,306,,11,,,*41

2:50:09:590 Nachm. 03/28/17 - $GPGSV,3,3,12,13,29,157,,19,40,112,,28,16,053,,32,,,*44

2:50:09:590 Nachm. 03/28/17 - $GLGSV,1,1,01,71,37,232,33*55

2:50:09:590 Nachm. 03/28/17 - $GPGGA,125005.0,5208.382860,N,01138.451530,E,1,05,1.5,89.5,M,45.0,M,,*6E

2:50:09:591 Nachm. 03/28/17 - $GNGNS,125005.0,5208.382860,N,01138.451530,E,AA,06,1.5,89.5,45.0,,*59

2:50:09:591 Nachm. 03/28/17 - $GPVTG,132.5,T,132.1,M,0.0,N,0.0,K,A*27

2:50:09:593 Nachm. 03/28/17 - $GPRMC,125005.0,A,5208.382860,N,01138.451530,E,0.0,132.5,280317,0.4,E,A*0D

2:50:09:602 Nachm. 03/28/17 - $GPGSA,A,2,12,15,17,18,24,,,,,,,,1.8,1.5,0.9*39

2:50:09:603 Nachm. 03/28/17 - $GNGSA,A,2,12,15,17,18,24,,,,,,,,1.8,1.5,0.9*27

2:50:09:603 Nachm. 03/28/17 - $GNGSA,A,2,71,,,,,,,,,,,,1.8,1.5,0.9*2F

2:50:10:587 Nachm. 03/28/17 - $GPGSV,3,1,12,12,33,226,33,15,51,199,32,17,41,080,19,18,18,277,16*7B

2:50:10:589 Nachm. 03/28/17 - $GPGSV,3,2,12,24,62,285,28,01,05,026,,10,18,306,,11,,,*41

2:50:10:590 Nachm. 03/28/17 - $GPGSV,3,3,12,13,29,157,,19,40,112,,28,16,053,,32,,,*44

2:50:10:590 Nachm. 03/28/17 - $GLGSV,1,1,01,71,37,232,33*55

2:50:10:592 Nachm. 03/28/17 - $GPGGA,125006.0,5208.382865,N,01138.451525,E,1,05,1.5,89.5,M,45.0,M,,*6C

2:50:10:592 Nachm. 03/28/17 - $GNGNS,125006.0,5208.382865,N,01138.451525,E,AA,06,1.5,89.5,45.0,,*5B

2:50:10:592 Nachm. 03/28/17 - $GPVTG,132.5,T,132.1,M,0.0,N,0.0,K,A*27

2:50:10:592 Nachm. 03/28/17 - $GPRMC,125006.0,A,5208.382865,N,01138.451525,E,0.0,132.5,280317,0.4,E,A*0F

2:50:10:592 Nachm. 03/28/17 - $GPGSA,A,2,12,15,17,18,24,,,,,,,,1.8,1.5,0.9*39

2:50:10:593 Nachm. 03/28/17 - $GNGSA,A,2,12,15,17,18,24,,,,,,,,1.8,1.5,0.9*27

2:50:10:593 Nachm. 03/28/17 - $GNGSA,A,2,71,,,,,,,,,,,,1.8,1.5,0.9*2F

2:50:11:587 Nachm. 03/28/17 - $GPGSV,3,1,12,12,33,226,32,15,51,199,30,17,41,080,19,18,18,277,16*78

2:50:11:587 Nachm. 03/28/17 - $GPGSV,3,2,12,24,62,285,27,01,05,026,,10,18,306,,11,,,*4E

2:50:11:588 Nachm. 03/28/17 - $GPGSV,3,3,12,13,29,157,,19,40,112,,28,16,053,,32,,,*44

2:50:11:588 Nachm. 03/28/17 - $GLGSV,1,1,01,71,37,232,34*52

2:50:11:588 Nachm. 03/28/17 - $GPGGA,125007.0,5208.382934,N,01138.451681,E,1,05,1.5,89.4,M,45.0,M,,*64

2:50:11:589 Nachm. 03/28/17 - $GNGNS,125007.0,5208.382934,N,01138.451681,E,AA,06,1.5,89.4,45.0,,*53

2:50:11:593 Nachm. 03/28/17 - $GPVTG,132.5,T,132.1,M,0.0,N,0.0,K,A*27

2:50:11:594 Nachm. 03/28/17 - $GPRMC,125007.0,A,5208.382934,N,01138.451681,E,0.0,132.5,280317,0.4,E,A*06

2:50:11:595 Nachm. 03/28/17 - $GPGSA,A,2,12,15,17,18,24,,,,,,,,1.8,1.5,0.9*39

2:50:11:596 Nachm. 03/28/17 - $GNGSA,A,2,12,15,17,18,24,,,,,,,,1.8,1.5,0.9*27

2:50:11:597 Nachm. 03/28/17 - $GNGSA,A,2,71,,,,,,,,,,,,1.8,1.5,0.9*2F

2:50:12:587 Nachm. 03/28/17 - $GPGSV,3,1,12,12,33,226,32,15,51,199,27,17,41,080,19,18,18,277,16*7E

2:50:12:588 Nachm. 03/28/17 - $GPGSV,3,2,12,19,40,112,15,24,62,285,22,01,05,026,,10,18,306,*71

2:50:12:588 Nachm. 03/28/17 - $GPGSV,3,3,12,11,,,,13,29,157,,28,16,053,,32,,,*7A

2:50:12:588 Nachm. 03/28/17 - $GLGSV,1,1,01,71,37,232,34*52

2:50:12:592 Nachm. 03/28/17 - $GPGGA,125008.0,5208.382941,N,01138.451725,E,1,06,1.4,89.4,M,45.0,M,,*64

2:50:12:593 Nachm. 03/28/17 - $GNGNS,125008.0,5208.382941,N,01138.451725,E,AA,07,1.4,89.4,45.0,,*51

2:50:12:593 Nachm. 03/28/17 - $GPVTG,132.5,T,132.1,M,0.0,N,0.0,K,A*27

2:50:12:593 Nachm. 03/28/17 - $GPRMC,125008.0,A,5208.382941,N,01138.451725,E,0.0,132.5,280317,0.4,E,A*04

2:50:12:596 Nachm. 03/28/17 - $GPGSA,A,2,12,15,17,18,19,24,,,,,,,1.7,1.4,0.9*3F

2:50:12:599 Nachm. 03/28/17 - $GNGSA,A,2,12,15,17,18,19,24,,,,,,,1.7,1.4,0.9*21

2:50:12:600 Nachm. 03/28/17 - $GNGSA,A,2,71,,,,,,,,,,,,1.7,1.4,0.9*21

2:50:13:587 Nachm. 03/28/17 - $GPGSV,3,1,12,12,33,226,32,15,51,199,28,17,41,080,19,18,18,277,16*71

2:50:13:588 Nachm. 03/28/17 - $GPGSV,3,2,12,19,40,112,15,24,62,285,23,01,05,026,,10,18,306,*70

2:50:13:589 Nachm. 03/28/17 - $GPGSV,3,3,12,11,,,,13,29,157,,28,16,053,,32,,,*7A

2:50:13:589 Nachm. 03/28/17 - $GLGSV,1,1,01,71,37,232,34*52

2:50:13:591 Nachm. 03/28/17 - $GPGGA,125009.0,5208.382949,N,01138.451778,E,1,06,1.4,89.5,M,45.0,M,,*64

2:50:13:594 Nachm. 03/28/17 - $GNGNS,125009.0,5208.382949,N,01138.451778,E,AA,07,1.4,89.5,45.0,,*51

2:50:13:594 Nachm. 03/28/17 - $GPVTG,132.5,T,132.1,M,0.0,N,0.0,K,A*27

2:50:13:595 Nachm. 03/28/17 - $GPRMC,125009.0,A,5208.382949,N,01138.451778,E,0.0,132.5,280317,0.4,E,A*05

2:50:13:609 Nachm. 03/28/17 - $GPGSA,A,2,12,15,17,18,19,24,,,,,,,1.7,1.4,0.9*3F

2:50:13:609 Nachm. 03/28/17 - $GNGSA,A,2,12,15,17,18,19,24,,,,,,,1.7,1.4,0.9*21

2:50:13:609 Nachm. 03/28/17 - $GNGSA,A,2,71,,,,,,,,,,,,1.7,1.4,0.9*21


