2:47:37:588 Nachm. 03/28/17 - $GPGSV,3,1,11,12,32,226,15,13,30,157,14,15,52,199,32,24,61,285,19*79

2:47:37:591 Nachm. 03/28/17 - $GPGSV,3,2,11,01,05,026,,10,18,307,,11,,,,17,41,081,*4E

2:47:37:591 Nachm. 03/28/17 - $GPGSV,3,3,11,18,18,278,,19,39,113,,28,17,053,*4F

2:47:37:591 Nachm. 03/28/17 - $GPGGA,,,,,,0,,,,,,,,*66

2:47:37:595 Nachm. 03/28/17 - $GNGNS,,,,,,NN,,,,,,*53

2:47:37:598 Nachm. 03/28/17 - $GPVTG,,T,,M,,N,,K,N*2C

2:47:37:598 Nachm. 03/28/17 - $GPRMC,,V,,,,,,,,,,N*53

2:47:37:598 Nachm. 03/28/17 - $GPGSA,A,1,,,,,,,,,,,,,,,*1E

2:47:37:599 Nachm. 03/28/17 - $GNGSA,A,1,,,,,,,,,,,,,,,*00

2:47:38:587 Nachm. 03/28/17 - $GPGSV,3,1,11,12,32,226,18,13,30,157,14,15,52,199,30,24,61,285,19*76

2:47:38:588 Nachm. 03/28/17 - $GPGSV,3,2,11,01,05,026,,10,18,307,,11,,,,17,41,081,*4E

2:47:38:588 Nachm. 03/28/17 - $GPGSV,3,3,11,18,18,278,,19,39,113,,28,17,053,*4F

2:47:38:589 Nachm. 03/28/17 - $GPGGA,,,,,,0,,,,,,,,*66

2:47:38:594 Nachm. 03/28/17 - $GNGNS,,,,,,NN,,,,,,*53

2:47:38:595 Nachm. 03/28/17 - $GPVTG,,T,,M,,N,,K,N*2C

2:47:38:596 Nachm. 03/28/17 - $GPRMC,,V,,,,,,,,,,N*53

2:47:38:601 Nachm. 03/28/17 - $GPGSA,A,1,,,,,,,,,,,,,,,*1E

2:47:38:602 Nachm. 03/28/17 - $GNGSA,A,1,,,,,,,,,,,,,,,*00

2:47:39:588 Nachm. 03/28/17 - $GPGSV,3,1,11,12,32,226,20,13,30,157,14,15,52,199,30,24,61,285,15*71

2:47:39:592 Nachm. 03/28/17 - $GPGSV,3,2,11,01,05,026,,10,18,307,,11,,,,17,41,081,*4E

2:47:39:593 Nachm. 03/28/17 - $GPGSV,3,3,11,18,18,278,,19,39,113,,28,17,053,*4F

2:47:39:610 Nachm. 03/28/17 - $GPGGA,,,,,,0,,,,,,,,*66

2:47:39:619 Nachm. 03/28/17 - $GNGNS,,,,,,NN,,,,,,*53

2:47:39:619 Nachm. 03/28/17 - $GPVTG,,T,,M,,N,,K,N*2C

2:47:39:619 Nachm. 03/28/17 - $GPRMC,,V,,,,,,,,,,N*53

2:47:39:619 Nachm. 03/28/17 - $GPGSA,A,1,,,,,,,,,,,,,,,*1E

2:47:39:620 Nachm. 03/28/17 - $GNGSA,A,1,,,,,,,,,,,,,,,*00

2:47:40:588 Nachm. 03/28/17 - $GPGSV,3,1,11,10,18,307,17,12,32,226,27,13,30,157,14,15,52,199,38*7E

2:47:40:589 Nachm. 03/28/17 - $GPGSV,3,2,11,24,61,285,18,01,05,026,,11,,,,17,41,081,*45

2:47:40:590 Nachm. 03/28/17 - $GPGSV,3,3,11,18,18,278,,19,39,113,,28,17,053,*4F

2:47:40:593 Nachm. 03/28/17 - $GPGGA,,,,,,0,,,,,,,,*66

2:47:40:594 Nachm. 03/28/17 - $GNGNS,,,,,,NN,,,,,,*53

2:47:40:594 Nachm. 03/28/17 - $GPVTG,,T,,M,,N,,K,N*2C

2:47:40:595 Nachm. 03/28/17 - $GPRMC,,V,,,,,,,,,,N*53

2:47:40:599 Nachm. 03/28/17 - $GPGSA,A,1,,,,,,,,,,,,,,,*1E

2:47:40:600 Nachm. 03/28/17 - $GNGSA,A,1,,,,,,,,,,,,,,,*00

2:47:41:587 Nachm. 03/28/17 - $GPGSV,3,1,11,10,18,307,17,12,32,226,31,13,30,157,14,15,52,199,34*75

2:47:41:588 Nachm. 03/28/17 - $GPGSV,3,2,11,17,41,081,13,24,61,285,21,01,05,026,,11,,,*4D

2:47:41:588 Nachm. 03/28/17 - $GPGSV,3,3,11,18,18,278,,19,39,113,,28,17,053,*4F

2:47:41:593 Nachm. 03/28/17 - $GPGGA,,,,,,0,,,,,,,,*66

2:47:41:593 Nachm. 03/28/17 - $GNGNS,,,,,,NN,,,,,,*53

2:47:41:594 Nachm. 03/28/17 - $GPVTG,,T,,M,,N,,K,N*2C

2:47:41:596 Nachm. 03/28/17 - $GPRMC,,V,,,,,,,,,,N*53

2:47:41:596 Nachm. 03/28/17 - $GPGSA,A,1,,,,,,,,,,,,,,,*1E

2:47:41:596 Nachm. 03/28/17 - $GNGSA,A,1,,,,,,,,,,,,,,,*00

2:47:42:589 Nachm. 03/28/17 - $GPGSV,3,1,11,10,18,307,16,12,32,226,28,13,30,157,14,15,52,199,36*7E

2:47:42:590 Nachm. 03/28/17 - $GPGSV,3,2,11,17,41,081,13,24,61,285,21,01,05,026,,11,,,*4D

2:47:42:591 Nachm. 03/28/17 - $GPGSV,3,3,11,18,18,278,,19,39,113,,28,17,053,*4F

2:47:42:595 Nachm. 03/28/17 - $GPGGA,,,,,,0,,,,,,,,*66

2:47:42:596 Nachm. 03/28/17 - $GNGNS,,,,,,NN,,,,,,*53

2:47:42:601 Nachm. 03/28/17 - $GPVTG,,T,,M,,N,,K,N*2C

2:47:42:602 Nachm. 03/28/17 - $GPRMC,,V,,,,,,,,,,N*53

2:47:42:602 Nachm. 03/28/17 - $GPGSA,A,1,,,,,,,,,,,,,,,*1E

2:47:42:603 Nachm. 03/28/17 - $GNGSA,A,1,,,,,,,,,,,,,,,*00

2:47:43:589 Nachm. 03/28/17 - $GPGSV,3,1,11,10,18,307,17,12,32,226,29,13,30,157,14,15,52,199,36*7E

2:47:43:591 Nachm. 03/28/17 - $GPGSV,3,2,11,17,41,081,13,24,61,285,17,01,05,026,,11,,,*48

2:47:43:593 Nachm. 03/28/17 - $GPGSV,3,3,11,18,18,278,,19,39,113,,28,17,053,*4F

2:47:43:594 Nachm. 03/28/17 - $GPGGA,,,,,,0,,,,,,,,*66

2:47:43:598 Nachm. 03/28/17 - $GNGNS,,,,,,NN,,,,,,*53

2:47:43:599 Nachm. 03/28/17 - $GPVTG,,T,,M,,N,,K,N*2C

2:47:43:599 Nachm. 03/28/17 - $GPRMC,,V,,,,,,,,,,N*53

2:47:43:600 Nachm. 03/28/17 - $GPGSA,A,1,,,,,,,,,,,,,,,*1E

2:47:43:601 Nachm. 03/28/17 - $GNGSA,A,1,,,,,,,,,,,,,,,*00

2:47:44:587 Nachm. 03/28/17 - $GPGSV,3,1,11,10,18,307,16,12,32,226,29,13,30,157,14,15,52,199,36*7F

2:47:44:588 Nachm. 03/28/17 - $GPGSV,3,2,11,17,41,081,13,24,61,285,17,01,05,026,,11,,,*48

2:47:44:588 Nachm. 03/28/17 - $GPGSV,3,3,11,18,18,278,,19,39,113,,28,17,053,*4F

2:47:44:589 Nachm. 03/28/17 - $GPGGA,,,,,,0,,,,,,,,*66

2:47:44:594 Nachm. 03/28/17 - $GNGNS,,,,,,NN,,,,,,*53

2:47:44:597 Nachm. 03/28/17 - $GPVTG,,T,,M,,N,,K,N*2C

2:47:44:597 Nachm. 03/28/17 - $GPRMC,,V,,,,,,,,,,N*53

2:47:44:598 Nachm. 03/28/17 - $GPGSA,A,1,,,,,,,,,,,,,,,*1E

2:47:44:598 Nachm. 03/28/17 - $GNGSA,A,1,,,,,,,,,,,,,,,*00

2:47:45:588 Nachm. 03/28/17 - $GPGSV,3,1,11,10,18,307,16,12,32,226,29,13,30,157,14,15,52,199,37*7E

2:47:45:589 Nachm. 03/28/17 - $GPGSV,3,2,11,17,41,081,13,24,61,285,18,01,05,026,,11,,,*47

2:47:45:590 Nachm. 03/28/17 - $GPGSV,3,3,11,18,18,278,,19,39,113,,28,17,053,*4F

2:47:45:603 Nachm. 03/28/17 - $GPGGA,124741.0,5208.367806,N,01138.457219,E,1,05,1.3,93.5,M,45.0,M,,*64

2:47:45:611 Nachm. 03/28/17 - $GNGNS,124741.0,5208.367806,N,01138.457219,E,AN,05,1.3,93.5,45.0,,*5F

2:47:45:611 Nachm. 03/28/17 - $GPVTG,132.5,T,132.1,M,0.0,N,0.0,K,A*27

2:47:45:612 Nachm. 03/28/17 - $GPRMC,124741.0,A,5208.367806,N,01138.457219,E,0.0,132.5,280317,0.4,E,A*0A

2:47:45:612 Nachm. 03/28/17 - $GPGSA,A,2,10,12,15,17,24,,,,,,,,1.6,1.3,0.9*39

2:47:45:612 Nachm. 03/28/17 - $GNGSA,A,2,10,12,15,17,24,,,,,,,,1.6,1.3,0.9*27

2:47:45:612 Nachm. 03/28/17 - $GNGSA,A,2,,,,,,,,,,,,,1.6,1.3,0.9*21

2:47:46:588 Nachm. 03/28/17 - $GPGSV,3,1,11,10,18,307,16,12,32,226,28,13,30,157,14,15,52,199,36*7E

2:47:46:590 Nachm. 03/28/17 - $GPGSV,3,2,11,17,41,081,13,24,61,285,18,01,05,026,,11,,,*47

2:47:46:590 Nachm. 03/28/17 - $GPGSV,3,3,11,18,18,278,,19,39,113,,28,17,053,*4F

2:47:46:591 Nachm. 03/28/17 - $GPGGA,124742.0,5208.368007,N,01138.457142,E,1,05,1.3,93.4,M,45.0,M,,*6D

2:47:46:594 Nachm. 03/28/17 - $GNGNS,124742.0,5208.368007,N,01138.457142,E,AN,05,1.3,93.4,45.0,,*56

2:47:46:604 Nachm. 03/28/17 - $GPVTG,132.5,T,132.1,M,0.0,N,0.0,K,A*27

2:47:46:604 Nachm. 03/28/17 - $GPRMC,124742.0,A,5208.368007,N,01138.457142,E,0.0,132.5,280317,0.4,E,A*02

2:47:46:605 Nachm. 03/28/17 - $GPGSA,A,2,10,12,15,17,24,,,,,,,,1.6,1.3,0.9*39

2:47:46:605 Nachm. 03/28/17 - $GNGSA,A,2,10,12,15,17,24,,,,,,,,1.6,1.3,0.9*27

2:47:46:608 Nachm. 03/28/17 - $GNGSA,A,2,,,,,,,,,,,,,1.6,1.3,0.9*21

2:47:47:590 Nachm. 03/28/17 - $GPGSV,3,1,11,10,18,307,17,12,32,226,29,13,30,157,14,15,52,199,36*7E

2:47:47:590 Nachm. 03/28/17 - $GPGSV,3,2,11,17,41,081,13,24,61,285,18,01,05,026,,11,,,*47

2:47:47:591 Nachm. 03/28/17 - $GPGSV,3,3,11,18,18,278,,19,39,113,,28,17,053,*4F

2:47:47:599 Nachm. 03/28/17 - $GPGGA,124743.0,5208.368350,N,01138.456966,E,1,05,1.3,93.1,M,45.0,M,,*67

2:47:47:601 Nachm. 03/28/17 - $GNGNS,124743.0,5208.368350,N,01138.456966,E,AN,05,1.3,93.1,45.0,,*5C

2:47:47:609 Nachm. 03/28/17 - $GPVTG,132.5,T,132.1,M,0.0,N,0.0,K,A*27

2:47:47:610 Nachm. 03/28/17 - $GPRMC,124743.0,A,5208.368350,N,01138.456966,E,0.0,132.5,280317,0.4,E,A*0D

2:47:47:610 Nachm. 03/28/17 - $GPGSA,A,2,10,12,15,17,24,,,,,,,,1.6,1.3,0.9*39

2:47:47:610 Nachm. 03/28/17 - $GNGSA,A,2,10,12,15,17,24,,,,,,,,1.6,1.3,0.9*27

2:47:47:610 Nachm. 03/28/17 - $GNGSA,A,2,,,,,,,,,,,,,1.6,1.3,0.9*21

2:47:48:588 Nachm. 03/28/17 - $GPGSV,3,1,11,10,18,306,16,12,32,226,29,13,30,157,14,15,52,199,35*7D

2:47:48:590 Nachm. 03/28/17 - $GPGSV,3,2,11,17,41,081,13,24,61,285,18,01,05,026,,11,,,*47

2:47:48:590 Nachm. 03/28/17 - $GPGSV,3,3,11,18,18,278,,19,39,113,,28,16,053,*4E

2:47:48:590 Nachm. 03/28/17 - $GPGGA,124744.0,5208.368553,N,01138.456891,E,1,05,1.3,93.1,M,45.0,M,,*6C

2:47:48:591 Nachm. 03/28/17 - $GNGNS,124744.0,5208.368553,N,01138.456891,E,AN,05,1.3,93.1,45.0,,*57

2:47:48:591 Nachm. 03/28/17 - $GPVTG,132.5,T,132.1,M,0.0,N,0.0,K,A*27

2:47:48:598 Nachm. 03/28/17 - $GPRMC,124744.0,A,5208.368553,N,01138.456891,E,0.0,132.5,280317,0.4,E,A*06

2:47:48:600 Nachm. 03/28/17 - $GPGSA,A,2,10,12,15,17,24,,,,,,,,1.6,1.3,0.9*39

2:47:48:602 Nachm. 03/28/17 - $GNGSA,A,2,10,12,15,17,24,,,,,,,,1.6,1.3,0.9*27

2:47:48:603 Nachm. 03/28/17 - $GNGSA,A,2,,,,,,,,,,,,,1.6,1.3,0.9*21

2:47:49:589 Nachm. 03/28/17 - $GPGSV,3,1,11,10,18,306,16,12,32,226,29,13,30,157,14,15,52,199,36*7E

2:47:49:590 Nachm. 03/28/17 - $GPGSV,3,2,11,17,41,081,13,24,61,285,18,01,05,026,,11,,,*47

2:47:49:590 Nachm. 03/28/17 - $GPGSV,3,3,11,18,18,278,,19,39,113,,28,16,053,*4E

2:47:49:591 Nachm. 03/28/17 - $GPGGA,124745.0,5208.371024,N,01138.456124,E,1,05,1.3,92.5,M,45.0,M,,*62

2:47:49:612 Nachm. 03/28/17 - $GNGNS,124745.0,5208.371024,N,01138.456124,E,AN,05,1.3,92.5,45.0,,*59

2:47:49:612 Nachm. 03/28/17 - $GPVTG,132.5,T,132.1,M,0.0,N,0.0,K,A*27

2:47:49:612 Nachm. 03/28/17 - $GPRMC,124745.0,A,5208.371024,N,01138.456124,E,0.0,132.5,280317,0.4,E,A*0D

2:47:49:612 Nachm. 03/28/17 - $GPGSA,A,2,10,12,15,17,24,,,,,,,,1.6,1.3,0.9*39

2:47:49:613 Nachm. 03/28/17 - $GNGSA,A,2,10,12,15,17,24,,,,,,,,1.6,1.3,0.9*27

2:47:49:614 Nachm. 03/28/17 - $GNGSA,A,2,,,,,,,,,,,,,1.6,1.3,0.9*21

2:47:50:588 Nachm. 03/28/17 - $GPGSV,3,1,11,10,18,306,16,12,32,226,29,13,30,157,14,15,52,199,36*7E

2:47:50:590 Nachm. 03/28/17 - $GPGSV,3,2,11,17,41,081,13,24,61,285,19,01,05,026,,11,,,*46

2:47:50:590 Nachm. 03/28/17 - $GPGSV,3,3,11,18,18,278,,19,39,113,,28,16,053,*4E

2:47:50:591 Nachm. 03/28/17 - $GPGGA,124746.0,5208.370996,N,01138.456092,E,1,05,1.3,92.4,M,45.0,M,,*6D

2:47:50:591 Nachm. 03/28/17 - $GNGNS,124746.0,5208.370996,N,01138.456092,E,AN,05,1.3,92.4,45.0,,*56

2:47:50:592 Nachm. 03/28/17 - $GPVTG,132.5,T,132.1,M,0.0,N,0.0,K,A*27

2:47:50:593 Nachm. 03/28/17 - $GPRMC,124746.0,A,5208.370996,N,01138.456092,E,0.0,132.5,280317,0.4,E,A*03

2:47:50:604 Nachm. 03/28/17 - $GPGSA,A,2,10,12,15,17,24,,,,,,,,1.6,1.3,0.9*39

2:47:50:609 Nachm. 03/28/17 - $GNGSA,A,2,10,12,15,17,24,,,,,,,,1.6,1.3,0.9*27

2:47:50:609 Nachm. 03/28/17 - $GNGSA,A,2,,,,,,,,,,,,,1.6,1.3,0.9*21

2:47:51:594 Nachm. 03/28/17 - $GPGSV,3,1,11,10,18,306,16,12,32,226,28,13,30,157,14,15,52,199,36*7F

2:47:51:595 Nachm. 03/28/17 - $GPGSV,3,2,11,17,41,081,13,24,61,285,19,01,05,026,,11,,,*46

2:47:51:595 Nachm. 03/28/17 - $GPGSV,3,3,11,18,18,278,,19,39,113,,28,16,053,*4E

2:47:51:596 Nachm. 03/28/17 - $GPGGA,124747.0,5208.370957,N,01138.456074,E,1,05,1.3,92.2,M,45.0,M,,*6F

2:47:51:601 Nachm. 03/28/17 - $GNGNS,124747.0,5208.370957,N,01138.456074,E,AN,05,1.3,92.2,45.0,,*54

2:47:51:609 Nachm. 03/28/17 - $GPVTG,132.5,T,132.1,M,0.0,N,0.0,K,A*27

2:47:51:610 Nachm. 03/28/17 - $GPRMC,124747.0,A,5208.370957,N,01138.456074,E,0.0,132.5,280317,0.4,E,A*07

2:47:51:611 Nachm. 03/28/17 - $GPGSA,A,2,10,12,15,17,24,,,,,,,,1.6,1.3,0.9*39

2:47:51:611 Nachm. 03/28/17 - $GNGSA,A,2,10,12,15,17,24,,,,,,,,1.6,1.3,0.9*27

2:47:51:612 Nachm. 03/28/17 - $GNGSA,A,2,,,,,,,,,,,,,1.6,1.3,0.9*21

2:47:52:589 Nachm. 03/28/17 - $GPGSV,3,1,11,10,18,306,16,12,32,226,28,13,30,157,14,15,52,199,36*7F

2:47:52:590 Nachm. 03/28/17 - $GPGSV,3,2,11,17,41,081,13,24,61,285,19,01,05,026,,11,,,*46

2:47:52:607 Nachm. 03/28/17 - $GPGSV,3,3,11,18,18,278,,19,39,113,,28,16,053,*4E

2:47:52:609 Nachm. 03/28/17 - $GPGGA,124748.0,5208.370981,N,01138.456053,E,1,04,3.5,92.2,M,45.0,M,,*6B

2:47:52:609 Nachm. 03/28/17 - $GNGNS,124748.0,5208.370981,N,01138.456053,E,AN,04,3.5,92.2,45.0,,*50

2:47:52:609 Nachm. 03/28/17 - $GPVTG,132.5,T,132.1,M,0.0,N,0.0,K,A*27

2:47:52:609 Nachm. 03/28/17 - $GPRMC,124748.0,A,5208.370981,N,01138.456053,E,0.0,132.5,280317,0.4,E,A*06

2:47:52:610 Nachm. 03/28/17 - $GPGSA,A,2,10,12,15,24,,,,,,,,,3.6,3.5,1.0*31

2:47:52:610 Nachm. 03/28/17 - $GNGSA,A,2,10,12,15,24,,,,,,,,,3.6,3.5,1.0*2F

2:47:52:610 Nachm. 03/28/17 - $GNGSA,A,2,,,,,,,,,,,,,3.6,3.5,1.0*2F

2:47:53:588 Nachm. 03/28/17 - $GPGSV,3,1,11,10,18,306,16,12,32,226,29,13,30,157,14,15,52,199,36*7E

2:47:53:590 Nachm. 03/28/17 - $GPGSV,3,2,11,17,41,081,13,24,61,285,17,01,05,026,,11,,,*48

2:47:53:590 Nachm. 03/28/17 - $GPGSV,3,3,11,18,18,278,,19,39,113,,28,16,053,*4E

2:47:53:591 Nachm. 03/28/17 - $GPGGA,,,,,,0,,,,,,,,*66

2:47:53:592 Nachm. 03/28/17 - $GNGNS,,,,,,NN,,,,,,*53

2:47:53:604 Nachm. 03/28/17 - $GPVTG,,T,,M,,N,,K,N*2C

2:47:53:605 Nachm. 03/28/17 - $GPRMC,,V,,,,,,,,,,N*53

2:47:53:606 Nachm. 03/28/17 - $GPGSA,A,1,,,,,,,,,,,,,,,*1E

2:47:53:612 Nachm. 03/28/17 - $GNGSA,A,1,,,,,,,,,,,,,,,*00

2:47:54:587 Nachm. 03/28/17 - $GPGSV,3,1,10,10,18,306,16,12,32,226,30,15,52,199,37,17,41,081,13*79

2:47:54:588 Nachm. 03/28/17 - $GPGSV,3,2,10,24,61,285,19,01,05,026,,11,,,,18,18,278,*42

2:47:54:589 Nachm. 03/28/17 - $GPGSV,3,3,10,19,39,113,,28,16,053,*72

2:47:54:589 Nachm. 03/28/17 - $GPGGA,,,,,,0,,,,,,,,*66

2:47:54:589 Nachm. 03/28/17 - $GNGNS,,,,,,NN,,,,,,*53

2:47:54:595 Nachm. 03/28/17 - $GPVTG,,T,,M,,N,,K,N*2C

2:47:54:595 Nachm. 03/28/17 - $GPRMC,,V,,,,,,,,,,N*53

2:47:54:595 Nachm. 03/28/17 - $GPGSA,A,1,,,,,,,,,,,,,,,*1E

2:47:54:596 Nachm. 03/28/17 - $GNGSA,A,1,,,,,,,,,,,,,,,*00

2:47:55:589 Nachm. 03/28/17 - $GPGSV,3,1,11,10,18,306,16,12,32,226,30,15,52,199,33,17,41,081,13*7C

2:47:55:590 Nachm. 03/28/17 - $GPGSV,3,2,11,24,61,285,21,01,05,026,,11,,,,13,30,157,*47

2:47:55:591 Nachm. 03/28/17 - $GPGSV,3,3,11,18,18,278,,19,39,113,,28,16,053,*4E

2:47:55:593 Nachm. 03/28/17 - $GPGGA,,,,,,0,,,,,,,,*66

2:47:55:601 Nachm. 03/28/17 - $GNGNS,,,,,,NN,,,,,,*53

2:47:55:602 Nachm. 03/28/17 - $GPVTG,,T,,M,,N,,K,N*2C

2:47:55:610 Nachm. 03/28/17 - $GPRMC,,V,,,,,,,,,,N*53

2:47:55:611 Nachm. 03/28/17 - $GPGSA,A,1,,,,,,,,,,,,,,,*1E

2:47:55:612 Nachm. 03/28/17 - $GNGSA,A,1,,,,,,,,,,,,,,,*00

2:47:56:588 Nachm. 03/28/17 - $GPGSV,3,1,11,10,18,306,13,12,32,226,24,15,52,199,28,17,41,081,13*76

2:47:56:589 Nachm. 03/28/17 - $GPGSV,3,2,11,24,61,285,22,01,05,026,,11,,,,13,30,157,*44

2:47:56:592 Nachm. 03/28/17 - $GPGSV,3,3,11,18,18,278,,19,39,113,,28,16,053,*4E

2:47:56:605 Nachm. 03/28/17 - $GPGGA,,,,,,0,,,,,,,,*66

2:47:56:611 Nachm. 03/28/17 - $GNGNS,,,,,,NN,,,,,,*53

2:47:56:612 Nachm. 03/28/17 - $GPVTG,,T,,M,,N,,K,N*2C

2:47:56:614 Nachm. 03/28/17 - $GPRMC,,V,,,,,,,,,,N*53

2:47:56:614 Nachm. 03/28/17 - $GPGSA,A,1,,,,,,,,,,,,,,,*1E

2:47:56:615 Nachm. 03/28/17 - $GNGSA,A,1,,,,,,,,,,,,,,,*00

2:47:57:590 Nachm. 03/28/17 - $GPGSV,3,1,11,10,18,306,13,12,32,226,26,15,52,199,29,17,41,081,13*75

2:47:57:591 Nachm. 03/28/17 - $GPGSV,3,2,11,24,61,285,24,01,05,026,,11,,,,13,30,157,*42

2:47:57:591 Nachm. 03/28/17 - $GPGSV,3,3,11,18,18,278,,19,39,113,,28,16,053,*4E

2:47:57:594 Nachm. 03/28/17 - $GPGGA,,,,,,0,,,,,,,,*66

2:47:57:595 Nachm. 03/28/17 - $GNGNS,,,,,,NN,,,,,,*53

2:47:57:595 Nachm. 03/28/17 - $GPVTG,,T,,M,,N,,K,N*2C

2:47:57:596 Nachm. 03/28/17 - $GPRMC,,V,,,,,,,,,,N*53

2:47:57:596 Nachm. 03/28/17 - $GPGSA,A,1,,,,,,,,,,,,,,,*1E

2:47:57:596 Nachm. 03/28/17 - $GNGSA,A,1,,,,,,,,,,,,,,,*00

2:47:58:589 Nachm. 03/28/17 - $GPGSV,3,1,11,10,18,306,18,12,32,226,26,15,52,199,29,17,41,081,18*75

2:47:58:591 Nachm. 03/28/17 - $GPGSV,3,2,11,19,39,113,19,24,61,285,22,01,05,026,,11,,,*4F

2:47:58:592 Nachm. 03/28/17 - $GPGSV,3,3,11,13,30,157,,18,18,278,,28,16,053,*4D

2:47:58:604 Nachm. 03/28/17 - $GPGGA,124754.0,5208.375981,N,01138.454423,E,1,06,1.2,91.1,M,45.0,M,,*65

2:47:58:608 Nachm. 03/28/17 - $GNGNS,124754.0,5208.375981,N,01138.454423,E,AN,06,1.2,91.1,45.0,,*5E

2:47:58:608 Nachm. 03/28/17 - $GPVTG,132.5,T,132.1,M,0.0,N,0.0,K,A*27

2:47:58:610 Nachm. 03/28/17 - $GPRMC,124754.0,A,5208.375981,N,01138.454423,E,0.0,132.5,280317,0.4,E,A*0F

2:47:58:611 Nachm. 03/28/17 - $GPGSA,A,2,10,12,15,17,19,24,,,,,,,1.5,1.2,0.9*33

2:47:58:612 Nachm. 03/28/17 - $GNGSA,A,2,10,12,15,17,19,24,,,,,,,1.5,1.2,0.9*2D

2:47:58:612 Nachm. 03/28/17 - $GNGSA,A,2,,,,,,,,,,,,,1.5,1.2,0.9*23

2:47:59:588 Nachm. 03/28/17 - $GPGSV,3,1,11,10,18,306,18,12,32,226,26,15,52,199,29,17,41,081,18*75

2:47:59:589 Nachm. 03/28/17 - $GPGSV,3,2,11,19,39,113,20,24,61,285,23,01,05,026,,11,,,*44

2:47:59:589 Nachm. 03/28/17 - $GPGSV,3,3,11,13,30,157,,18,18,278,,28,16,053,*4D

2:47:59:590 Nachm. 03/28/17 - $GPGGA,124755.0,5208.376300,N,01138.454317,E,1,06,1.2,91.1,M,45.0,M,,*64

2:47:59:591 Nachm. 03/28/17 - $GNGNS,124755.0,5208.376300,N,01138.454317,E,AN,06,1.2,91.1,45.0,,*5F

2:47:59:592 Nachm. 03/28/17 - $GPVTG,132.5,T,132.1,M,0.0,N,0.0,K,A*27

2:47:59:592 Nachm. 03/28/17 - $GPRMC,124755.0,A,5208.376300,N,01138.454317,E,0.0,132.5,280317,0.4,E,A*0E

2:47:59:592 Nachm. 03/28/17 - $GPGSA,A,2,10,12,15,17,19,24,,,,,,,1.5,1.2,0.9*33

2:47:59:592 Nachm. 03/28/17 - $GNGSA,A,2,10,12,15,17,19,24,,,,,,,1.5,1.2,0.9*2D

2:47:59:592 Nachm. 03/28/17 - $GNGSA,A,2,,,,,,,,,,,,,1.5,1.2,0.9*23

2:48:00:588 Nachm. 03/28/17 - $GPGSV,3,1,11,10,18,306,18,12,32,226,26,15,52,199,28,17,41,081,16*7A

2:48:00:589 Nachm. 03/28/17 - $GPGSV,3,2,11,19,39,113,20,24,62,285,22,01,05,026,,11,,,*46

2:48:00:591 Nachm. 03/28/17 - $GPGSV,3,3,11,13,30,157,,18,18,278,,28,16,053,*4D

2:48:00:591 Nachm. 03/28/17 - $GPGGA,124756.0,5208.376327,N,01138.454310,E,1,06,1.2,91.0,M,45.0,M,,*64

2:48:00:592 Nachm. 03/28/17 - $GNGNS,124756.0,5208.376327,N,01138.454310,E,AN,06,1.2,91.0,45.0,,*5F

2:48:00:593 Nachm. 03/28/17 - $GPVTG,132.5,T,132.1,M,0.0,N,0.0,K,A*27

2:48:00:593 Nachm. 03/28/17 - $GPRMC,124756.0,A,5208.376327,N,01138.454310,E,0.0,132.5,280317,0.4,E,A*0F

2:48:00:593 Nachm. 03/28/17 - $GPGSA,A,2,10,12,15,17,19,24,,,,,,,1.5,1.2,0.9*33

2:48:00:593 Nachm. 03/28/17 - $GNGSA,A,2,10,12,15,17,19,24,,,,,,,1.5,1.2,0.9*2D

2:48:00:593 Nachm. 03/28/17 - $GNGSA,A,2,,,,,,,,,,,,,1.5,1.2,0.9*23

2:48:01:592 Nachm. 03/28/17 - $GPGSV,3,1,11,10,18,306,18,12,32,226,25,15,52,199,29,17,41,081,16*78

2:48:01:593 Nachm. 03/28/17 - $GPGSV,3,2,11,19,39,113,21,24,62,285,21,01,05,026,,11,,,*44

2:48:01:594 Nachm. 03/28/17 - $GPGSV,3,3,11,13,30,157,,18,18,278,,28,16,053,*4D

2:48:01:595 Nachm. 03/28/17 - $GPGGA,124757.0,5208.376507,N,01138.454388,E,1,06,1.2,90.9,M,45.0,M,,*68

2:48:01:595 Nachm. 03/28/17 - $GNGNS,124757.0,5208.376507,N,01138.454388,E,AN,06,1.2,90.9,45.0,,*53

2:48:01:596 Nachm. 03/28/17 - $GPVTG,132.5,T,132.1,M,0.0,N,0.0,K,A*27

2:48:01:602 Nachm. 03/28/17 - $GPRMC,124757.0,A,5208.376507,N,01138.454388,E,0.0,132.5,280317,0.4,E,A*0B

2:48:01:608 Nachm. 03/28/17 - $GPGSA,A,2,10,12,15,17,19,24,,,,,,,1.5,1.2,0.9*33

2:48:01:609 Nachm. 03/28/17 - $GNGSA,A,2,10,12,15,17,19,24,,,,,,,1.5,1.2,0.9*2D

2:48:01:609 Nachm. 03/28/17 - $GNGSA,A,2,,,,,,,,,,,,,1.5,1.2,0.9*23

2:48:02:588 Nachm. 03/28/17 - $GPGSV,3,1,11,10,18,306,15,12,32,226,25,15,52,199,29,17,41,081,17*74

2:48:02:589 Nachm. 03/28/17 - $GPGSV,3,2,11,19,39,113,21,24,62,285,21,01,05,026,,11,,,*44

2:48:02:590 Nachm. 03/28/17 - $GPGSV,3,3,11,13,30,157,,18,18,278,,28,16,053,*4D

2:48:02:595 Nachm. 03/28/17 - $GPGGA,124758.0,5208.376872,N,01138.454203,E,1,06,1.2,90.7,M,45.0,M,,*64

2:48:02:596 Nachm. 03/28/17 - $GNGNS,124758.0,5208.376872,N,01138.454203,E,AN,06,1.2,90.7,45.0,,*5F

2:48:02:597 Nachm. 03/28/17 - $GPVTG,132.5,T,132.1,M,0.0,N,0.0,K,A*27

2:48:02:598 Nachm. 03/28/17 - $GPRMC,124758.0,A,5208.376872,N,01138.454203,E,0.0,132.5,280317,0.4,E,A*09

2:48:02:600 Nachm. 03/28/17 - $GPGSA,A,2,10,12,15,17,19,24,,,,,,,1.5,1.2,0.9*33

2:48:02:605 Nachm. 03/28/17 - $GNGSA,A,2,10,12,15,17,19,24,,,,,,,1.5,1.2,0.9*2D

2:48:02:612 Nachm. 03/28/17 - $GNGSA,A,2,,,,,,,,,,,,,1.5,1.2,0.9*23

2:48:03:588 Nachm. 03/28/17 - $GPGSV,3,1,11,10,18,306,15,12,32,226,25,15,52,199,29,17,41,081,17*74

2:48:03:590 Nachm. 03/28/17 - $GPGSV,3,2,11,19,39,113,20,24,62,285,21,01,05,026,,11,,,*45

2:48:03:593 Nachm. 03/28/17 - $GPGSV,3,3,11,13,30,157,,18,18,278,,28,16,053,*4D

2:48:03:594 Nachm. 03/28/17 - $GPGGA,124759.0,5208.376830,N,01138.454130,E,1,06,1.2,90.6,M,45.0,M,,*61

2:48:03:594 Nachm. 03/28/17 - $GNGNS,124759.0,5208.376830,N,01138.454130,E,AN,06,1.2,90.6,45.0,,*5A

2:48:03:594 Nachm. 03/28/17 - $GPVTG,132.5,T,132.1,M,0.0,N,0.0,K,A*27

2:48:03:599 Nachm. 03/28/17 - $GPRMC,124759.0,A,5208.376830,N,01138.454130,E,0.0,132.5,280317,0.4,E,A*0D

2:48:03:608 Nachm. 03/28/17 - $GPGSA,A,2,10,12,15,17,19,24,,,,,,,1.5,1.2,0.9*33

2:48:03:608 Nachm. 03/28/17 - $GNGSA,A,2,10,12,15,17,19,24,,,,,,,1.5,1.2,0.9*2D

2:48:03:608 Nachm. 03/28/17 - $GNGSA,A,2,,,,,,,,,,,,,1.5,1.2,0.9*23

2:48:04:587 Nachm. 03/28/17 - $GPGSV,3,1,11,10,18,306,15,12,32,226,25,15,52,199,28,17,41,081,16*74

2:48:04:587 Nachm. 03/28/17 - $GPGSV,3,2,11,19,39,113,20,24,62,285,21,01,05,026,,11,,,*45

2:48:04:587 Nachm. 03/28/17 - $GPGSV,3,3,11,13,30,157,,18,18,278,,28,16,053,*4D

2:48:04:590 Nachm. 03/28/17 - $GPGGA,124800.0,5208.376855,N,01138.454067,E,1,06,1.2,90.7,M,45.0,M,,*63

2:48:04:593 Nachm. 03/28/17 - $GNGNS,124800.0,5208.376855,N,01138.454067,E,AN,06,1.2,90.7,45.0,,*58

2:48:04:593 Nachm. 03/28/17 - $GPVTG,132.5,T,132.1,M,0.0,N,0.0,K,A*27

2:48:04:594 Nachm. 03/28/17 - $GPRMC,124800.0,A,5208.376855,N,01138.454067,E,0.0,132.5,280317,0.4,E,A*0E

2:48:04:595 Nachm. 03/28/17 - $GPGSA,A,2,10,12,15,17,19,24,,,,,,,1.5,1.2,0.9*33

2:48:04:596 Nachm. 03/28/17 - $GNGSA,A,2,10,12,15,17,19,24,,,,,,,1.5,1.2,0.9*2D

2:48:04:596 Nachm. 03/28/17 - $GNGSA,A,2,,,,,,,,,,,,,1.5,1.2,0.9*23

2:48:05:587 Nachm. 03/28/17 - $GPGSV,3,1,11,10,18,306,15,12,32,226,24,15,52,199,28,17,41,081,16*75

2:48:05:588 Nachm. 03/28/17 - $GPGSV,3,2,11,19,39,113,21,24,62,285,18,01,05,026,,11,,,*4E

2:48:05:589 Nachm. 03/28/17 - $GPGSV,3,3,11,13,30,157,,18,18,278,,28,16,053,*4D

2:48:05:594 Nachm. 03/28/17 - $GPGGA,124801.0,5208.376839,N,01138.453981,E,1,06,1.2,90.7,M,45.0,M,,*6E

2:48:05:597 Nachm. 03/28/17 - $GNGNS,124801.0,5208.376839,N,01138.453981,E,AN,06,1.2,90.7,45.0,,*55

2:48:05:599 Nachm. 03/28/17 - $GPVTG,132.5,T,132.1,M,0.0,N,0.0,K,A*27

2:48:05:599 Nachm. 03/28/17 - $GPRMC,124801.0,A,5208.376839,N,01138.453981,E,0.0,132.5,280317,0.4,E,A*03

2:48:05:600 Nachm. 03/28/17 - $GPGSA,A,2,10,12,15,17,19,24,,,,,,,1.5,1.2,0.9*33

2:48:05:601 Nachm. 03/28/17 - $GNGSA,A,2,10,12,15,17,19,24,,,,,,,1.5,1.2,0.9*2D

2:48:05:603 Nachm. 03/28/17 - $GNGSA,A,2,,,,,,,,,,,,,1.5,1.2,0.9*23

2:48:06:594 Nachm. 03/28/17 - $GPGSV,3,1,11,10,18,306,15,12,32,226,24,15,52,199,28,17,41,081,17*74

2:48:06:595 Nachm. 03/28/17 - $GPGSV,3,2,11,19,39,113,21,24,62,285,19,01,05,026,,11,,,*4F

2:48:06:596 Nachm. 03/28/17 - $GPGSV,3,3,11,13,30,157,,18,18,278,,28,16,053,*4D

2:48:06:612 Nachm. 03/28/17 - $GPGGA,124802.0,5208.376761,N,01138.454155,E,1,06,1.2,90.4,M,45.0,M,,*6A

2:48:06:616 Nachm. 03/28/17 - $GNGNS,124802.0,5208.376761,N,01138.454155,E,AN,06,1.2,90.4,45.0,,*51

2:48:06:618 Nachm. 03/28/17 - $GPVTG,132.5,T,132.1,M,0.0,N,0.0,K,A*27

2:48:06:618 Nachm. 03/28/17 - $GPRMC,124802.0,A,5208.376761,N,01138.454155,E,0.0,132.5,280317,0.4,E,A*04

2:48:06:618 Nachm. 03/28/17 - $GPGSA,A,2,10,12,15,17,19,24,,,,,,,1.5,1.2,0.9*33

2:48:06:618 Nachm. 03/28/17 - $GNGSA,A,2,10,12,15,17,19,24,,,,,,,1.5,1.2,0.9*2D

2:48:06:618 Nachm. 03/28/17 - $GNGSA,A,2,,,,,,,,,,,,,1.5,1.2,0.9*23

2:48:07:587 Nachm. 03/28/17 - $GPGSV,3,1,11,10,18,306,15,12,32,226,23,15,52,199,28,17,41,081,17*73

2:48:07:588 Nachm. 03/28/17 - $GPGSV,3,2,11,19,39,113,21,24,62,285,19,01,05,026,,11,,,*4F

2:48:07:589 Nachm. 03/28/17 - $GPGSV,3,3,11,13,30,157,,18,18,278,,28,16,053,*4D

2:48:07:594 Nachm. 03/28/17 - $GPGGA,124803.0,5208.376766,N,01138.454028,E,1,06,1.2,90.6,M,45.0,M,,*65

2:48:07:598 Nachm. 03/28/17 - $GNGNS,124803.0,5208.376766,N,01138.454028,E,AN,06,1.2,90.6,45.0,,*5E

2:48:07:598 Nachm. 03/28/17 - $GPVTG,132.5,T,132.1,M,0.0,N,0.0,K,A*27

2:48:07:599 Nachm. 03/28/17 - $GPRMC,124803.0,A,5208.376766,N,01138.454028,E,0.0,132.5,280317,0.4,E,A*09

2:48:07:599 Nachm. 03/28/17 - $GPGSA,A,2,10,12,15,17,19,24,,,,,,,1.5,1.2,0.9*33

2:48:07:604 Nachm. 03/28/17 - $GNGSA,A,2,10,12,15,17,19,24,,,,,,,1.5,1.2,0.9*2D

2:48:07:606 Nachm. 03/28/17 - $GNGSA,A,2,,,,,,,,,,,,,1.5,1.2,0.9*23

2:48:08:588 Nachm. 03/28/17 - $GPGSV,3,1,11,10,18,306,15,12,32,226,22,15,52,199,27,17,41,081,17*7D

2:48:08:592 Nachm. 03/28/17 - $GPGSV,3,2,11,19,39,113,21,24,62,285,18,01,05,026,,11,,,*4E

2:48:08:593 Nachm. 03/28/17 - $GPGSV,3,3,11,13,30,157,,18,18,278,,28,16,053,*4D

2:48:08:594 Nachm. 03/28/17 - $GPGGA,124804.0,5208.376622,N,01138.454038,E,1,06,1.2,90.6,M,45.0,M,,*62

2:48:08:594 Nachm. 03/28/17 - $GNGNS,124804.0,5208.376622,N,01138.454038,E,AN,06,1.2,90.6,45.0,,*59

2:48:08:608 Nachm. 03/28/17 - $GPVTG,132.5,T,132.1,M,0.0,N,0.0,K,A*27

2:48:08:612 Nachm. 03/28/17 - $GPRMC,124804.0,A,5208.376622,N,01138.454038,E,0.0,132.5,280317,0.4,E,A*0E

2:48:08:612 Nachm. 03/28/17 - $GPGSA,A,2,10,12,15,17,19,24,,,,,,,1.5,1.2,0.9*33

2:48:08:612 Nachm. 03/28/17 - $GNGSA,A,2,10,12,15,17,19,24,,,,,,,1.5,1.2,0.9*2D

2:48:08:613 Nachm. 03/28/17 - $GNGSA,A,2,,,,,,,,,,,,,1.5,1.2,0.9*23

2:48:09:589 Nachm. 03/28/17 - $GPGSV,3,1,11,10,18,306,15,12,32,226,22,15,52,199,27,17,41,081,16*7C

2:48:09:594 Nachm. 03/28/17 - $GPGSV,3,2,11,19,39,113,20,24,62,285,18,01,05,026,,11,,,*4F

2:48:09:595 Nachm. 03/28/17 - $GPGSV,3,3,11,13,30,157,,18,18,278,,28,16,053,*4D

2:48:09:617 Nachm. 03/28/17 - $GPGGA,124805.0,5208.376653,N,01138.454012,E,1,05,1.8,90.5,M,45.0,M,,*67

2:48:09:620 Nachm. 03/28/17 - $GNGNS,124805.0,5208.376653,N,01138.454012,E,AN,05,1.8,90.5,45.0,,*5C

2:48:09:621 Nachm. 03/28/17 - $GPVTG,132.5,T,132.1,M,0.0,N,0.0,K,A*27

2:48:09:623 Nachm. 03/28/17 - $GPRMC,124805.0,A,5208.376653,N,01138.454012,E,0.0,132.5,280317,0.4,E,A*01

2:48:09:624 Nachm. 03/28/17 - $GPGSA,A,2,12,15,17,19,24,,,,,,,,2.0,1.8,1.0*36

2:48:09:625 Nachm. 03/28/17 - $GNGSA,A,2,12,15,17,19,24,,,,,,,,2.0,1.8,1.0*28

2:48:09:625 Nachm. 03/28/17 - $GNGSA,A,2,,,,,,,,,,,,,2.0,1.8,1.0*27

2:48:10:588 Nachm. 03/28/17 - $GPGSV,3,1,11,10,18,306,15,12,32,226,22,15,52,199,27,17,41,081,16*7C

2:48:10:590 Nachm. 03/28/17 - $GPGSV,3,2,11,19,39,113,22,24,62,285,16,01,05,026,,11,,,*43

2:48:10:599 Nachm. 03/28/17 - $GPGSV,3,3,11,13,30,157,,18,18,278,,28,16,053,*4D

2:48:10:607 Nachm. 03/28/17 - $GPGGA,124806.0,5208.376589,N,01138.454019,E,1,05,1.8,90.4,M,45.0,M,,*6A

2:48:10:609 Nachm. 03/28/17 - $GNGNS,124806.0,5208.376589,N,01138.454019,E,AN,05,1.8,90.4,45.0,,*51

2:48:10:613 Nachm. 03/28/17 - $GPVTG,132.5,T,132.1,M,0.0,N,0.0,K,A*27

2:48:10:618 Nachm. 03/28/17 - $GPRMC,124806.0,A,5208.376589,N,01138.454019,E,0.0,132.5,280317,0.4,E,A*0D

2:48:10:623 Nachm. 03/28/17 - $GPGSA,A,2,12,15,17,19,24,,,,,,,,2.0,1.8,1.0*36

2:48:10:624 Nachm. 03/28/17 - $GNGSA,A,2,12,15,17,19,24,,,,,,,,2.0,1.8,1.0*28

2:48:10:624 Nachm. 03/28/17 - $GNGSA,A,2,,,,,,,,,,,,,2.0,1.8,1.0*27

2:48:11:588 Nachm. 03/28/17 - $GPGSV,3,1,11,10,18,306,15,12,32,226,22,15,52,199,27,17,41,081,17*7D

2:48:11:600 Nachm. 03/28/17 - $GPGSV,3,2,11,19,39,113,20,24,62,285,16,01,05,026,,11,,,*41

2:48:11:605 Nachm. 03/28/17 - $GPGSV,3,3,11,13,30,157,,18,18,278,,28,16,053,*4D

2:48:11:607 Nachm. 03/28/17 - $GPGGA,124807.0,5208.376642,N,01138.454004,E,1,05,1.8,90.3,M,45.0,M,,*64

2:48:11:608 Nachm. 03/28/17 - $GNGNS,124807.0,5208.376642,N,01138.454004,E,AN,05,1.8,90.3,45.0,,*5F

2:48:11:609 Nachm. 03/28/17 - $GPVTG,132.5,T,132.1,M,0.0,N,0.0,K,A*27

2:48:11:609 Nachm. 03/28/17 - $GPRMC,124807.0,A,5208.376642,N,01138.454004,E,0.0,132.5,280317,0.4,E,A*04

2:48:11:609 Nachm. 03/28/17 - $GPGSA,A,2,12,15,17,19,24,,,,,,,,2.0,1.8,1.0*36

2:48:11:609 Nachm. 03/28/17 - $GNGSA,A,2,12,15,17,19,24,,,,,,,,2.0,1.8,1.0*28

2:48:11:609 Nachm. 03/28/17 - $GNGSA,A,2,,,,,,,,,,,,,2.0,1.8,1.0*27

2:48:12:588 Nachm. 03/28/17 - $GPGSV,3,1,11,10,18,306,12,12,32,226,22,15,52,199,28,17,41,081,18*7A

2:48:12:588 Nachm. 03/28/17 - $GPGSV,3,2,11,19,39,113,20,24,62,285,16,01,05,026,,11,,,*41

2:48:12:589 Nachm. 03/28/17 - $GPGSV,3,3,11,13,30,157,,18,18,278,,28,16,053,*4D

2:48:12:598 Nachm. 03/28/17 - $GPGGA,124808.0,5208.376570,N,01138.453884,E,1,06,1.2,90.4,M,45.0,M,,*60

2:48:12:599 Nachm. 03/28/17 - $GNGNS,124808.0,5208.376570,N,01138.453884,E,AN,06,1.2,90.4,45.0,,*5B

2:48:12:600 Nachm. 03/28/17 - $GPVTG,132.5,T,132.1,M,0.0,N,0.0,K,A*27

2:48:12:600 Nachm. 03/28/17 - $GPRMC,124808.0,A,5208.376570,N,01138.453884,E,0.0,132.5,280317,0.4,E,A*0E

2:48:12:601 Nachm. 03/28/17 - $GPGSA,A,2,10,12,15,17,19,24,,,,,,,1.5,1.2,0.9*33

2:48:12:602 Nachm. 03/28/17 - $GNGSA,A,2,10,12,15,17,19,24,,,,,,,1.5,1.2,0.9*2D

2:48:12:602 Nachm. 03/28/17 - $GNGSA,A,2,,,,,,,,,,,,,1.5,1.2,0.9*23

2:48:13:587 Nachm. 03/28/17 - $GPGSV,3,1,11,10,18,306,12,12,32,226,21,15,52,199,27,17,41,081,18*76

2:48:13:588 Nachm. 03/28/17 - $GPGSV,3,2,11,19,39,113,21,24,62,285,16,01,05,026,,11,,,*40

2:48:13:588 Nachm. 03/28/17 - $GPGSV,3,3,11,13,30,157,,18,18,278,,28,16,053,*4D

2:48:13:598 Nachm. 03/28/17 - $GPGGA,124809.0,5208.376580,N,01138.453956,E,1,06,1.2,90.2,M,45.0,M,,*66

2:48:13:601 Nachm. 03/28/17 - $GNGNS,124809.0,5208.376580,N,01138.453956,E,AN,06,1.2,90.2,45.0,,*5D

2:48:13:610 Nachm. 03/28/17 - $GPVTG,132.5,T,132.1,M,0.0,N,0.0,K,A*27

2:48:13:610 Nachm. 03/28/17 - $GPRMC,124809.0,A,5208.376580,N,01138.453956,E,0.0,132.5,280317,0.4,E,A*0E

2:48:13:610 Nachm. 03/28/17 - $GPGSA,A,2,10,12,15,17,19,24,,,,,,,1.5,1.2,0.9*33

2:48:13:610 Nachm. 03/28/17 - $GNGSA,A,2,10,12,15,17,19,24,,,,,,,1.5,1.2,0.9*2D

2:48:13:610 Nachm. 03/28/17 - $GNGSA,A,2,,,,,,,,,,,,,1.5,1.2,0.9*23

2:48:14:587 Nachm. 03/28/17 - $GPGSV,3,1,11,10,18,306,12,12,32,226,22,15,52,199,27,17,41,081,18*75

2:48:14:589 Nachm. 03/28/17 - $GPGSV,3,2,11,19,39,113,20,24,62,285,16,01,05,026,,11,,,*41

2:48:14:590 Nachm. 03/28/17 - $GPGSV,3,3,11,13,30,157,,18,18,278,,28,16,053,*4D

2:48:14:590 Nachm. 03/28/17 - $GPGGA,124810.0,5208.376569,N,01138.453944,E,1,06,1.2,90.2,M,45.0,M,,*6A

2:48:14:600 Nachm. 03/28/17 - $GNGNS,124810.0,5208.376569,N,01138.453944,E,AN,06,1.2,90.2,45.0,,*51

2:48:14:601 Nachm. 03/28/17 - $GPVTG,132.5,T,132.1,M,0.0,N,0.0,K,A*27

2:48:14:602 Nachm. 03/28/17 - $GPRMC,124810.0,A,5208.376569,N,01138.453944,E,0.0,132.5,280317,0.4,E,A*02

2:48:14:603 Nachm. 03/28/17 - $GPGSA,A,2,10,12,15,17,19,24,,,,,,,1.5,1.2,0.9*33

2:48:14:604 Nachm. 03/28/17 - $GNGSA,A,2,10,12,15,17,19,24,,,,,,,1.5,1.2,0.9*2D

2:48:14:604 Nachm. 03/28/17 - $GNGSA,A,2,,,,,,,,,,,,,1.5,1.2,0.9*23

2:48:15:588 Nachm. 03/28/17 - $GPGSV,3,1,11,10,18,306,12,12,32,226,22,15,52,199,27,17,41,081,16*7B

2:48:15:589 Nachm. 03/28/17 - $GPGSV,3,2,11,19,39,113,21,24,62,285,16,01,05,026,,11,,,*40

2:48:15:589 Nachm. 03/28/17 - $GPGSV,3,3,11,13,30,157,,18,18,278,,28,16,053,*4D

2:48:15:591 Nachm. 03/28/17 - $GPGGA,124811.0,5208.376547,N,01138.453931,E,1,06,1.2,90.2,M,45.0,M,,*65

2:48:15:592 Nachm. 03/28/17 - $GNGNS,124811.0,5208.376547,N,01138.453931,E,AN,06,1.2,90.2,45.0,,*5E

2:48:15:592 Nachm. 03/28/17 - $GPVTG,132.5,T,132.1,M,0.0,N,0.0,K,A*27

2:48:15:593 Nachm. 03/28/17 - $GPRMC,124811.0,A,5208.376547,N,01138.453931,E,0.0,132.5,280317,0.4,E,A*0D

2:48:15:596 Nachm. 03/28/17 - $GPGSA,A,2,10,12,15,17,19,24,,,,,,,1.5,1.2,0.9*33

2:48:15:596 Nachm. 03/28/17 - $GNGSA,A,2,10,12,15,17,19,24,,,,,,,1.5,1.2,0.9*2D

2:48:15:616 Nachm. 03/28/17 - $GNGSA,A,2,,,,,,,,,,,,,1.5,1.2,0.9*23

2:48:16:587 Nachm. 03/28/17 - $GPGSV,3,1,11,10,18,306,12,12,32,226,21,15,52,199,27,17,41,081,16*78

2:48:16:588 Nachm. 03/28/17 - $GPGSV,3,2,11,19,39,113,21,24,62,285,16,01,05,026,,11,,,*40

2:48:16:589 Nachm. 03/28/17 - $GPGSV,3,3,11,13,30,157,,18,18,278,,28,16,053,*4D

2:48:16:589 Nachm. 03/28/17 - $GPGGA,124812.0,5208.376553,N,01138.453942,E,1,06,1.2,90.1,M,45.0,M,,*64

2:48:16:589 Nachm. 03/28/17 - $GNGNS,124812.0,5208.376553,N,01138.453942,E,AN,06,1.2,90.1,45.0,,*5F

2:48:16:591 Nachm. 03/28/17 - $GPVTG,132.5,T,132.1,M,0.0,N,0.0,K,A*27

2:48:16:592 Nachm. 03/28/17 - $GPRMC,124812.0,A,5208.376553,N,01138.453942,E,0.0,132.5,280317,0.4,E,A*0F

2:48:16:592 Nachm. 03/28/17 - $GPGSA,A,2,10,12,15,17,19,24,,,,,,,1.5,1.2,0.9*33

2:48:16:592 Nachm. 03/28/17 - $GNGSA,A,2,10,12,15,17,19,24,,,,,,,1.5,1.2,0.9*2D

2:48:16:601 Nachm. 03/28/17 - $GNGSA,A,2,,,,,,,,,,,,,1.5,1.2,0.9*23

2:48:17:590 Nachm. 03/28/17 - $GPGSV,3,1,11,10,18,306,12,12,32,226,19,15,52,199,26,17,41,081,16*72

2:48:17:592 Nachm. 03/28/17 - $GPGSV,3,2,11,19,39,113,19,24,62,285,16,01,05,026,,11,,,*4B

2:48:17:593 Nachm. 03/28/17 - $GPGSV,3,3,11,13,30,157,,18,18,278,,28,16,053,*4D

2:48:17:597 Nachm. 03/28/17 - $GPGGA,124813.0,5208.376557,N,01138.453996,E,1,05,1.3,90.1,M,45.0,M,,*6A

2:48:17:598 Nachm. 03/28/17 - $GNGNS,124813.0,5208.376557,N,01138.453996,E,AN,05,1.3,90.1,45.0,,*51

2:48:17:598 Nachm. 03/28/17 - $GPVTG,132.5,T,132.1,M,0.0,N,0.0,K,A*27

2:48:17:599 Nachm. 03/28/17 - $GPRMC,124813.0,A,5208.376557,N,01138.453996,E,0.0,132.5,280317,0.4,E,A*03

2:48:17:600 Nachm. 03/28/17 - $GPGSA,A,2,10,12,15,17,19,,,,,,,,1.6,1.3,1.0*3F

2:48:17:605 Nachm. 03/28/17 - $GNGSA,A,2,10,12,15,17,19,,,,,,,,1.6,1.3,1.0*21

2:48:17:613 Nachm. 03/28/17 - $GNGSA,A,2,,,,,,,,,,,,,1.6,1.3,1.0*29

2:48:18:588 Nachm. 03/28/17 - $GPGSV,3,1,11,10,18,306,12,12,32,226,22,15,52,199,27,17,41,081,16*7B

2:48:18:589 Nachm. 03/28/17 - $GPGSV,3,2,11,19,39,113,21,24,62,285,16,01,05,026,,11,,,*40

2:48:18:592 Nachm. 03/28/17 - $GPGSV,3,3,11,13,30,157,,18,18,278,,28,16,053,*4D

2:48:18:595 Nachm. 03/28/17 - $GPGGA,124814.0,5208.376513,N,01138.453924,E,1,05,1.3,90.2,M,45.0,M,,*67

2:48:18:596 Nachm. 03/28/17 - $GNGNS,124814.0,5208.376513,N,01138.453924,E,AN,05,1.3,90.2,45.0,,*5C

2:48:18:597 Nachm. 03/28/17 - $GPVTG,132.5,T,132.1,M,0.0,N,0.0,K,A*27

2:48:18:603 Nachm. 03/28/17 - $GPRMC,124814.0,A,5208.376513,N,01138.453924,E,0.0,132.5,280317,0.4,E,A*0D

2:48:18:612 Nachm. 03/28/17 - $GPGSA,A,2,10,12,15,17,19,,,,,,,,1.6,1.3,1.0*3F

2:48:18:612 Nachm. 03/28/17 - $GNGSA,A,2,10,12,15,17,19,,,,,,,,1.6,1.3,1.0*21

2:48:18:613 Nachm. 03/28/17 - $GNGSA,A,2,,,,,,,,,,,,,1.6,1.3,1.0*29

2:48:19:588 Nachm. 03/28/17 - $GPGSV,3,1,11,10,18,306,12,12,32,226,22,15,52,199,25,17,41,081,16*79

2:48:19:588 Nachm. 03/28/17 - $GPGSV,3,2,11,19,39,113,21,24,62,285,12,01,05,026,,11,,,*44

2:48:19:588 Nachm. 03/28/17 - $GPGSV,3,3,11,13,30,157,,18,18,278,,28,16,053,*4D

2:48:19:594 Nachm. 03/28/17 - $GPGGA,124815.0,5208.376502,N,01138.453913,E,1,05,1.8,90.2,M,45.0,M,,*69

2:48:19:594 Nachm. 03/28/17 - $GNGNS,124815.0,5208.376502,N,01138.453913,E,AN,05,1.8,90.2,45.0,,*52

2:48:19:595 Nachm. 03/28/17 - $GPVTG,132.5,T,132.1,M,0.0,N,0.0,K,A*27

2:48:19:595 Nachm. 03/28/17 - $GPRMC,124815.0,A,5208.376502,N,01138.453913,E,0.0,132.5,280317,0.4,E,A*08

2:48:19:595 Nachm. 03/28/17 - $GPGSA,A,2,12,15,17,19,24,,,,,,,,2.0,1.8,1.0*36

2:48:19:596 Nachm. 03/28/17 - $GNGSA,A,2,12,15,17,19,24,,,,,,,,2.0,1.8,1.0*28

2:48:19:596 Nachm. 03/28/17 - $GNGSA,A,2,,,,,,,,,,,,,2.0,1.8,1.0*27


