5:44:58:386 Nachm. 03/26/17 - $GPGSV,3,1,11,02,32,105,23,06,26,057,16,12,66,070,28,24,35,149,29*73

5:44:58:387 Nachm. 03/26/17 - $GPGSV,3,2,11,25,62,278,20,29,26,208,12,32,33,267,14,03,02,354,*76

5:44:58:388 Nachm. 03/26/17 - $GPGSV,3,3,11,14,31,296,,19,09,043,,31,16,307,*44

5:44:58:397 Nachm. 03/26/17 - $GLGSV,3,1,10,82,66,090,23,73,56,314,19,80,65,099,20,65,06,007,12*65

5:44:58:402 Nachm. 03/26/17 - $GLGSV,3,2,10,83,34,178,24,81,26,032,14,74,00,302,,79,07,116,*65

5:44:58:406 Nachm. 03/26/17 - $GLGSV,3,3,10,71,11,272,,72,18,322,*6A

5:44:58:406 Nachm. 03/26/17 - $GPGGA,154455.0,5208.447685,N,01138.448242,E,1,07,1.1,59.8,M,45.0,M,,*6E

5:44:58:406 Nachm. 03/26/17 - $GNGNS,154455.0,5208.447685,N,01138.448242,E,AA,08,1.1,59.8,45.0,,*55

5:44:58:406 Nachm. 03/26/17 - $GPVTG,11.3,T,10.8,M,0.0,N,0.0,K,A*29

5:44:58:406 Nachm. 03/26/17 - $GPRMC,154455.0,A,5208.447685,N,01138.448242,E,0.0,11.3,260317,0.4,E,A*33

5:44:58:407 Nachm. 03/26/17 - $GPGSA,A,2,02,06,12,24,25,29,32,,,,,,1.4,1.1,0.9*33

5:44:58:407 Nachm. 03/26/17 - $GNGSA,A,2,02,06,12,24,25,29,32,,,,,,1.4,1.1,0.9*2D

5:44:58:407 Nachm. 03/26/17 - $GNGSA,A,2,73,,,,,,,,,,,,1.4,1.1,0.9*25

5:44:59:387 Nachm. 03/26/17 - $GPGSV,3,1,11,02,32,105,20,06,26,057,17,12,66,070,30,24,35,149,27*76

5:44:59:387 Nachm. 03/26/17 - $GPGSV,3,2,11,25,62,278,18,29,26,208,12,32,33,267,14,03,02,354,*7D

5:44:59:395 Nachm. 03/26/17 - $GPGSV,3,3,11,14,31,296,,19,09,043,,31,16,307,*44

5:44:59:396 Nachm. 03/26/17 - $GLGSV,3,1,10,82,66,090,24,73,56,314,19,80,65,099,19,65,06,007,12*68

5:44:59:398 Nachm. 03/26/17 - $GLGSV,3,2,10,83,34,178,19,81,26,032,14,74,00,302,,79,07,116,*6B

5:44:59:399 Nachm. 03/26/17 - $GLGSV,3,3,10,71,11,272,,72,18,322,*6A

5:44:59:411 Nachm. 03/26/17 - $GPGGA,154456.0,5208.448141,N,01138.446736,E,1,07,1.1,60.1,M,45.0,M,,*66

5:44:59:419 Nachm. 03/26/17 - $GNGNS,154456.0,5208.448141,N,01138.446736,E,AA,08,1.1,60.1,45.0,,*5D

5:44:59:420 Nachm. 03/26/17 - $GPVTG,11.3,T,10.8,M,0.0,N,0.0,K,A*29

5:44:59:422 Nachm. 03/26/17 - $GPRMC,154456.0,A,5208.448141,N,01138.446736,E,0.0,11.3,260317,0.4,E,A*38

5:44:59:422 Nachm. 03/26/17 - $GPGSA,A,2,02,06,12,24,25,29,32,,,,,,1.4,1.1,0.9*33

5:44:59:423 Nachm. 03/26/17 - $GNGSA,A,2,02,06,12,24,25,29,32,,,,,,1.4,1.1,0.9*2D

5:44:59:424 Nachm. 03/26/17 - $GNGSA,A,2,73,,,,,,,,,,,,1.4,1.1,0.9*25

5:45:00:385 Nachm. 03/26/17 - $GPGSV,3,1,11,02,32,105,24,06,26,057,25,12,66,070,22,24,35,149,20*77

5:45:00:386 Nachm. 03/26/17 - $GPGSV,3,2,11,25,62,278,19,29,26,208,12,32,33,267,14,03,02,354,*7C

5:45:00:386 Nachm. 03/26/17 - $GPGSV,3,3,11,14,31,296,,19,09,043,,31,16,307,*44

5:45:00:390 Nachm. 03/26/17 - $GLGSV,3,1,10,82,66,090,21,73,56,314,19,80,65,099,19,65,06,007,12*6D

5:45:00:390 Nachm. 03/26/17 - $GLGSV,3,2,10,83,34,178,19,81,26,032,14,74,00,302,,79,07,116,*6B

5:45:00:391 Nachm. 03/26/17 - $GLGSV,3,3,10,71,11,272,,72,18,322,*6A

5:45:00:391 Nachm. 03/26/17 - $GPGGA,154457.0,5208.447282,N,01138.447665,E,1,07,1.1,62.1,M,45.0,M,,*60

5:45:00:391 Nachm. 03/26/17 - $GNGNS,154457.0,5208.447282,N,01138.447665,E,AA,08,1.1,62.1,45.0,,*5B

5:45:00:393 Nachm. 03/26/17 - $GPVTG,11.3,T,10.8,M,0.0,N,0.0,K,A*29

5:45:00:393 Nachm. 03/26/17 - $GPRMC,154457.0,A,5208.447282,N,01138.447665,E,0.0,11.3,260317,0.4,E,A*3C

5:45:00:394 Nachm. 03/26/17 - $GPGSA,A,2,02,06,12,24,25,29,32,,,,,,1.4,1.1,0.9*33

5:45:00:395 Nachm. 03/26/17 - $GNGSA,A,2,02,06,12,24,25,29,32,,,,,,1.4,1.1,0.9*2D

5:45:00:395 Nachm. 03/26/17 - $GNGSA,A,2,73,,,,,,,,,,,,1.4,1.1,0.9*25

5:45:01:386 Nachm. 03/26/17 - $GPGSV,3,1,11,02,32,105,24,06,26,057,24,12,66,070,29,24,35,149,20*7D

5:45:01:387 Nachm. 03/26/17 - $GPGSV,3,2,11,25,62,278,23,29,26,208,16,32,33,267,14,03,02,354,*71

5:45:01:387 Nachm. 03/26/17 - $GPGSV,3,3,11,14,31,296,,19,09,043,,31,16,307,*44

5:45:01:392 Nachm. 03/26/17 - $GLGSV,3,1,10,82,66,090,21,73,56,314,19,80,65,099,16,65,06,007,12*62

5:45:01:394 Nachm. 03/26/17 - $GLGSV,3,2,10,83,34,178,19,81,26,032,14,74,00,302,,79,07,116,*6B

5:45:01:395 Nachm. 03/26/17 - $GLGSV,3,3,10,71,11,272,,72,18,322,*6A

5:45:01:396 Nachm. 03/26/17 - $GPGGA,154458.0,5208.446874,N,01138.448874,E,1,07,1.1,63.0,M,45.0,M,,*6C

5:45:01:398 Nachm. 03/26/17 - $GNGNS,154458.0,5208.446874,N,01138.448874,E,AN,07,1.1,63.0,45.0,,*57

5:45:01:406 Nachm. 03/26/17 - $GPVTG,11.3,T,10.8,M,0.0,N,0.0,K,A*29

5:45:01:407 Nachm. 03/26/17 - $GPRMC,154458.0,A,5208.446874,N,01138.448874,E,0.0,11.3,260317,0.4,E,A*30

5:45:01:407 Nachm. 03/26/17 - $GPGSA,A,2,02,06,12,24,25,29,32,,,,,,1.5,1.1,0.9*32

5:45:01:407 Nachm. 03/26/17 - $GNGSA,A,2,02,06,12,24,25,29,32,,,,,,1.5,1.1,0.9*2C

5:45:01:407 Nachm. 03/26/17 - $GNGSA,A,2,,,,,,,,,,,,,1.5,1.1,0.9*20

5:45:02:386 Nachm. 03/26/17 - $GPGSV,3,1,11,02,32,105,24,06,26,057,25,12,66,070,30,24,35,149,20*74

5:45:02:387 Nachm. 03/26/17 - $GPGSV,3,2,11,25,62,278,23,29,26,208,22,32,33,267,14,03,02,354,*76

5:45:02:390 Nachm. 03/26/17 - $GPGSV,3,3,11,14,31,296,,19,09,043,,31,16,307,*44

5:45:02:404 Nachm. 03/26/17 - $GLGSV,3,1,10,82,66,090,23,73,56,314,12,80,65,099,16,65,06,007,16*6F

5:45:02:405 Nachm. 03/26/17 - $GLGSV,3,2,10,83,34,178,14,81,26,032,14,74,00,302,,79,07,116,*66

5:45:02:408 Nachm. 03/26/17 - $GLGSV,3,3,10,71,11,272,,72,18,322,*6A

5:45:02:408 Nachm. 03/26/17 - $GPGGA,154459.0,5208.446280,N,01138.447467,E,1,06,1.2,63.4,M,45.0,M,,*6B

5:45:02:410 Nachm. 03/26/17 - $GNGNS,154459.0,5208.446280,N,01138.447467,E,AA,07,1.2,63.4,45.0,,*5E

5:45:02:411 Nachm. 03/26/17 - $GPVTG,11.3,T,10.8,M,0.0,N,0.0,K,A*29

5:45:02:411 Nachm. 03/26/17 - $GPRMC,154459.0,A,5208.446280,N,01138.447467,E,0.0,11.3,260317,0.4,E,A*31

5:45:02:412 Nachm. 03/26/17 - $GPGSA,A,2,02,06,12,24,25,29,,,,,,,1.5,1.2,0.9*30

5:45:02:413 Nachm. 03/26/17 - $GNGSA,A,2,02,06,12,24,25,29,,,,,,,1.5,1.2,0.9*2E

5:45:02:413 Nachm. 03/26/17 - $GNGSA,A,2,73,,,,,,,,,,,,1.5,1.2,0.9*27

5:45:03:384 Nachm. 03/26/17 - $GPGSV,3,1,11,02,32,105,28,06,26,057,25,12,66,070,31,24,35,149,15*7F

5:45:03:385 Nachm. 03/26/17 - $GPGSV,3,2,11,25,62,278,24,29,26,208,23,32,33,267,14,03,02,354,*70

5:45:03:386 Nachm. 03/26/17 - $GPGSV,3,3,11,14,31,296,,19,09,043,,31,16,307,*44

5:45:03:390 Nachm. 03/26/17 - $GLGSV,3,1,10,82,66,090,24,73,56,314,12,80,65,099,16,65,06,007,16*68

5:45:03:391 Nachm. 03/26/17 - $GLGSV,3,2,10,83,34,178,18,81,26,032,14,74,00,302,,79,07,116,*6A

5:45:03:392 Nachm. 03/26/17 - $GLGSV,3,3,10,71,11,272,,72,18,322,*6A

5:45:03:392 Nachm. 03/26/17 - $GPGGA,154500.0,5208.445778,N,01138.448659,E,1,06,1.2,64.3,M,45.0,M,,*67

5:45:03:393 Nachm. 03/26/17 - $GNGNS,154500.0,5208.445778,N,01138.448659,E,AA,07,1.2,64.3,45.0,,*52

5:45:03:393 Nachm. 03/26/17 - $GPVTG,11.3,T,10.8,M,0.0,N,0.0,K,A*29

5:45:03:393 Nachm. 03/26/17 - $GPRMC,154500.0,A,5208.445778,N,01138.448659,E,0.0,11.3,260317,0.4,E,A*3D

5:45:03:394 Nachm. 03/26/17 - $GPGSA,A,2,02,06,12,24,25,29,,,,,,,1.5,1.2,0.9*30

5:45:03:394 Nachm. 03/26/17 - $GNGSA,A,2,02,06,12,24,25,29,,,,,,,1.5,1.2,0.9*2E

5:45:03:395 Nachm. 03/26/17 - $GNGSA,A,2,73,,,,,,,,,,,,1.5,1.2,0.9*27

5:45:04:384 Nachm. 03/26/17 - $GPGSV,3,1,11,02,32,105,27,06,26,057,26,12,66,070,31,24,35,149,17*71

5:45:04:385 Nachm. 03/26/17 - $GPGSV,3,2,11,25,62,278,24,29,26,208,20,32,33,267,14,03,02,354,*73

5:45:04:385 Nachm. 03/26/17 - $GPGSV,3,3,11,14,31,296,,19,09,043,,31,16,307,*44

5:45:04:389 Nachm. 03/26/17 - $GLGSV,3,1,10,82,66,090,23,73,56,314,12,80,65,099,19,65,06,007,17*61

5:45:04:395 Nachm. 03/26/17 - $GLGSV,3,2,10,83,34,178,18,81,26,032,14,74,00,302,,79,07,116,*6A

5:45:04:395 Nachm. 03/26/17 - $GLGSV,3,3,10,71,11,272,,72,18,322,*6A

5:45:04:395 Nachm. 03/26/17 - $GPGGA,154501.0,5208.445331,N,01138.446412,E,1,06,1.2,64.9,M,45.0,M,,*66

5:45:04:395 Nachm. 03/26/17 - $GNGNS,154501.0,5208.445331,N,01138.446412,E,AA,07,1.2,64.9,45.0,,*53

5:45:04:395 Nachm. 03/26/17 - $GPVTG,11.3,T,10.8,M,0.0,N,0.0,K,A*29

5:45:04:396 Nachm. 03/26/17 - $GPRMC,154501.0,A,5208.445331,N,01138.446412,E,0.0,11.3,260317,0.4,E,A*36

5:45:04:396 Nachm. 03/26/17 - $GPGSA,A,2,02,06,12,24,25,29,,,,,,,1.5,1.2,0.9*30

5:45:04:396 Nachm. 03/26/17 - $GNGSA,A,2,02,06,12,24,25,29,,,,,,,1.5,1.2,0.9*2E

5:45:04:396 Nachm. 03/26/17 - $GNGSA,A,2,73,,,,,,,,,,,,1.5,1.2,0.9*27

5:45:05:386 Nachm. 03/26/17 - $GPGSV,3,1,11,02,32,105,27,06,26,057,23,12,66,070,31,24,35,149,20*70

5:45:05:397 Nachm. 03/26/17 - $GPGSV,3,2,11,25,62,278,23,29,26,208,22,32,33,267,14,03,02,354,*76

5:45:05:398 Nachm. 03/26/17 - $GPGSV,3,3,11,14,31,296,,19,09,043,,31,16,307,*44

5:45:05:402 Nachm. 03/26/17 - $GLGSV,3,1,10,82,66,090,24,73,56,314,12,80,65,099,19,65,06,007,18*69

5:45:05:402 Nachm. 03/26/17 - $GLGSV,3,2,10,83,34,178,22,81,26,032,14,74,00,302,,79,07,116,*63

5:45:05:402 Nachm. 03/26/17 - $GLGSV,3,3,10,71,11,272,,72,18,322,*6A

5:45:05:402 Nachm. 03/26/17 - $GPGGA,154502.0,5208.445173,N,01138.446946,E,1,06,1.2,65.7,M,45.0,M,,*62

5:45:05:403 Nachm. 03/26/17 - $GNGNS,154502.0,5208.445173,N,01138.446946,E,AA,07,1.2,65.7,45.0,,*57

5:45:05:403 Nachm. 03/26/17 - $GPVTG,11.3,T,10.8,M,0.0,N,0.0,K,A*29

5:45:05:403 Nachm. 03/26/17 - $GPRMC,154502.0,A,5208.445173,N,01138.446946,E,0.0,11.3,260317,0.4,E,A*3D

5:45:05:403 Nachm. 03/26/17 - $GPGSA,A,2,02,06,12,24,25,29,,,,,,,1.5,1.2,0.9*30

5:45:05:403 Nachm. 03/26/17 - $GNGSA,A,2,02,06,12,24,25,29,,,,,,,1.5,1.2,0.9*2E

5:45:05:404 Nachm. 03/26/17 - $GNGSA,A,2,73,,,,,,,,,,,,1.5,1.2,0.9*27

5:45:06:387 Nachm. 03/26/17 - $GPGSV,3,1,11,02,32,105,27,06,26,057,20,12,66,070,31,24,35,149,24*77

5:45:06:387 Nachm. 03/26/17 - $GPGSV,3,2,11,25,62,278,24,29,26,208,21,32,33,267,14,03,02,354,*72

5:45:06:388 Nachm. 03/26/17 - $GPGSV,3,3,11,14,31,296,,19,09,043,,31,16,307,*44

5:45:06:393 Nachm. 03/26/17 - $GLGSV,3,1,10,82,66,090,25,73,56,314,12,80,65,099,18,65,06,007,18*69

5:45:06:393 Nachm. 03/26/17 - $GLGSV,3,2,10,83,34,178,24,81,26,032,14,74,00,302,,79,07,116,*65

5:45:06:394 Nachm. 03/26/17 - $GLGSV,3,3,10,71,11,272,,72,18,322,*6A

5:45:06:394 Nachm. 03/26/17 - $GPGGA,154503.0,5208.444479,N,01138.446943,E,1,06,1.2,66.0,M,45.0,M,,*6C

5:45:06:394 Nachm. 03/26/17 - $GNGNS,154503.0,5208.444479,N,01138.446943,E,AA,07,1.2,66.0,45.0,,*59

5:45:06:395 Nachm. 03/26/17 - $GPVTG,11.3,T,10.8,M,0.0,N,0.0,K,A*29

5:45:06:395 Nachm. 03/26/17 - $GPRMC,154503.0,A,5208.444479,N,01138.446943,E,0.0,11.3,260317,0.4,E,A*37

5:45:06:395 Nachm. 03/26/17 - $GPGSA,A,2,02,06,12,24,25,29,,,,,,,1.5,1.2,0.9*30

5:45:06:396 Nachm. 03/26/17 - $GNGSA,A,2,02,06,12,24,25,29,,,,,,,1.5,1.2,0.9*2E

5:45:06:396 Nachm. 03/26/17 - $GNGSA,A,2,73,,,,,,,,,,,,1.5,1.2,0.9*27

5:45:07:385 Nachm. 03/26/17 - $GPGSV,3,1,11,02,32,105,28,06,26,057,23,12,66,070,31,24,35,149,25*7A

5:45:07:387 Nachm. 03/26/17 - $GPGSV,3,2,11,25,62,278,24,29,26,208,21,32,33,267,14,03,02,354,*72

5:45:07:387 Nachm. 03/26/17 - $GPGSV,3,3,11,14,31,296,,19,09,043,,31,16,307,*44

5:45:07:398 Nachm. 03/26/17 - $GLGSV,3,1,10,82,66,090,26,73,56,314,12,80,65,099,19,65,06,007,17*64

5:45:07:411 Nachm. 03/26/17 - $GLGSV,3,2,10,83,34,178,23,81,26,032,14,74,00,302,,79,07,116,*62

5:45:07:411 Nachm. 03/26/17 - $GLGSV,3,3,10,71,11,272,,72,18,322,*6A

5:45:07:412 Nachm. 03/26/17 - $GPGGA,154504.0,5208.444186,N,01138.446897,E,1,06,1.2,66.1,M,45.0,M,,*67

5:45:07:412 Nachm. 03/26/17 - $GNGNS,154504.0,5208.444186,N,01138.446897,E,AA,08,1.2,66.1,45.0,,*5D

5:45:07:412 Nachm. 03/26/17 - $GPVTG,11.3,T,10.8,M,0.0,N,0.0,K,A*29

5:45:07:413 Nachm. 03/26/17 - $GPRMC,154504.0,A,5208.444186,N,01138.446897,E,0.0,11.3,260317,0.4,E,A*3D

5:45:07:413 Nachm. 03/26/17 - $GPGSA,A,2,02,06,12,24,25,29,,,,,,,1.5,1.2,0.9*30

5:45:07:414 Nachm. 03/26/17 - $GNGSA,A,2,02,06,12,24,25,29,,,,,,,1.5,1.2,0.9*2E

5:45:07:414 Nachm. 03/26/17 - $GNGSA,A,2,73,82,,,,,,,,,,,1.5,1.2,0.9*2D

5:45:08:390 Nachm. 03/26/17 - $GPGSV,3,1,11,02,32,105,28,06,26,057,22,12,66,070,32,24,35,149,25*78

5:45:08:392 Nachm. 03/26/17 - $GPGSV,3,2,11,25,62,278,25,29,26,208,22,32,33,267,14,03,02,354,*70

5:45:08:392 Nachm. 03/26/17 - $GPGSV,3,3,11,14,31,296,,19,09,043,,31,16,307,*44

5:45:08:400 Nachm. 03/26/17 - $GLGSV,3,1,10,82,66,087,26,73,56,314,12,80,65,099,17,65,06,007,17*6C

5:45:08:402 Nachm. 03/26/17 - $GLGSV,3,2,10,83,34,178,24,81,26,032,14,74,00,302,,79,07,116,*65

5:45:08:403 Nachm. 03/26/17 - $GLGSV,3,3,10,71,11,272,,72,18,322,*6A

5:45:08:404 Nachm. 03/26/17 - $GPGGA,154505.0,5208.444175,N,01138.447966,E,1,06,1.2,66.4,M,45.0,M,,*61

5:45:08:406 Nachm. 03/26/17 - $GNGNS,154505.0,5208.444175,N,01138.447966,E,AA,08,1.2,66.4,45.0,,*5B

5:45:08:412 Nachm. 03/26/17 - $GPVTG,11.3,T,10.8,M,0.0,N,0.0,K,A*29

5:45:08:414 Nachm. 03/26/17 - $GPRMC,154505.0,A,5208.444175,N,01138.447966,E,0.0,11.3,260317,0.4,E,A*3E

5:45:08:415 Nachm. 03/26/17 - $GPGSA,A,2,02,06,12,24,25,29,,,,,,,1.5,1.2,0.9*30

5:45:08:416 Nachm. 03/26/17 - $GNGSA,A,2,02,06,12,24,25,29,,,,,,,1.5,1.2,0.9*2E

5:45:08:417 Nachm. 03/26/17 - $GNGSA,A,2,73,82,,,,,,,,,,,1.5,1.2,0.9*2D

5:45:09:386 Nachm. 03/26/17 - $GPGSV,3,1,11,02,32,105,28,06,26,057,23,12,66,070,31,24,35,149,26*79

5:45:09:386 Nachm. 03/26/17 - $GPGSV,3,2,11,25,62,278,24,29,26,208,20,32,33,267,14,03,02,354,*73

5:45:09:389 Nachm. 03/26/17 - $GPGSV,3,3,11,14,31,296,,19,09,043,,31,16,307,*44

5:45:09:393 Nachm. 03/26/17 - $GLGSV,3,1,10,82,66,087,25,73,56,314,12,80,65,099,19,79,07,116,13*68

5:45:09:397 Nachm. 03/26/17 - $GLGSV,3,2,10,65,06,007,17,83,34,178,23,81,26,032,14,74,00,302,*69

5:45:09:397 Nachm. 03/26/17 - $GLGSV,3,3,10,71,11,272,,72,18,322,*6A

5:45:09:397 Nachm. 03/26/17 - $GPGGA,154506.0,5208.444089,N,01138.448129,E,1,06,1.3,66.3,M,45.0,M,,*6A

5:45:09:398 Nachm. 03/26/17 - $GNGNS,154506.0,5208.444089,N,01138.448129,E,AA,07,1.3,66.3,45.0,,*5F

5:45:09:398 Nachm. 03/26/17 - $GPVTG,11.3,T,10.8,M,0.0,N,0.0,K,A*29

5:45:09:398 Nachm. 03/26/17 - $GPRMC,154506.0,A,5208.444089,N,01138.448129,E,0.0,11.3,260317,0.4,E,A*33

5:45:09:398 Nachm. 03/26/17 - $GPGSA,A,2,02,06,12,24,25,29,,,,,,,1.6,1.3,0.9*32

5:45:09:398 Nachm. 03/26/17 - $GNGSA,A,2,02,06,12,24,25,29,,,,,,,1.6,1.3,0.9*2C

5:45:09:399 Nachm. 03/26/17 - $GNGSA,A,2,82,,,,,,,,,,,,1.6,1.3,0.9*2B

5:45:10:386 Nachm. 03/26/17 - $GPGSV,3,1,11,02,32,105,28,06,26,057,23,12,66,070,31,24,35,149,25*7A

5:45:10:387 Nachm. 03/26/17 - $GPGSV,3,2,11,25,62,278,24,29,26,208,21,32,33,267,14,03,02,354,*72

5:45:10:388 Nachm. 03/26/17 - $GPGSV,3,3,11,14,31,296,,19,09,043,,31,16,307,*44

5:45:10:401 Nachm. 03/26/17 - $GLGSV,3,1,10,82,66,087,25,73,56,314,12,80,65,099,17,79,07,116,14*61

5:45:10:403 Nachm. 03/26/17 - $GLGSV,3,2,10,65,06,007,17,83,34,178,23,81,26,032,14,74,00,302,*69

5:45:10:404 Nachm. 03/26/17 - $GLGSV,3,3,10,71,11,272,,72,18,322,*6A

5:45:10:410 Nachm. 03/26/17 - $GPGGA,154507.0,5208.444124,N,01138.448217,E,1,06,1.3,67.2,M,45.0,M,,*63

5:45:10:411 Nachm. 03/26/17 - $GNGNS,154507.0,5208.444124,N,01138.448217,E,AA,07,1.3,67.2,45.0,,*56

5:45:10:411 Nachm. 03/26/17 - $GPVTG,11.3,T,10.8,M,0.0,N,0.0,K,A*29

5:45:10:412 Nachm. 03/26/17 - $GPRMC,154507.0,A,5208.444124,N,01138.448217,E,0.0,11.3,260317,0.4,E,A*3A

5:45:10:413 Nachm. 03/26/17 - $GPGSA,A,2,02,06,12,24,25,29,,,,,,,1.6,1.3,0.9*32

5:45:10:413 Nachm. 03/26/17 - $GNGSA,A,2,02,06,12,24,25,29,,,,,,,1.6,1.3,0.9*2C

5:45:10:414 Nachm. 03/26/17 - $GNGSA,A,2,82,,,,,,,,,,,,1.6,1.3,0.9*2B

5:45:11:385 Nachm. 03/26/17 - $GPGSV,3,1,11,02,32,105,28,06,26,057,25,12,66,070,31,24,35,149,27*7E

5:45:11:385 Nachm. 03/26/17 - $GPGSV,3,2,11,25,62,278,25,29,26,208,21,32,33,267,14,03,02,354,*73

5:45:11:386 Nachm. 03/26/17 - $GPGSV,3,3,11,14,31,296,,19,09,043,,31,16,307,*44

5:45:11:393 Nachm. 03/26/17 - $GLGSV,3,1,10,82,66,087,26,73,56,314,12,80,65,099,18,79,07,116,14*6D

5:45:11:394 Nachm. 03/26/17 - $GLGSV,3,2,10,65,06,007,18,83,34,178,26,81,26,032,14,74,00,302,*63

5:45:11:394 Nachm. 03/26/17 - $GLGSV,3,3,10,71,11,272,,72,18,322,*6A

5:45:11:394 Nachm. 03/26/17 - $GPGGA,154508.0,5208.444124,N,01138.448195,E,1,06,1.3,67.4,M,45.0,M,,*63

5:45:11:395 Nachm. 03/26/17 - $GNGNS,154508.0,5208.444124,N,01138.448195,E,AA,07,1.3,67.4,45.0,,*56

5:45:11:395 Nachm. 03/26/17 - $GPVTG,11.3,T,10.8,M,0.0,N,0.0,K,A*29

5:45:11:395 Nachm. 03/26/17 - $GPRMC,154508.0,A,5208.444124,N,01138.448195,E,0.0,11.3,260317,0.4,E,A*3C

5:45:11:396 Nachm. 03/26/17 - $GPGSA,A,2,02,06,12,24,25,29,,,,,,,1.6,1.3,0.9*32

5:45:11:396 Nachm. 03/26/17 - $GNGSA,A,2,02,06,12,24,25,29,,,,,,,1.6,1.3,0.9*2C

5:45:11:397 Nachm. 03/26/17 - $GNGSA,A,2,82,,,,,,,,,,,,1.6,1.3,0.9*2B

5:45:12:385 Nachm. 03/26/17 - $GPGSV,3,1,11,02,32,105,28,06,26,057,25,12,66,070,31,24,35,149,27*7E

5:45:12:392 Nachm. 03/26/17 - $GPGSV,3,2,11,25,62,278,24,29,26,208,19,32,33,267,14,03,02,354,*79

5:45:12:394 Nachm. 03/26/17 - $GPGSV,3,3,11,14,31,296,,19,09,043,,31,16,307,*44

5:45:12:405 Nachm. 03/26/17 - $GLGSV,3,1,10,82,66,087,27,73,56,314,12,80,65,099,16,79,07,116,14*62

5:45:12:406 Nachm. 03/26/17 - $GLGSV,3,2,10,65,06,007,18,83,34,178,26,81,26,032,14,74,00,302,*63

5:45:12:406 Nachm. 03/26/17 - $GLGSV,3,3,10,71,11,272,,72,18,322,*6A

5:45:12:406 Nachm. 03/26/17 - $GPGGA,154509.0,5208.444073,N,01138.448165,E,1,06,1.2,67.2,M,45.0,M,,*69

5:45:12:406 Nachm. 03/26/17 - $GNGNS,154509.0,5208.444073,N,01138.448165,E,AA,08,1.2,67.2,45.0,,*53

5:45:12:407 Nachm. 03/26/17 - $GPVTG,11.3,T,10.8,M,0.0,N,0.0,K,A*29

5:45:12:407 Nachm. 03/26/17 - $GPRMC,154509.0,A,5208.444073,N,01138.448165,E,0.0,11.3,260317,0.4,E,A*31

5:45:12:407 Nachm. 03/26/17 - $GPGSA,A,2,02,06,12,24,25,29,,,,,,,1.5,1.2,0.9*30

5:45:12:407 Nachm. 03/26/17 - $GNGSA,A,2,02,06,12,24,25,29,,,,,,,1.5,1.2,0.9*2E

5:45:12:408 Nachm. 03/26/17 - $GNGSA,A,2,73,82,,,,,,,,,,,1.5,1.2,0.9*2D

5:45:13:387 Nachm. 03/26/17 - $GPGSV,3,1,11,02,32,105,28,06,26,057,25,12,66,070,31,24,35,149,27*7E

5:45:13:390 Nachm. 03/26/17 - $GPGSV,3,2,11,25,62,278,25,29,26,208,20,32,33,267,14,03,02,354,*72

5:45:13:390 Nachm. 03/26/17 - $GPGSV,3,3,11,14,31,296,,19,09,043,,31,16,307,*44

5:45:13:404 Nachm. 03/26/17 - $GLGSV,3,1,10,82,66,087,27,73,56,314,12,80,65,099,17,79,07,116,14*63

5:45:13:405 Nachm. 03/26/17 - $GLGSV,3,2,10,65,06,007,17,83,34,178,26,81,26,032,14,74,00,302,*6C

5:45:13:408 Nachm. 03/26/17 - $GLGSV,3,3,10,71,11,272,,72,18,322,*6A

5:45:13:409 Nachm. 03/26/17 - $GPGGA,154510.0,5208.444050,N,01138.448125,E,1,06,1.2,67.2,M,45.0,M,,*64

5:45:13:409 Nachm. 03/26/17 - $GNGNS,154510.0,5208.444050,N,01138.448125,E,AA,08,1.2,67.2,45.0,,*5E

5:45:13:410 Nachm. 03/26/17 - $GPVTG,11.3,T,10.8,M,0.0,N,0.0,K,A*29

5:45:13:410 Nachm. 03/26/17 - $GPRMC,154510.0,A,5208.444050,N,01138.448125,E,0.0,11.3,260317,0.4,E,A*3C

5:45:13:411 Nachm. 03/26/17 - $GPGSA,A,2,02,06,12,24,25,29,,,,,,,1.5,1.2,0.9*30

5:45:13:411 Nachm. 03/26/17 - $GNGSA,A,2,02,06,12,24,25,29,,,,,,,1.5,1.2,0.9*2E

5:45:13:412 Nachm. 03/26/17 - $GNGSA,A,2,73,82,,,,,,,,,,,1.5,1.2,0.9*2D

5:45:14:387 Nachm. 03/26/17 - $GPGSV,3,1,11,02,32,105,27,06,26,057,26,12,66,070,31,24,35,149,27*72

5:45:14:388 Nachm. 03/26/17 - $GPGSV,3,2,11,25,62,278,26,29,26,208,18,03,02,354,,14,31,296,*77

5:45:14:390 Nachm. 03/26/17 - $GPGSV,3,3,11,19,09,043,,31,16,307,,32,33,267,*4C

5:45:14:391 Nachm. 03/26/17 - $GLGSV,3,1,10,82,66,087,26,73,56,314,12,80,65,099,17,79,07,116,13*65

5:45:14:391 Nachm. 03/26/17 - $GLGSV,3,2,10,65,06,007,17,83,34,178,26,81,26,032,14,74,00,302,*6C

5:45:14:415 Nachm. 03/26/17 - $GLGSV,3,3,10,71,11,272,,72,18,322,*6A

5:45:14:423 Nachm. 03/26/17 - $GPGGA,154511.0,5208.444037,N,01138.448132,E,1,06,1.2,67.2,M,45.0,M,,*62

5:45:14:424 Nachm. 03/26/17 - $GNGNS,154511.0,5208.444037,N,01138.448132,E,AA,08,1.2,67.2,45.0,,*58

5:45:14:424 Nachm. 03/26/17 - $GPVTG,11.3,T,10.8,M,0.0,N,0.0,K,A*29

5:45:14:424 Nachm. 03/26/17 - $GPRMC,154511.0,A,5208.444037,N,01138.448132,E,0.0,11.3,260317,0.4,E,A*3A

5:45:14:425 Nachm. 03/26/17 - $GPGSA,A,2,02,06,12,24,25,29,,,,,,,1.5,1.2,0.9*30

5:45:14:425 Nachm. 03/26/17 - $GNGSA,A,2,02,06,12,24,25,29,,,,,,,1.5,1.2,0.9*2E

5:45:14:425 Nachm. 03/26/17 - $GNGSA,A,2,73,82,,,,,,,,,,,1.5,1.2,0.9*2D

5:45:15:387 Nachm. 03/26/17 - $GPGSV,3,1,11,02,32,105,28,06,26,057,26,12,66,070,31,24,35,149,27*7D

5:45:15:389 Nachm. 03/26/17 - $GPGSV,3,2,11,25,62,278,25,29,26,208,19,03,02,354,,14,31,296,*75

5:45:15:391 Nachm. 03/26/17 - $GPGSV,3,3,11,19,09,043,,31,16,307,,32,33,267,*4C

5:45:15:391 Nachm. 03/26/17 - $GLGSV,3,1,10,82,66,087,26,73,56,314,12,80,65,099,17,79,07,116,18*6E

5:45:15:391 Nachm. 03/26/17 - $GLGSV,3,2,10,65,06,007,16,83,34,178,26,81,26,032,14,74,00,302,*6D

5:45:15:391 Nachm. 03/26/17 - $GLGSV,3,3,10,71,11,272,,72,18,322,*6A

5:45:15:392 Nachm. 03/26/17 - $GPGGA,154512.0,5208.444025,N,01138.448132,E,1,06,1.2,67.2,M,45.0,M,,*62

5:45:15:392 Nachm. 03/26/17 - $GNGNS,154512.0,5208.444025,N,01138.448132,E,AA,08,1.2,67.2,45.0,,*58

5:45:15:401 Nachm. 03/26/17 - $GPVTG,11.3,T,10.8,M,0.0,N,0.0,K,A*29

5:45:15:401 Nachm. 03/26/17 - $GPRMC,154512.0,A,5208.444025,N,01138.448132,E,0.0,11.3,260317,0.4,E,A*3A

5:45:15:402 Nachm. 03/26/17 - $GPGSA,A,2,02,06,12,24,25,29,,,,,,,1.5,1.2,0.9*30

5:45:15:402 Nachm. 03/26/17 - $GNGSA,A,2,02,06,12,24,25,29,,,,,,,1.5,1.2,0.9*2E

5:45:15:402 Nachm. 03/26/17 - $GNGSA,A,2,73,82,,,,,,,,,,,1.5,1.2,0.9*2D

5:45:16:387 Nachm. 03/26/17 - $GPGSV,3,1,11,02,32,105,28,06,26,057,26,12,66,070,31,24,35,149,27*7D

5:45:16:388 Nachm. 03/26/17 - $GPGSV,3,2,11,25,62,278,25,29,26,208,19,03,02,354,,14,31,296,*75

5:45:16:391 Nachm. 03/26/17 - $GPGSV,3,3,11,19,09,043,,31,16,307,,32,33,267,*4C

5:45:16:392 Nachm. 03/26/17 - $GLGSV,3,1,10,82,66,087,26,73,56,314,13,80,65,099,17,79,07,116,18*6F

5:45:16:392 Nachm. 03/26/17 - $GLGSV,3,2,10,65,06,007,19,83,34,178,27,81,26,032,14,74,00,302,*63

5:45:16:393 Nachm. 03/26/17 - $GLGSV,3,3,10,71,11,272,,72,18,322,*6A

5:45:16:393 Nachm. 03/26/17 - $GPGGA,154513.0,5208.444009,N,01138.448163,E,1,06,1.2,67.2,M,45.0,M,,*69

5:45:16:394 Nachm. 03/26/17 - $GNGNS,154513.0,5208.444009,N,01138.448163,E,AA,08,1.2,67.2,45.0,,*53

5:45:16:396 Nachm. 03/26/17 - $GPVTG,11.3,T,10.8,M,0.0,N,0.0,K,A*29

5:45:16:400 Nachm. 03/26/17 - $GPRMC,154513.0,A,5208.444009,N,01138.448163,E,0.0,11.3,260317,0.4,E,A*31

5:45:16:400 Nachm. 03/26/17 - $GPGSA,A,2,02,06,12,24,25,29,,,,,,,1.5,1.2,0.9*30

5:45:16:400 Nachm. 03/26/17 - $GNGSA,A,2,02,06,12,24,25,29,,,,,,,1.5,1.2,0.9*2E

5:45:16:400 Nachm. 03/26/17 - $GNGSA,A,2,73,82,,,,,,,,,,,1.5,1.2,0.9*2D

5:45:17:387 Nachm. 03/26/17 - $GPGSV,3,1,11,02,32,105,29,06,26,057,26,12,66,070,31,24,35,149,28*73

5:45:17:388 Nachm. 03/26/17 - $GPGSV,3,2,11,25,62,278,26,29,26,208,17,03,02,354,,14,31,296,*78

5:45:17:400 Nachm. 03/26/17 - $GPGSV,3,3,11,19,09,043,,31,16,307,,32,33,267,*4C

5:45:17:403 Nachm. 03/26/17 - $GLGSV,3,1,10,82,66,087,26,73,56,314,13,80,65,099,16,79,07,116,18*6E

5:45:17:406 Nachm. 03/26/17 - $GLGSV,3,2,10,65,06,007,18,83,34,178,26,81,26,032,14,74,00,302,*63

5:45:17:406 Nachm. 03/26/17 - $GLGSV,3,3,10,71,11,272,,72,18,322,*6A

5:45:17:408 Nachm. 03/26/17 - $GPGGA,154514.0,5208.443996,N,01138.448166,E,1,06,1.2,67.1,M,45.0,M,,*60

5:45:17:410 Nachm. 03/26/17 - $GNGNS,154514.0,5208.443996,N,01138.448166,E,AA,08,1.2,67.1,45.0,,*5A

5:45:17:411 Nachm. 03/26/17 - $GPVTG,11.3,T,10.8,M,0.0,N,0.0,K,A*29

5:45:17:411 Nachm. 03/26/17 - $GPRMC,154514.0,A,5208.443996,N,01138.448166,E,0.0,11.3,260317,0.4,E,A*3B

5:45:17:414 Nachm. 03/26/17 - $GPGSA,A,2,02,06,12,24,25,29,,,,,,,1.5,1.2,0.9*30

5:45:17:415 Nachm. 03/26/17 - $GNGSA,A,2,02,06,12,24,25,29,,,,,,,1.5,1.2,0.9*2E

5:45:17:415 Nachm. 03/26/17 - $GNGSA,A,2,73,82,,,,,,,,,,,1.5,1.2,0.9*2D

5:45:18:386 Nachm. 03/26/17 - $GPGSV,3,1,11,02,32,105,29,06,26,057,26,12,66,070,30,24,35,149,29*73

5:45:18:387 Nachm. 03/26/17 - $GPGSV,3,2,11,25,62,278,25,29,26,208,19,03,02,354,,14,31,296,*75

5:45:18:388 Nachm. 03/26/17 - $GPGSV,3,3,11,19,09,043,,31,16,307,,32,33,267,*4C

5:45:18:398 Nachm. 03/26/17 - $GLGSV,3,1,10,82,66,087,27,73,56,314,16,80,65,099,19,79,07,116,15*68

5:45:18:404 Nachm. 03/26/17 - $GLGSV,3,2,10,65,06,007,18,83,34,178,28,81,26,032,14,74,00,302,*6D

5:45:18:404 Nachm. 03/26/17 - $GLGSV,3,3,10,71,11,272,,72,18,322,*6A

5:45:18:405 Nachm. 03/26/17 - $GPGGA,154515.0,5208.443963,N,01138.448245,E,1,06,1.2,67.2,M,45.0,M,,*6A

5:45:18:405 Nachm. 03/26/17 - $GNGNS,154515.0,5208.443963,N,01138.448245,E,AA,08,1.2,67.2,45.0,,*50

5:45:18:405 Nachm. 03/26/17 - $GPVTG,11.3,T,10.8,M,0.0,N,0.0,K,A*29

5:45:18:405 Nachm. 03/26/17 - $GPRMC,154515.0,A,5208.443963,N,01138.448245,E,0.0,11.3,260317,0.4,E,A*32

5:45:18:405 Nachm. 03/26/17 - $GPGSA,A,2,02,06,12,24,25,29,,,,,,,1.5,1.2,0.9*30

5:45:18:406 Nachm. 03/26/17 - $GNGSA,A,2,02,06,12,24,25,29,,,,,,,1.5,1.2,0.9*2E

5:45:18:406 Nachm. 03/26/17 - $GNGSA,A,2,73,82,,,,,,,,,,,1.5,1.2,0.9*2D

5:45:19:385 Nachm. 03/26/17 - $GPGSV,3,1,11,02,32,105,30,06,26,057,25,12,66,070,30,24,35,149,29*78

5:45:19:387 Nachm. 03/26/17 - $GPGSV,3,2,11,25,62,278,25,29,26,208,20,03,02,354,,14,31,296,*7F

5:45:19:388 Nachm. 03/26/17 - $GPGSV,3,3,11,19,09,043,,31,16,307,,32,33,267,*4C

5:45:19:398 Nachm. 03/26/17 - $GLGSV,3,1,10,82,66,087,27,73,56,314,16,80,65,099,19,79,07,116,15*68

5:45:19:402 Nachm. 03/26/17 - $GLGSV,3,2,10,65,06,007,18,83,34,178,27,81,26,032,14,74,00,302,*62

5:45:19:403 Nachm. 03/26/17 - $GLGSV,3,3,10,71,11,272,,72,18,322,*6A

5:45:19:403 Nachm. 03/26/17 - $GPGGA,154516.0,5208.443960,N,01138.448252,E,1,06,1.2,67.2,M,45.0,M,,*6C

5:45:19:404 Nachm. 03/26/17 - $GNGNS,154516.0,5208.443960,N,01138.448252,E,AA,08,1.2,67.2,45.0,,*56

5:45:19:404 Nachm. 03/26/17 - $GPVTG,11.3,T,10.8,M,0.0,N,0.0,K,A*29

5:45:19:409 Nachm. 03/26/17 - $GPRMC,154516.0,A,5208.443960,N,01138.448252,E,0.0,11.3,260317,0.4,E,A*34

5:45:19:410 Nachm. 03/26/17 - $GPGSA,A,2,02,06,12,24,25,29,,,,,,,1.5,1.2,0.9*30

5:45:19:410 Nachm. 03/26/17 - $GNGSA,A,2,02,06,12,24,25,29,,,,,,,1.5,1.2,0.9*2E

5:45:19:411 Nachm. 03/26/17 - $GNGSA,A,2,73,82,,,,,,,,,,,1.5,1.2,0.9*2D

5:45:20:385 Nachm. 03/26/17 - $GPGSV,3,1,11,02,32,105,29,06,26,057,24,12,66,070,28,24,35,149,30*70

5:45:20:387 Nachm. 03/26/17 - $GPGSV,3,2,11,25,62,278,25,29,26,208,20,03,02,354,,14,31,296,*7F

5:45:20:390 Nachm. 03/26/17 - $GPGSV,3,3,11,19,09,043,,31,16,307,,32,33,267,*4C

5:45:20:397 Nachm. 03/26/17 - $GLGSV,3,1,10,82,66,087,25,73,56,314,17,80,65,099,17,79,07,116,15*65

5:45:20:398 Nachm. 03/26/17 - $GLGSV,3,2,10,65,06,007,16,83,34,178,27,81,26,032,14,74,00,302,*6C

5:45:20:398 Nachm. 03/26/17 - $GLGSV,3,3,10,71,11,272,,72,18,322,*6A

5:45:20:406 Nachm. 03/26/17 - $GPGGA,154517.0,5208.443913,N,01138.448358,E,1,06,1.2,67.3,M,45.0,M,,*63

5:45:20:406 Nachm. 03/26/17 - $GNGNS,154517.0,5208.443913,N,01138.448358,E,AA,08,1.2,67.3,45.0,,*59

5:45:20:406 Nachm. 03/26/17 - $GPVTG,11.3,T,10.8,M,0.0,N,0.0,K,A*29

5:45:20:406 Nachm. 03/26/17 - $GPRMC,154517.0,A,5208.443913,N,01138.448358,E,0.0,11.3,260317,0.4,E,A*3A

5:45:20:407 Nachm. 03/26/17 - $GPGSA,A,2,02,06,12,24,25,29,,,,,,,1.5,1.2,0.9*30

5:45:20:408 Nachm. 03/26/17 - $GNGSA,A,2,02,06,12,24,25,29,,,,,,,1.5,1.2,0.9*2E

5:45:20:408 Nachm. 03/26/17 - $GNGSA,A,2,73,82,,,,,,,,,,,1.5,1.2,0.9*2D

5:45:21:386 Nachm. 03/26/17 - $GPGSV,3,1,11,02,32,105,28,06,26,057,24,12,66,070,29,24,35,149,28*79

5:45:21:387 Nachm. 03/26/17 - $GPGSV,3,2,11,25,62,278,24,29,26,208,16,03,02,354,,14,31,296,*7B

5:45:21:388 Nachm. 03/26/17 - $GPGSV,3,3,11,19,09,043,,31,16,307,,32,33,267,*4C

5:45:21:400 Nachm. 03/26/17 - $GLGSV,3,1,10,82,66,087,25,73,56,314,17,80,65,099,18,79,07,116,16*69

5:45:21:401 Nachm. 03/26/17 - $GLGSV,3,2,10,65,06,007,16,83,34,178,27,81,26,032,14,74,00,302,*6C

5:45:21:402 Nachm. 03/26/17 - $GLGSV,3,3,10,71,11,272,,72,18,322,*6A

5:45:21:402 Nachm. 03/26/17 - $GPGGA,154518.0,5208.443911,N,01138.448349,E,1,06,1.2,67.3,M,45.0,M,,*6E

5:45:21:403 Nachm. 03/26/17 - $GNGNS,154518.0,5208.443911,N,01138.448349,E,AA,08,1.2,67.3,45.0,,*54

5:45:21:403 Nachm. 03/26/17 - $GPVTG,11.3,T,10.8,M,0.0,N,0.0,K,A*29

5:45:21:404 Nachm. 03/26/17 - $GPRMC,154518.0,A,5208.443911,N,01138.448349,E,0.0,11.3,260317,0.4,E,A*37

5:45:21:404 Nachm. 03/26/17 - $GPGSA,A,2,02,06,12,24,25,29,,,,,,,1.5,1.2,0.9*30

5:45:21:405 Nachm. 03/26/17 - $GNGSA,A,2,02,06,12,24,25,29,,,,,,,1.5,1.2,0.9*2E

5:45:21:405 Nachm. 03/26/17 - $GNGSA,A,2,73,82,,,,,,,,,,,1.5,1.2,0.9*2D

5:45:22:384 Nachm. 03/26/17 - $GPGSV,3,1,11,02,32,105,28,06,26,057,24,12,66,070,29,24,35,149,28*79

5:45:22:384 Nachm. 03/26/17 - $GPGSV,3,2,11,25,62,278,25,29,26,208,16,03,02,354,,14,31,296,*7A

5:45:22:385 Nachm. 03/26/17 - $GPGSV,3,3,11,19,09,043,,31,16,307,,32,33,267,*4C

5:45:22:391 Nachm. 03/26/17 - $GLGSV,3,1,10,82,66,087,25,73,56,314,17,80,65,099,18,79,07,116,18*67

5:45:22:396 Nachm. 03/26/17 - $GLGSV,3,2,10,65,06,007,17,83,34,178,28,81,26,032,14,74,00,302,*62

5:45:22:397 Nachm. 03/26/17 - $GLGSV,3,3,10,71,11,272,,72,18,322,*6A

5:45:22:397 Nachm. 03/26/17 - $GPGGA,154519.0,5208.443873,N,01138.448434,E,1,06,1.2,67.4,M,45.0,M,,*60

5:45:22:397 Nachm. 03/26/17 - $GNGNS,154519.0,5208.443873,N,01138.448434,E,AA,08,1.2,67.4,45.0,,*5A

5:45:22:397 Nachm. 03/26/17 - $GPVTG,11.3,T,10.8,M,0.0,N,0.0,K,A*29

5:45:22:398 Nachm. 03/26/17 - $GPRMC,154519.0,A,5208.443873,N,01138.448434,E,0.0,11.3,260317,0.4,E,A*3E

5:45:22:398 Nachm. 03/26/17 - $GPGSA,A,2,02,06,12,24,25,29,,,,,,,1.5,1.2,0.9*30

5:45:22:398 Nachm. 03/26/17 - $GNGSA,A,2,02,06,12,24,25,29,,,,,,,1.5,1.2,0.9*2E

5:45:22:398 Nachm. 03/26/17 - $GNGSA,A,2,73,82,,,,,,,,,,,1.5,1.2,0.9*2D

5:45:23:386 Nachm. 03/26/17 - $GPGSV,3,1,11,02,32,105,28,06,26,057,24,12,66,070,30,24,35,149,28*71

5:45:23:387 Nachm. 03/26/17 - $GPGSV,3,2,11,25,62,278,25,29,26,208,18,03,02,354,,14,31,296,*74

5:45:23:388 Nachm. 03/26/17 - $GPGSV,3,3,11,19,09,043,,31,16,307,,32,33,267,*4C

5:45:23:401 Nachm. 03/26/17 - $GLGSV,3,1,10,82,66,087,26,73,56,314,17,80,65,099,17,79,07,116,18*6B

5:45:23:402 Nachm. 03/26/17 - $GLGSV,3,2,10,65,06,007,17,83,34,178,27,81,26,032,14,74,00,302,*6D

5:45:23:404 Nachm. 03/26/17 - $GLGSV,3,3,10,71,11,272,,72,18,322,*6A

5:45:23:404 Nachm. 03/26/17 - $GPGGA,154520.0,5208.443875,N,01138.448422,E,1,06,1.2,67.4,M,45.0,M,,*6B

5:45:23:404 Nachm. 03/26/17 - $GNGNS,154520.0,5208.443875,N,01138.448422,E,AA,08,1.2,67.4,45.0,,*51

5:45:23:405 Nachm. 03/26/17 - $GPVTG,11.3,T,10.8,M,0.0,N,0.0,K,A*29

5:45:23:405 Nachm. 03/26/17 - $GPRMC,154520.0,A,5208.443875,N,01138.448422,E,0.0,11.3,260317,0.4,E,A*35

5:45:23:405 Nachm. 03/26/17 - $GPGSA,A,2,02,06,12,24,25,29,,,,,,,1.5,1.2,0.9*30

5:45:23:405 Nachm. 03/26/17 - $GNGSA,A,2,02,06,12,24,25,29,,,,,,,1.5,1.2,0.9*2E

5:45:23:405 Nachm. 03/26/17 - $GNGSA,A,2,73,82,,,,,,,,,,,1.5,1.2,0.9*2D

5:45:24:386 Nachm. 03/26/17 - $GPGSV,3,1,11,02,32,105,28,06,26,057,25,12,66,070,30,24,35,149,28*70

5:45:24:387 Nachm. 03/26/17 - $GPGSV,3,2,11,25,62,278,24,29,26,208,18,03,02,354,,14,31,296,*75

5:45:24:387 Nachm. 03/26/17 - $GPGSV,3,3,11,19,09,043,,31,16,307,,32,33,267,*4C

5:45:24:388 Nachm. 03/26/17 - $GLGSV,3,1,10,82,66,087,27,73,56,314,16,80,65,099,18,79,07,116,17*6B

5:45:24:388 Nachm. 03/26/17 - $GLGSV,3,2,10,65,06,007,17,83,34,178,28,81,26,032,14,74,00,302,*62

5:45:24:389 Nachm. 03/26/17 - $GLGSV,3,3,10,71,11,272,,72,18,322,*6A

5:45:24:399 Nachm. 03/26/17 - $GPGGA,154521.0,5208.443824,N,01138.448536,E,1,06,1.2,67.5,M,45.0,M,,*6B

5:45:24:405 Nachm. 03/26/17 - $GNGNS,154521.0,5208.443824,N,01138.448536,E,AA,08,1.2,67.5,45.0,,*51

5:45:24:406 Nachm. 03/26/17 - $GPVTG,11.3,T,10.8,M,0.0,N,0.0,K,A*29

5:45:24:406 Nachm. 03/26/17 - $GPRMC,154521.0,A,5208.443824,N,01138.448536,E,0.0,11.3,260317,0.4,E,A*34

5:45:24:407 Nachm. 03/26/17 - $GPGSA,A,2,02,06,12,24,25,29,,,,,,,1.5,1.2,0.9*30

5:45:24:408 Nachm. 03/26/17 - $GNGSA,A,2,02,06,12,24,25,29,,,,,,,1.5,1.2,0.9*2E

5:45:24:408 Nachm. 03/26/17 - $GNGSA,A,2,73,82,,,,,,,,,,,1.5,1.2,0.9*2D

5:45:25:386 Nachm. 03/26/17 - $GPGSV,3,1,11,02,32,105,29,06,26,057,25,12,66,070,30,24,35,149,28*71

5:45:25:387 Nachm. 03/26/17 - $GPGSV,3,2,11,25,62,278,24,29,26,208,16,03,02,354,,14,31,296,*7B

5:45:25:388 Nachm. 03/26/17 - $GPGSV,3,3,11,19,09,043,,31,16,307,,32,33,267,*4C

5:45:25:397 Nachm. 03/26/17 - $GLGSV,3,1,10,82,66,087,27,73,56,314,16,80,65,099,16,79,07,116,18*6A

5:45:25:398 Nachm. 03/26/17 - $GLGSV,3,2,10,65,06,007,18,83,34,178,27,81,26,032,14,74,00,302,*62

5:45:25:400 Nachm. 03/26/17 - $GLGSV,3,3,10,71,11,272,,72,18,322,*6A

5:45:25:402 Nachm. 03/26/17 - $GPGGA,154522.0,5208.443820,N,01138.448547,E,1,06,1.2,67.5,M,45.0,M,,*6A

5:45:25:409 Nachm. 03/26/17 - $GNGNS,154522.0,5208.443820,N,01138.448547,E,AA,08,1.2,67.5,45.0,,*50

5:45:25:411 Nachm. 03/26/17 - $GPVTG,11.3,T,10.8,M,0.0,N,0.0,K,A*29

5:45:25:413 Nachm. 03/26/17 - $GPRMC,154522.0,A,5208.443820,N,01138.448547,E,0.0,11.3,260317,0.4,E,A*35

5:45:25:414 Nachm. 03/26/17 - $GPGSA,A,2,02,06,12,24,25,29,,,,,,,1.5,1.2,0.9*30

5:45:25:416 Nachm. 03/26/17 - $GNGSA,A,2,02,06,12,24,25,29,,,,,,,1.5,1.2,0.9*2E

5:45:25:417 Nachm. 03/26/17 - $GNGSA,A,2,73,82,,,,,,,,,,,1.5,1.2,0.9*2D

5:45:26:386 Nachm. 03/26/17 - $GPGSV,3,1,11,02,32,105,29,06,26,057,25,12,66,070,29,24,35,149,29*78

5:45:26:387 Nachm. 03/26/17 - $GPGSV,3,2,11,25,62,278,24,29,26,208,19,03,02,354,,14,31,296,*74

5:45:26:399 Nachm. 03/26/17 - $GPGSV,3,3,11,19,09,043,,31,16,307,,32,33,267,*4C

5:45:26:414 Nachm. 03/26/17 - $GLGSV,3,1,10,82,66,087,27,73,56,314,16,80,65,099,17,79,07,116,18*6B

5:45:26:417 Nachm. 03/26/17 - $GLGSV,3,2,10,65,06,007,18,83,34,178,28,81,26,032,14,74,00,302,*6D

5:45:26:418 Nachm. 03/26/17 - $GLGSV,3,3,10,71,11,272,,72,18,322,*6A

5:45:26:420 Nachm. 03/26/17 - $GPGGA,154523.0,5208.443813,N,01138.448561,E,1,06,1.2,67.5,M,45.0,M,,*6F

5:45:26:420 Nachm. 03/26/17 - $GNGNS,154523.0,5208.443813,N,01138.448561,E,AA,08,1.2,67.5,45.0,,*55

5:45:26:421 Nachm. 03/26/17 - $GPVTG,11.3,T,10.8,M,0.0,N,0.0,K,A*29

5:45:26:421 Nachm. 03/26/17 - $GPRMC,154523.0,A,5208.443813,N,01138.448561,E,0.0,11.3,260317,0.4,E,A*30

5:45:26:422 Nachm. 03/26/17 - $GPGSA,A,2,02,06,12,24,25,29,,,,,,,1.5,1.2,0.9*30

5:45:26:422 Nachm. 03/26/17 - $GNGSA,A,2,02,06,12,24,25,29,,,,,,,1.5,1.2,0.9*2E

5:45:26:423 Nachm. 03/26/17 - $GNGSA,A,2,73,82,,,,,,,,,,,1.5,1.2,0.9*2D

5:45:27:386 Nachm. 03/26/17 - $GPGSV,3,1,11,02,32,105,28,06,26,057,25,12,66,070,29,24,35,149,29*79

5:45:27:387 Nachm. 03/26/17 - $GPGSV,3,2,11,25,62,278,23,29,26,208,18,03,02,354,,14,31,296,*72

5:45:27:393 Nachm. 03/26/17 - $GPGSV,3,3,11,19,09,043,,31,16,307,,32,33,267,*4C

5:45:27:394 Nachm. 03/26/17 - $GLGSV,3,1,10,82,66,087,27,73,56,314,16,80,65,099,18,79,07,116,16*6A

5:45:27:404 Nachm. 03/26/17 - $GLGSV,3,2,10,65,06,007,18,83,34,178,29,81,26,032,14,74,00,302,*6C

5:45:27:406 Nachm. 03/26/17 - $GLGSV,3,3,10,71,11,272,,72,18,322,*6A

5:45:27:406 Nachm. 03/26/17 - $GPGGA,154524.0,5208.443886,N,01138.448360,E,1,06,1.2,67.4,M,45.0,M,,*62

5:45:27:406 Nachm. 03/26/17 - $GNGNS,154524.0,5208.443886,N,01138.448360,E,AA,08,1.2,67.4,45.0,,*58

5:45:27:406 Nachm. 03/26/17 - $GPVTG,11.3,T,10.8,M,0.0,N,0.0,K,A*29

5:45:27:407 Nachm. 03/26/17 - $GPRMC,154524.0,A,5208.443886,N,01138.448360,E,0.0,11.3,260317,0.4,E,A*3C

5:45:27:407 Nachm. 03/26/17 - $GPGSA,A,2,02,06,12,24,25,29,,,,,,,1.5,1.2,0.9*30

5:45:27:407 Nachm. 03/26/17 - $GNGSA,A,2,02,06,12,24,25,29,,,,,,,1.5,1.2,0.9*2E

5:45:27:407 Nachm. 03/26/17 - $GNGSA,A,2,73,82,,,,,,,,,,,1.5,1.2,0.9*2D

5:45:28:387 Nachm. 03/26/17 - $GPGSV,3,1,11,02,32,105,25,06,26,057,24,12,66,070,30,24,35,149,28*7C

5:45:28:387 Nachm. 03/26/17 - $GPGSV,3,2,11,25,62,278,24,29,26,208,16,03,02,354,,14,31,296,*7B

5:45:28:388 Nachm. 03/26/17 - $GPGSV,3,3,11,19,09,043,,31,16,307,,32,33,267,*4C

5:45:28:393 Nachm. 03/26/17 - $GLGSV,3,1,10,82,66,087,27,73,56,314,16,80,65,099,18,79,07,116,18*64

5:45:28:393 Nachm. 03/26/17 - $GLGSV,3,2,10,65,06,007,16,83,34,178,29,81,26,032,14,74,00,302,*62

5:45:28:395 Nachm. 03/26/17 - $GLGSV,3,3,10,71,11,272,,72,18,322,*6A

5:45:28:396 Nachm. 03/26/17 - $GPGGA,154525.0,5208.443892,N,01138.448332,E,1,06,1.2,67.4,M,45.0,M,,*61

5:45:28:400 Nachm. 03/26/17 - $GNGNS,154525.0,5208.443892,N,01138.448332,E,AA,08,1.2,67.4,45.0,,*5B

5:45:28:400 Nachm. 03/26/17 - $GPVTG,11.3,T,10.8,M,0.0,N,0.0,K,A*29

5:45:28:401 Nachm. 03/26/17 - $GPRMC,154525.0,A,5208.443892,N,01138.448332,E,0.0,11.3,260317,0.4,E,A*3F

5:45:28:401 Nachm. 03/26/17 - $GPGSA,A,2,02,06,12,24,25,29,,,,,,,1.5,1.2,0.9*30

5:45:28:401 Nachm. 03/26/17 - $GNGSA,A,2,02,06,12,24,25,29,,,,,,,1.5,1.2,0.9*2E

5:45:28:401 Nachm. 03/26/17 - $GNGSA,A,2,73,82,,,,,,,,,,,1.5,1.2,0.9*2D

5:45:29:387 Nachm. 03/26/17 - $GPGSV,3,1,11,02,32,105,24,06,26,057,23,12,66,070,29,24,35,149,27*7D

5:45:29:388 Nachm. 03/26/17 - $GPGSV,3,2,11,25,62,278,24,29,26,208,18,03,02,354,,14,31,296,*75

5:45:29:389 Nachm. 03/26/17 - $GPGSV,3,3,11,19,09,043,,31,16,307,,32,33,267,*4C

5:45:29:399 Nachm. 03/26/17 - $GLGSV,3,1,10,82,66,087,27,73,56,314,16,80,65,099,19,79,07,116,18*65

5:45:29:400 Nachm. 03/26/17 - $GLGSV,3,2,10,65,06,007,18,83,34,178,29,81,26,032,14,74,00,302,*6C

5:45:29:402 Nachm. 03/26/17 - $GLGSV,3,3,10,71,11,272,,72,18,322,*6A

5:45:29:404 Nachm. 03/26/17 - $GPGGA,154526.0,5208.443897,N,01138.448328,E,1,06,1.2,67.4,M,45.0,M,,*6C

5:45:29:405 Nachm. 03/26/17 - $GNGNS,154526.0,5208.443897,N,01138.448328,E,AA,08,1.2,67.4,45.0,,*56

5:45:29:413 Nachm. 03/26/17 - $GPVTG,11.3,T,10.8,M,0.0,N,0.0,K,A*29

5:45:29:414 Nachm. 03/26/17 - $GPRMC,154526.0,A,5208.443897,N,01138.448328,E,0.0,11.3,260317,0.4,E,A*32

5:45:29:423 Nachm. 03/26/17 - $GPGSA,A,2,02,06,12,24,25,29,,,,,,,1.5,1.2,0.9*30

5:45:29:423 Nachm. 03/26/17 - $GNGSA,A,2,02,06,12,24,25,29,,,,,,,1.5,1.2,0.9*2E

5:45:29:424 Nachm. 03/26/17 - $GNGSA,A,2,73,82,,,,,,,,,,,1.5,1.2,0.9*2D

5:45:30:385 Nachm. 03/26/17 - $GPGSV,3,1,11,02,32,105,25,06,26,057,22,12,66,070,29,24,35,149,27*7D

5:45:30:385 Nachm. 03/26/17 - $GPGSV,3,2,11,25,62,278,23,29,26,208,17,03,02,354,,14,31,296,*7D

5:45:30:385 Nachm. 03/26/17 - $GPGSV,3,3,11,19,09,043,,31,16,307,,32,33,267,*4C

5:45:30:391 Nachm. 03/26/17 - $GLGSV,3,1,10,82,66,087,27,73,56,314,15,80,65,099,20,79,07,116,18*6C

5:45:30:392 Nachm. 03/26/17 - $GLGSV,3,2,10,65,06,007,18,83,34,178,29,81,26,032,14,74,00,302,*6C

5:45:30:393 Nachm. 03/26/17 - $GLGSV,3,3,10,71,11,272,,72,18,322,*6A

5:45:30:393 Nachm. 03/26/17 - $GPGGA,154527.0,5208.443938,N,01138.448221,E,1,06,1.2,67.3,M,45.0,M,,*66

5:45:30:393 Nachm. 03/26/17 - $GNGNS,154527.0,5208.443938,N,01138.448221,E,AA,08,1.2,67.3,45.0,,*5C

5:45:30:394 Nachm. 03/26/17 - $GPVTG,11.3,T,10.8,M,0.0,N,0.0,K,A*29

5:45:30:394 Nachm. 03/26/17 - $GPRMC,154527.0,A,5208.443938,N,01138.448221,E,0.0,11.3,260317,0.4,E,A*3F

5:45:30:394 Nachm. 03/26/17 - $GPGSA,A,2,02,06,12,24,25,29,,,,,,,1.5,1.2,0.9*30

5:45:30:395 Nachm. 03/26/17 - $GNGSA,A,2,02,06,12,24,25,29,,,,,,,1.5,1.2,0.9*2E

5:45:30:395 Nachm. 03/26/17 - $GNGSA,A,2,73,82,,,,,,,,,,,1.5,1.2,0.9*2D

5:45:31:385 Nachm. 03/26/17 - $GPGSV,3,1,11,02,32,105,26,06,26,057,23,12,66,070,29,24,35,149,28*70

5:45:31:386 Nachm. 03/26/17 - $GPGSV,3,2,11,25,62,278,24,29,26,208,19,03,02,354,,14,31,296,*74

5:45:31:387 Nachm. 03/26/17 - $GPGSV,3,3,11,19,09,043,,31,16,307,,32,33,267,*4C

5:45:31:397 Nachm. 03/26/17 - $GLGSV,3,1,10,82,66,087,27,73,56,314,15,80,65,099,21,79,07,116,16*63

5:45:31:401 Nachm. 03/26/17 - $GLGSV,3,2,10,65,06,007,17,83,34,178,29,81,26,032,14,74,00,302,*63

5:45:31:401 Nachm. 03/26/17 - $GLGSV,3,3,10,71,11,272,,72,18,322,*6A

5:45:31:402 Nachm. 03/26/17 - $GPGGA,154528.0,5208.443949,N,01138.448210,E,1,06,1.2,67.3,M,45.0,M,,*6D

5:45:31:402 Nachm. 03/26/17 - $GNGNS,154528.0,5208.443949,N,01138.448210,E,AA,08,1.2,67.3,45.0,,*57

5:45:31:402 Nachm. 03/26/17 - $GPVTG,11.3,T,10.8,M,0.0,N,0.0,K,A*29

5:45:31:402 Nachm. 03/26/17 - $GPRMC,154528.0,A,5208.443949,N,01138.448210,E,0.0,11.3,260317,0.4,E,A*34

5:45:31:403 Nachm. 03/26/17 - $GPGSA,A,2,02,06,12,24,25,29,,,,,,,1.5,1.2,0.9*30

5:45:31:403 Nachm. 03/26/17 - $GNGSA,A,2,02,06,12,24,25,29,,,,,,,1.5,1.2,0.9*2E

5:45:31:403 Nachm. 03/26/17 - $GNGSA,A,2,73,82,,,,,,,,,,,1.5,1.2,0.9*2D

5:45:32:385 Nachm. 03/26/17 - $GPGSV,3,1,11,02,32,105,27,06,26,057,21,12,66,070,28,24,35,149,28*72

5:45:32:386 Nachm. 03/26/17 - $GPGSV,3,2,11,25,62,278,24,29,26,208,17,03,02,354,,14,31,296,*7A

5:45:32:387 Nachm. 03/26/17 - $GPGSV,3,3,11,19,09,043,,31,16,307,,32,33,267,*4C

5:45:32:388 Nachm. 03/26/17 - $GLGSV,3,1,10,82,66,087,27,73,56,314,15,80,65,099,19,79,07,116,16*68

5:45:32:394 Nachm. 03/26/17 - $GLGSV,3,2,10,65,06,007,17,83,34,178,29,81,26,032,14,74,00,302,*63

5:45:32:394 Nachm. 03/26/17 - $GLGSV,3,3,10,71,11,272,,72,18,322,*6A

5:45:32:395 Nachm. 03/26/17 - $GPGGA,154529.0,5208.443954,N,01138.448203,E,1,06,1.2,67.3,M,45.0,M,,*62

5:45:32:396 Nachm. 03/26/17 - $GNGNS,154529.0,5208.443954,N,01138.448203,E,AA,08,1.2,67.3,45.0,,*58

5:45:32:398 Nachm. 03/26/17 - $GPVTG,11.3,T,10.8,M,0.0,N,0.0,K,A*29

5:45:32:403 Nachm. 03/26/17 - $GPRMC,154529.0,A,5208.443954,N,01138.448203,E,0.0,11.3,260317,0.4,E,A*3B

5:45:32:404 Nachm. 03/26/17 - $GPGSA,A,2,02,06,12,24,25,29,,,,,,,1.5,1.2,0.9*30

5:45:32:404 Nachm. 03/26/17 - $GNGSA,A,2,02,06,12,24,25,29,,,,,,,1.5,1.2,0.9*2E

5:45:32:404 Nachm. 03/26/17 - $GNGSA,A,2,73,82,,,,,,,,,,,1.5,1.2,0.9*2D

5:45:33:386 Nachm. 03/26/17 - $GPGSV,3,1,11,02,32,105,25,06,26,057,21,12,66,070,29,24,35,149,26*7F

5:45:33:391 Nachm. 03/26/17 - $GPGSV,3,2,11,25,62,278,21,29,26,208,19,03,02,354,,14,31,296,*71

5:45:33:391 Nachm. 03/26/17 - $GPGSV,3,3,11,19,09,043,,31,16,307,,32,33,267,*4C

5:45:33:400 Nachm. 03/26/17 - $GLGSV,3,1,10,82,66,087,25,73,56,314,15,80,65,099,20,79,07,116,16*60

5:45:33:401 Nachm. 03/26/17 - $GLGSV,3,2,10,65,06,007,18,83,34,178,27,81,26,032,14,74,00,302,*62

5:45:33:404 Nachm. 03/26/17 - $GLGSV,3,3,10,71,11,272,,72,18,322,*6A

5:45:33:404 Nachm. 03/26/17 - $GPGGA,154530.0,5208.443953,N,01138.448201,E,1,06,1.2,67.3,M,45.0,M,,*6F

5:45:33:404 Nachm. 03/26/17 - $GNGNS,154530.0,5208.443953,N,01138.448201,E,AA,08,1.2,67.3,45.0,,*55

5:45:33:405 Nachm. 03/26/17 - $GPVTG,11.3,T,10.8,M,0.0,N,0.0,K,A*29

5:45:33:405 Nachm. 03/26/17 - $GPRMC,154530.0,A,5208.443953,N,01138.448201,E,0.0,11.3,260317,0.4,E,A*36

5:45:33:405 Nachm. 03/26/17 - $GPGSA,A,2,02,06,12,24,25,29,,,,,,,1.5,1.2,0.9*30

5:45:33:405 Nachm. 03/26/17 - $GNGSA,A,2,02,06,12,24,25,29,,,,,,,1.5,1.2,0.9*2E

5:45:33:405 Nachm. 03/26/17 - $GNGSA,A,2,73,82,,,,,,,,,,,1.5,1.2,0.9*2D

5:45:34:386 Nachm. 03/26/17 - $GPGSV,3,1,11,02,32,105,18,06,26,057,20,12,66,070,30,24,35,149,23*7D

5:45:34:387 Nachm. 03/26/17 - $GPGSV,3,2,11,25,62,278,20,29,26,208,19,03,02,354,,14,31,296,*70

5:45:34:387 Nachm. 03/26/17 - $GPGSV,3,3,11,19,09,043,,31,16,307,,32,33,267,*4C

5:45:34:395 Nachm. 03/26/17 - $GLGSV,3,1,10,82,66,087,20,73,56,314,16,80,65,099,19,79,07,116,16*6C

5:45:34:396 Nachm. 03/26/17 - $GLGSV,3,2,10,65,06,007,19,83,34,178,24,81,26,032,14,74,00,302,*60

5:45:34:396 Nachm. 03/26/17 - $GLGSV,3,3,10,71,11,272,,72,18,322,*6A

5:45:34:396 Nachm. 03/26/17 - $GPGGA,154531.0,5208.443949,N,01138.448207,E,1,06,1.2,67.3,M,45.0,M,,*63

5:45:34:397 Nachm. 03/26/17 - $GNGNS,154531.0,5208.443949,N,01138.448207,E,AA,08,1.2,67.3,45.0,,*59

5:45:34:397 Nachm. 03/26/17 - $GPVTG,11.3,T,10.8,M,0.0,N,0.0,K,A*29

5:45:34:397 Nachm. 03/26/17 - $GPRMC,154531.0,A,5208.443949,N,01138.448207,E,0.0,11.3,260317,0.4,E,A*3A

5:45:34:397 Nachm. 03/26/17 - $GPGSA,A,2,02,06,12,24,25,29,,,,,,,1.5,1.2,0.9*30

5:45:34:398 Nachm. 03/26/17 - $GNGSA,A,2,02,06,12,24,25,29,,,,,,,1.5,1.2,0.9*2E

5:45:34:398 Nachm. 03/26/17 - $GNGSA,A,2,73,82,,,,,,,,,,,1.5,1.2,0.9*2D

5:45:35:387 Nachm. 03/26/17 - $GPGSV,3,1,11,02,32,105,25,06,26,057,20,12,66,070,30,24,35,149,26*76

5:45:35:388 Nachm. 03/26/17 - $GPGSV,3,2,11,25,62,278,22,29,26,208,19,03,02,354,,14,31,296,*72

5:45:35:388 Nachm. 03/26/17 - $GPGSV,3,3,11,19,09,043,,31,16,307,,32,33,267,*4C

5:45:35:392 Nachm. 03/26/17 - $GLGSV,3,1,10,82,66,087,22,73,56,314,20,80,65,099,22,79,07,116,14*61

5:45:35:406 Nachm. 03/26/17 - $GLGSV,3,2,10,65,06,007,19,83,34,178,21,81,26,032,14,74,00,302,*65

5:45:35:407 Nachm. 03/26/17 - $GLGSV,3,3,10,71,11,272,,72,18,322,*6A

5:45:35:407 Nachm. 03/26/17 - $GPGGA,154532.0,5208.443900,N,01138.448325,E,1,06,1.2,67.4,M,45.0,M,,*6B

5:45:35:407 Nachm. 03/26/17 - $GNGNS,154532.0,5208.443900,N,01138.448325,E,AA,08,1.2,67.4,45.0,,*51

5:45:35:408 Nachm. 03/26/17 - $GPVTG,11.3,T,10.8,M,0.0,N,0.0,K,A*29

5:45:35:408 Nachm. 03/26/17 - $GPRMC,154532.0,A,5208.443900,N,01138.448325,E,0.0,11.3,260317,0.4,E,A*35

5:45:35:408 Nachm. 03/26/17 - $GPGSA,A,2,02,06,12,24,25,29,,,,,,,1.5,1.2,0.9*30

5:45:35:408 Nachm. 03/26/17 - $GNGSA,A,2,02,06,12,24,25,29,,,,,,,1.5,1.2,0.9*2E

5:45:35:410 Nachm. 03/26/17 - $GNGSA,A,2,73,82,,,,,,,,,,,1.5,1.2,0.9*2D


