6:57:26:753 Nachm. 03/07/17 - $GPGSV,3,1,10,02,38,075,24,06,16,036,28,12,45,090,26,14,27,268,18*73

6:57:26:755 Nachm. 03/07/17 - $GPGSV,3,2,10,24,10,153,12,25,84,354,30,29,52,215,17,31,38,302,30*77

6:57:26:756 Nachm. 03/07/17 - $GPGSV,3,3,10,32,18,243,18,26,,,*48

6:57:26:762 Nachm. 03/07/17 - $GLGSV,3,1,10,78,75,326,24,70,12,350,16,77,42,129,16,79,32,314,10*6C

6:57:26:766 Nachm. 03/07/17 - $GLGSV,3,2,10,88,65,180,18,87,,,29,81,14,203,25,86,01,030,*54

6:57:26:766 Nachm. 03/07/17 - $GLGSV,3,3,10,69,06,296,,71,01,035,*61

6:57:26:767 Nachm. 03/07/17 - $GPGGA,175721.0,5208.390697,N,01138.673279,E,1,09,0.7,59.3,M,45.0,M,,*63

6:57:26:767 Nachm. 03/07/17 - $GNGNS,175721.0,5208.390697,N,01138.673279,E,AA,14,0.7,59.3,45.0,,*5B

6:57:26:768 Nachm. 03/07/17 - $GPVTG,296.4,T,295.9,M,0.0,N,0.0,K,A*2D

6:57:26:769 Nachm. 03/07/17 - $GPRMC,175721.0,A,5208.390697,N,01138.673279,E,0.0,296.4,070317,0.4,E,A*05

6:57:26:769 Nachm. 03/07/17 - $GPGSA,A,2,02,06,12,14,24,25,29,31,32,,,,1.0,0.7,0.7*39

6:57:26:770 Nachm. 03/07/17 - $GNGSA,A,2,02,06,12,14,24,25,29,31,32,,,,1.0,0.7,0.7*27

6:57:26:770 Nachm. 03/07/17 - $GNGSA,A,2,77,78,79,81,88,,,,,,,,1.0,0.7,0.7*24

6:57:27:753 Nachm. 03/07/17 - $GPGSV,3,1,10,02,38,075,23,06,16,036,27,12,45,090,26,14,27,268,19*7A

6:57:27:755 Nachm. 03/07/17 - $GPGSV,3,2,10,24,10,153,12,25,84,354,30,31,38,302,31,32,18,243,18*7E

6:57:27:771 Nachm. 03/07/17 - $GPGSV,3,3,10,26,,,,29,52,215,*46

6:57:27:772 Nachm. 03/07/17 - $GLGSV,3,1,10,78,75,326,23,70,12,350,16,77,42,129,16,79,32,314,10*6B

6:57:27:773 Nachm. 03/07/17 - $GLGSV,3,2,10,88,65,180,19,87,,,29,81,14,203,23,86,01,030,*53

6:57:27:783 Nachm. 03/07/17 - $GLGSV,3,3,10,69,06,296,,71,01,035,*61

6:57:27:784 Nachm. 03/07/17 - $GPGGA,175722.0,5208.390956,N,01138.673546,E,1,09,0.7,59.4,M,45.0,M,,*6E

6:57:27:785 Nachm. 03/07/17 - $GNGNS,175722.0,5208.390956,N,01138.673546,E,AA,14,0.7,59.4,45.0,,*56

6:57:27:785 Nachm. 03/07/17 - $GPVTG,296.4,T,295.9,M,0.0,N,0.0,K,A*2D

6:57:27:786 Nachm. 03/07/17 - $GPRMC,175722.0,A,5208.390956,N,01138.673546,E,0.0,296.4,070317,0.4,E,A*0F

6:57:27:787 Nachm. 03/07/17 - $GPGSA,A,2,02,06,12,14,24,25,29,31,32,,,,1.0,0.7,0.7*39

6:57:27:788 Nachm. 03/07/17 - $GNGSA,A,2,02,06,12,14,24,25,29,31,32,,,,1.0,0.7,0.7*27

6:57:27:790 Nachm. 03/07/17 - $GNGSA,A,2,77,78,79,81,88,,,,,,,,1.0,0.7,0.7*24

6:57:28:752 Nachm. 03/07/17 - $GPGSV,3,1,10,02,38,075,21,06,16,036,24,12,45,090,23,14,27,268,22*76

6:57:28:758 Nachm. 03/07/17 - $GPGSV,3,2,10,24,10,153,12,25,84,354,31,31,38,302,31,32,18,243,16*71

6:57:28:763 Nachm. 03/07/17 - $GPGSV,3,3,10,26,,,,29,52,215,*46

6:57:28:764 Nachm. 03/07/17 - $GLGSV,3,1,10,78,75,326,22,70,12,350,16,77,42,129,16,79,32,314,10*6A

6:57:28:768 Nachm. 03/07/17 - $GLGSV,3,2,10,88,65,180,21,87,,,30,81,14,203,19,86,01,030,*59

6:57:28:771 Nachm. 03/07/17 - $GLGSV,3,3,10,69,06,296,,71,01,035,*61

6:57:28:771 Nachm. 03/07/17 - $GPGGA,175723.0,5208.391009,N,01138.673606,E,1,08,0.8,59.6,M,45.0,M,,*66

6:57:28:772 Nachm. 03/07/17 - $GNGNS,175723.0,5208.391009,N,01138.673606,E,AA,13,0.8,59.6,45.0,,*58

6:57:28:772 Nachm. 03/07/17 - $GPVTG,296.4,T,295.9,M,0.0,N,0.0,K,A*2D

6:57:28:772 Nachm. 03/07/17 - $GPRMC,175723.0,A,5208.391009,N,01138.673606,E,0.0,296.4,070317,0.4,E,A*0B

6:57:28:772 Nachm. 03/07/17 - $GPGSA,A,2,02,06,12,14,24,25,31,32,,,,,1.1,0.8,0.8*33

6:57:28:772 Nachm. 03/07/17 - $GNGSA,A,2,02,06,12,14,24,25,31,32,,,,,1.1,0.8,0.8*2D

6:57:28:773 Nachm. 03/07/17 - $GNGSA,A,2,77,78,79,81,88,,,,,,,,1.1,0.8,0.8*25

6:57:29:751 Nachm. 03/07/17 - $GPGSV,3,1,10,02,38,075,17,06,16,036,26,12,45,090,19,14,27,268,26*7C

6:57:29:754 Nachm. 03/07/17 - $GPGSV,3,2,10,24,10,153,14,25,84,354,29,29,52,215,24,31,38,302,30*79

6:57:29:754 Nachm. 03/07/17 - $GPGSV,3,3,10,32,18,243,23,26,,,*40

6:57:29:764 Nachm. 03/07/17 - $GLGSV,3,1,10,78,75,326,19,70,12,350,16,77,42,129,16,79,32,314,10*62

6:57:29:765 Nachm. 03/07/17 - $GLGSV,3,2,10,88,65,180,20,87,,,26,81,14,203,19,86,01,030,*5F

6:57:29:765 Nachm. 03/07/17 - $GLGSV,3,3,10,69,06,296,,71,01,035,*61

6:57:29:766 Nachm. 03/07/17 - $GPGGA,175724.0,5208.391000,N,01138.673320,E,1,09,0.7,59.5,M,45.0,M,,*64

6:57:29:766 Nachm. 03/07/17 - $GNGNS,175724.0,5208.391000,N,01138.673320,E,AA,14,0.7,59.5,45.0,,*5C

6:57:29:767 Nachm. 03/07/17 - $GPVTG,296.4,T,295.9,M,1.1,N,2.0,K,A*2F

6:57:29:767 Nachm. 03/07/17 - $GPRMC,175724.0,A,5208.391000,N,01138.673320,E,1.1,296.4,070317,0.4,E,A*04

6:57:29:768 Nachm. 03/07/17 - $GPGSA,A,2,02,06,12,14,24,25,29,31,32,,,,1.0,0.7,0.7*39

6:57:29:768 Nachm. 03/07/17 - $GNGSA,A,2,02,06,12,14,24,25,29,31,32,,,,1.0,0.7,0.7*27

6:57:29:769 Nachm. 03/07/17 - $GNGSA,A,2,77,78,79,81,88,,,,,,,,1.0,0.7,0.7*24

6:57:30:752 Nachm. 03/07/17 - $GPGSV,3,1,10,02,38,075,22,06,16,036,26,12,45,090,24,14,27,268,25*77

6:57:30:756 Nachm. 03/07/17 - $GPGSV,3,2,10,24,10,153,14,25,84,357,31,29,52,215,25,31,38,302,27*74

6:57:30:757 Nachm. 03/07/17 - $GPGSV,3,3,10,32,18,243,25,26,,,*46

6:57:30:769 Nachm. 03/07/17 - $GLGSV,3,1,10,78,75,326,21,70,12,350,16,77,42,129,16,79,32,314,12*6B

6:57:30:775 Nachm. 03/07/17 - $GLGSV,3,2,10,88,65,180,20,87,,,30,81,14,203,22,86,01,030,*50

6:57:30:776 Nachm. 03/07/17 - $GLGSV,3,3,10,69,06,296,,71,01,035,*61

6:57:30:781 Nachm. 03/07/17 - $GPGGA,175725.0,5208.391208,N,01138.672726,E,1,09,0.8,59.5,M,45.0,M,,*63

6:57:30:781 Nachm. 03/07/17 - $GNGNS,175725.0,5208.391208,N,01138.672726,E,AA,13,0.8,59.5,45.0,,*5C

6:57:30:782 Nachm. 03/07/17 - $GPVTG,283.8,T,283.4,M,1.6,N,3.0,K,A*2B

6:57:30:782 Nachm. 03/07/17 - $GPRMC,175725.0,A,5208.391208,N,01138.672726,E,1.6,283.8,070317,0.4,E,A*03

6:57:30:783 Nachm. 03/07/17 - $GPGSA,A,2,02,06,12,14,24,25,29,31,32,,,,1.1,0.8,0.7*37

6:57:30:783 Nachm. 03/07/17 - $GNGSA,A,2,02,06,12,14,24,25,29,31,32,,,,1.1,0.8,0.7*29

6:57:30:784 Nachm. 03/07/17 - $GNGSA,A,2,78,79,81,88,,,,,,,,,1.1,0.8,0.7*2A

6:57:31:751 Nachm. 03/07/17 - $GPGSV,3,1,10,02,38,075,21,06,16,036,27,12,45,090,18,14,27,268,19*75

6:57:31:753 Nachm. 03/07/17 - $GPGSV,3,2,10,24,10,153,17,25,84,357,23,29,52,215,23,31,38,302,26*73

6:57:31:755 Nachm. 03/07/17 - $GPGSV,3,3,10,32,18,243,24,26,,,*47

6:57:31:756 Nachm. 03/07/17 - $GLGSV,3,1,10,78,75,326,21,70,12,350,16,77,42,129,13,79,32,314,12*6E

6:57:31:757 Nachm. 03/07/17 - $GLGSV,3,2,10,88,65,180,20,87,,,26,81,14,203,22,86,01,030,*57

6:57:31:769 Nachm. 03/07/17 - $GLGSV,3,3,10,69,06,296,,71,01,035,*61

6:57:31:770 Nachm. 03/07/17 - $GPGGA,175726.0,5208.391538,N,01138.672709,E,1,09,0.7,58.8,M,45.0,M,,*6A

6:57:31:771 Nachm. 03/07/17 - $GNGNS,175726.0,5208.391538,N,01138.672709,E,AA,14,0.7,58.8,45.0,,*52

6:57:31:772 Nachm. 03/07/17 - $GPVTG,283.8,T,283.4,M,1.7,N,3.1,K,A*2B

6:57:31:772 Nachm. 03/07/17 - $GPRMC,175726.0,A,5208.391538,N,01138.672709,E,1.7,283.8,070317,0.4,E,A*08

6:57:31:773 Nachm. 03/07/17 - $GPGSA,A,2,02,06,12,14,24,25,29,31,32,,,,1.0,0.7,0.7*39

6:57:31:774 Nachm. 03/07/17 - $GNGSA,A,2,02,06,12,14,24,25,29,31,32,,,,1.0,0.7,0.7*27

6:57:31:774 Nachm. 03/07/17 - $GNGSA,A,2,77,78,79,81,88,,,,,,,,1.0,0.7,0.7*24

6:57:32:751 Nachm. 03/07/17 - $GPGSV,3,1,10,02,38,075,21,06,16,036,27,12,45,090,25,14,27,268,23*72

6:57:32:756 Nachm. 03/07/17 - $GPGSV,3,2,10,24,10,153,17,25,84,357,21,29,52,215,23,31,38,302,29*7E

6:57:32:762 Nachm. 03/07/17 - $GPGSV,3,3,10,32,18,243,23,26,,,*40

6:57:32:765 Nachm. 03/07/17 - $GLGSV,3,1,10,78,75,326,21,70,12,350,16,77,42,129,13,79,32,314,12*6E

6:57:32:766 Nachm. 03/07/17 - $GLGSV,3,2,10,88,65,180,20,87,,,23,81,14,203,22,86,01,030,*52

6:57:32:779 Nachm. 03/07/17 - $GLGSV,3,3,10,69,06,296,,71,01,035,*61

6:57:32:780 Nachm. 03/07/17 - $GPGGA,175727.0,5208.391979,N,01138.672330,E,1,09,0.7,59.4,M,45.0,M,,*61

6:57:32:781 Nachm. 03/07/17 - $GNGNS,175727.0,5208.391979,N,01138.672330,E,AA,14,0.7,59.4,45.0,,*59

6:57:32:782 Nachm. 03/07/17 - $GPVTG,276.8,T,276.4,M,2.5,N,4.7,K,A*2B

6:57:32:783 Nachm. 03/07/17 - $GPRMC,175727.0,A,5208.391979,N,01138.672330,E,2.5,276.8,070317,0.4,E,A*05

6:57:32:783 Nachm. 03/07/17 - $GPGSA,A,2,02,06,12,14,24,25,29,31,32,,,,1.0,0.7,0.7*39

6:57:32:785 Nachm. 03/07/17 - $GNGSA,A,2,02,06,12,14,24,25,29,31,32,,,,1.0,0.7,0.7*27

6:57:32:785 Nachm. 03/07/17 - $GNGSA,A,2,77,78,79,81,88,,,,,,,,1.0,0.7,0.7*24

6:57:33:751 Nachm. 03/07/17 - $GPGSV,3,1,10,02,38,075,21,06,16,036,27,12,45,090,19,14,27,268,28*76

6:57:33:751 Nachm. 03/07/17 - $GPGSV,3,2,10,24,10,153,17,25,84,357,22,29,52,215,28,31,38,302,33*7D

6:57:33:752 Nachm. 03/07/17 - $GPGSV,3,3,10,32,18,243,27,26,,,*44

6:57:33:754 Nachm. 03/07/17 - $GLGSV,3,1,10,78,75,326,21,70,12,350,16,77,42,129,13,79,32,314,12*6E

6:57:33:762 Nachm. 03/07/17 - $GLGSV,3,2,10,88,65,180,14,87,,,23,81,14,203,16,86,01,030,*52

6:57:33:763 Nachm. 03/07/17 - $GLGSV,3,3,10,69,06,296,,71,01,035,*61

6:57:33:764 Nachm. 03/07/17 - $GPGGA,175728.0,5208.391569,N,01138.671529,E,1,09,0.7,58.8,M,45.0,M,,*63

6:57:33:771 Nachm. 03/07/17 - $GNGNS,175728.0,5208.391569,N,01138.671529,E,AA,14,0.7,58.8,45.0,,*5B

6:57:33:772 Nachm. 03/07/17 - $GPVTG,278.0,T,277.6,M,2.0,N,3.7,K,A*2C

6:57:33:772 Nachm. 03/07/17 - $GPRMC,175728.0,A,5208.391569,N,01138.671529,E,2.0,278.0,070317,0.4,E,A*09

6:57:33:773 Nachm. 03/07/17 - $GPGSA,A,2,02,06,12,14,24,25,29,31,32,,,,1.0,0.7,0.7*39

6:57:33:773 Nachm. 03/07/17 - $GNGSA,A,2,02,06,12,14,24,25,29,31,32,,,,1.0,0.7,0.7*27

6:57:33:774 Nachm. 03/07/17 - $GNGSA,A,2,77,78,79,81,88,,,,,,,,1.0,0.7,0.7*24

6:57:34:752 Nachm. 03/07/17 - $GPGSV,3,1,10,02,38,075,17,06,16,036,28,12,45,090,17,14,27,268,29*73

6:57:34:754 Nachm. 03/07/17 - $GPGSV,3,2,10,24,10,153,20,25,84,357,24,29,52,215,27,31,38,302,35*76

6:57:34:761 Nachm. 03/07/17 - $GPGSV,3,3,10,32,18,243,25,26,,,*46

6:57:34:764 Nachm. 03/07/17 - $GLGSV,3,1,10,78,75,326,13,70,12,350,16,77,42,129,13,79,32,314,12*6F

6:57:34:765 Nachm. 03/07/17 - $GLGSV,3,2,10,88,65,180,14,87,,,21,81,14,203,18,86,01,030,*5E

6:57:34:776 Nachm. 03/07/17 - $GLGSV,3,3,10,69,06,296,,71,01,035,*61

6:57:34:776 Nachm. 03/07/17 - $GPGGA,175729.0,5208.391406,N,01138.670929,E,1,09,0.7,58.0,M,45.0,M,,*6F

6:57:34:776 Nachm. 03/07/17 - $GNGNS,175729.0,5208.391406,N,01138.670929,E,AA,14,0.7,58.0,45.0,,*57

6:57:34:776 Nachm. 03/07/17 - $GPVTG,287.0,T,286.6,M,2.5,N,4.6,K,A*21

6:57:34:777 Nachm. 03/07/17 - $GPRMC,175729.0,A,5208.391406,N,01138.670929,E,2.5,287.0,070317,0.4,E,A*08

6:57:34:777 Nachm. 03/07/17 - $GPGSA,A,2,02,06,12,14,24,25,29,31,32,,,,1.0,0.7,0.7*39

6:57:34:777 Nachm. 03/07/17 - $GNGSA,A,2,02,06,12,14,24,25,29,31,32,,,,1.0,0.7,0.7*27

6:57:34:777 Nachm. 03/07/17 - $GNGSA,A,2,77,78,79,81,88,,,,,,,,1.0,0.7,0.7*24

6:57:35:751 Nachm. 03/07/17 - $GPGSV,3,1,10,02,38,075,18,06,16,036,28,12,45,090,17,14,27,268,28*7D

6:57:35:751 Nachm. 03/07/17 - $GPGSV,3,2,10,24,10,153,18,25,84,357,25,29,52,215,28,31,38,302,36*70

6:57:35:752 Nachm. 03/07/17 - $GPGSV,3,3,10,32,18,243,26,26,,,*45

6:57:35:755 Nachm. 03/07/17 - $GLGSV,3,1,10,78,75,326,13,70,12,350,11,77,42,129,13,79,32,314,12*68

6:57:35:760 Nachm. 03/07/17 - $GLGSV,3,2,10,88,65,180,16,87,,,20,81,14,203,20,86,01,030,*56

6:57:35:762 Nachm. 03/07/17 - $GLGSV,3,3,10,69,06,296,,71,01,035,*61

6:57:35:762 Nachm. 03/07/17 - $GPGGA,175730.0,5208.391422,N,01138.670034,E,1,09,0.7,56.8,M,45.0,M,,*62

6:57:35:763 Nachm. 03/07/17 - $GNGNS,175730.0,5208.391422,N,01138.670034,E,AA,14,0.7,56.8,45.0,,*5A

6:57:35:763 Nachm. 03/07/17 - $GPVTG,276.5,T,276.1,M,2.6,N,4.8,K,A*2F

6:57:35:764 Nachm. 03/07/17 - $GPRMC,175730.0,A,5208.391422,N,01138.670034,E,2.6,276.5,070317,0.4,E,A*0B

6:57:35:765 Nachm. 03/07/17 - $GPGSA,A,2,02,06,12,14,24,25,29,31,32,,,,1.0,0.7,0.7*39

6:57:35:766 Nachm. 03/07/17 - $GNGSA,A,2,02,06,12,14,24,25,29,31,32,,,,1.0,0.7,0.7*27

6:57:35:766 Nachm. 03/07/17 - $GNGSA,A,2,77,78,79,81,88,,,,,,,,1.0,0.7,0.7*24

6:57:36:753 Nachm. 03/07/17 - $GPGSV,3,1,10,02,38,075,17,06,16,036,28,12,45,090,16,14,27,268,26*7D

6:57:36:755 Nachm. 03/07/17 - $GPGSV,3,2,10,24,10,153,18,25,84,357,24,29,52,215,29,31,38,302,37*71

6:57:36:755 Nachm. 03/07/17 - $GPGSV,3,3,10,32,18,243,24,26,,,*47

6:57:36:759 Nachm. 03/07/17 - $GLGSV,3,1,10,78,75,326,16,70,12,350,11,77,42,129,13,79,32,314,16*69

6:57:36:762 Nachm. 03/07/17 - $GLGSV,3,2,10,88,65,180,18,87,,,21,81,14,203,21,86,01,030,*58

6:57:36:768 Nachm. 03/07/17 - $GLGSV,3,3,10,69,06,296,,71,01,035,*61

6:57:36:769 Nachm. 03/07/17 - $GPGGA,175731.0,5208.391443,N,01138.668492,E,1,09,0.7,56.1,M,45.0,M,,*6C

6:57:36:770 Nachm. 03/07/17 - $GNGNS,175731.0,5208.391443,N,01138.668492,E,AA,14,0.7,56.1,45.0,,*54

6:57:36:770 Nachm. 03/07/17 - $GPVTG,280.7,T,280.3,M,2.7,N,5.0,K,A*27

6:57:36:771 Nachm. 03/07/17 - $GPRMC,175731.0,A,5208.391443,N,01138.668492,E,2.7,280.7,070317,0.4,E,A*06

6:57:36:771 Nachm. 03/07/17 - $GPGSA,A,2,02,06,12,14,24,25,29,31,32,,,,1.0,0.7,0.7*39

6:57:36:771 Nachm. 03/07/17 - $GNGSA,A,2,02,06,12,14,24,25,29,31,32,,,,1.0,0.7,0.7*27

6:57:36:772 Nachm. 03/07/17 - $GNGSA,A,2,77,78,79,81,88,,,,,,,,1.0,0.7,0.7*24

6:57:37:752 Nachm. 03/07/17 - $GPGSV,3,1,10,02,38,075,19,06,16,036,28,12,45,090,17,14,27,268,27*73

6:57:37:753 Nachm. 03/07/17 - $GPGSV,3,2,10,24,10,153,17,25,84,357,26,29,52,215,28,31,38,302,36*7C

6:57:37:753 Nachm. 03/07/17 - $GPGSV,3,3,10,32,18,243,26,26,,,*45

6:57:37:770 Nachm. 03/07/17 - $GLGSV,3,1,10,78,75,326,18,70,12,350,11,77,42,129,13,79,32,314,17*66

6:57:37:770 Nachm. 03/07/17 - $GLGSV,3,2,10,88,65,180,18,87,,,20,81,14,203,22,86,01,030,*5A

6:57:37:771 Nachm. 03/07/17 - $GLGSV,3,3,10,69,06,296,,71,01,035,*61

6:57:37:771 Nachm. 03/07/17 - $GPGGA,175732.0,5208.391201,N,01138.667322,E,1,09,0.8,56.1,M,45.0,M,,*63

6:57:37:772 Nachm. 03/07/17 - $GNGNS,175732.0,5208.391201,N,01138.667322,E,AA,12,0.8,56.1,45.0,,*5D

6:57:37:772 Nachm. 03/07/17 - $GPVTG,274.1,T,273.7,M,2.4,N,4.4,K,A*24

6:57:37:773 Nachm. 03/07/17 - $GPRMC,175732.0,A,5208.391201,N,01138.667322,E,2.4,274.1,070317,0.4,E,A*08

6:57:37:773 Nachm. 03/07/17 - $GPGSA,A,2,02,06,12,14,24,25,29,31,32,,,,1.1,0.8,0.8*38

6:57:37:774 Nachm. 03/07/17 - $GNGSA,A,2,02,06,12,14,24,25,29,31,32,,,,1.1,0.8,0.8*26

6:57:37:774 Nachm. 03/07/17 - $GNGSA,A,2,77,81,88,,,,,,,,,,1.1,0.8,0.8*24

6:57:38:751 Nachm. 03/07/17 - $GPGSV,3,1,10,02,38,075,19,06,16,036,29,12,45,090,17,14,27,268,26*73

6:57:38:753 Nachm. 03/07/17 - $GPGSV,3,2,10,24,10,153,17,25,84,357,25,29,52,215,29,31,38,302,36*7E

6:57:38:759 Nachm. 03/07/17 - $GPGSV,3,3,10,32,18,243,25,26,,,*46

6:57:38:761 Nachm. 03/07/17 - $GLGSV,3,1,10,78,75,326,18,70,12,350,13,77,42,129,13,79,32,314,16*65

6:57:38:762 Nachm. 03/07/17 - $GLGSV,3,2,10,88,65,180,17,87,,,19,81,14,203,23,86,01,030,*5E

6:57:38:772 Nachm. 03/07/17 - $GLGSV,3,3,10,69,06,296,,71,01,035,*61

6:57:38:777 Nachm. 03/07/17 - $GPGGA,175733.0,5208.391561,N,01138.666362,E,1,09,0.9,54.9,M,45.0,M,,*6D

6:57:38:777 Nachm. 03/07/17 - $GNGNS,175733.0,5208.391561,N,01138.666362,E,AA,11,0.9,54.9,45.0,,*50

6:57:38:778 Nachm. 03/07/17 - $GPVTG,277.1,T,276.7,M,2.5,N,4.6,K,A*21

6:57:38:778 Nachm. 03/07/17 - $GPRMC,175733.0,A,5208.391561,N,01138.666362,E,2.5,277.1,070317,0.4,E,A*0F

6:57:38:778 Nachm. 03/07/17 - $GPGSA,A,2,02,06,12,14,24,25,29,31,32,,,,1.2,0.9,0.8*3A

6:57:38:778 Nachm. 03/07/17 - $GNGSA,A,2,02,06,12,14,24,25,29,31,32,,,,1.2,0.9,0.8*24

6:57:38:778 Nachm. 03/07/17 - $GNGSA,A,2,81,88,,,,,,,,,,,1.2,0.9,0.8*26

6:57:39:750 Nachm. 03/07/17 - $GPGSV,3,1,10,02,38,075,18,06,16,036,28,12,45,090,18,14,27,268,27*7D

6:57:39:750 Nachm. 03/07/17 - $GPGSV,3,2,10,24,10,153,20,25,84,357,25,29,52,215,25,31,38,302,36*76

6:57:39:752 Nachm. 03/07/17 - $GPGSV,3,3,10,32,18,243,23,26,,,*40

6:57:39:756 Nachm. 03/07/17 - $GLGSV,3,1,10,78,75,326,16,70,12,350,13,77,42,129,13,79,32,314,16*6B

6:57:39:758 Nachm. 03/07/17 - $GLGSV,3,2,10,88,65,180,17,87,,,19,81,14,203,22,86,01,030,*5F

6:57:39:758 Nachm. 03/07/17 - $GLGSV,3,3,10,69,06,296,,71,01,035,*61

6:57:39:759 Nachm. 03/07/17 - $GPGGA,175734.0,5208.391601,N,01138.665377,E,1,08,0.9,53.9,M,45.0,M,,*6E

6:57:39:759 Nachm. 03/07/17 - $GNGNS,175734.0,5208.391601,N,01138.665377,E,AA,10,0.9,53.9,45.0,,*53

6:57:39:760 Nachm. 03/07/17 - $GPVTG,275.4,T,275.0,M,2.6,N,4.7,K,A*20

6:57:39:760 Nachm. 03/07/17 - $GPRMC,175734.0,A,5208.391601,N,01138.665377,E,2.6,275.4,070317,0.4,E,A*0E

6:57:39:761 Nachm. 03/07/17 - $GPGSA,A,2,06,12,14,24,25,29,31,32,,,,,1.2,0.9,0.8*38

6:57:39:761 Nachm. 03/07/17 - $GNGSA,A,2,06,12,14,24,25,29,31,32,,,,,1.2,0.9,0.8*26

6:57:39:761 Nachm. 03/07/17 - $GNGSA,A,2,81,88,,,,,,,,,,,1.2,0.9,0.8*26

6:57:40:750 Nachm. 03/07/17 - $GPGSV,3,1,10,02,38,075,19,06,16,036,27,12,45,090,19,14,27,268,29*7C

6:57:40:751 Nachm. 03/07/17 - $GPGSV,3,2,10,24,10,153,20,25,84,357,26,29,52,215,26,31,38,302,36*76

6:57:40:756 Nachm. 03/07/17 - $GPGSV,3,3,10,32,18,243,26,26,,,*45

6:57:40:758 Nachm. 03/07/17 - $GLGSV,3,1,10,78,75,326,18,70,12,350,13,77,42,129,13,79,32,314,16*65

6:57:40:758 Nachm. 03/07/17 - $GLGSV,3,2,10,88,65,180,15,87,,,19,81,14,203,22,86,01,030,*5D

6:57:40:759 Nachm. 03/07/17 - $GLGSV,3,3,10,69,06,296,,71,01,035,*61

6:57:40:759 Nachm. 03/07/17 - $GPGGA,175735.0,5208.391776,N,01138.664478,E,1,06,1.3,52.8,M,45.0,M,,*62

6:57:40:759 Nachm. 03/07/17 - $GNGNS,175735.0,5208.391776,N,01138.664478,E,AA,07,1.3,52.8,45.0,,*57

6:57:40:759 Nachm. 03/07/17 - $GPVTG,279.2,T,278.8,M,2.5,N,4.7,K,A*2C

6:57:40:760 Nachm. 03/07/17 - $GPRMC,175735.0,A,5208.391776,N,01138.664478,E,2.5,279.2,070317,0.4,E,A*0E

6:57:40:768 Nachm. 03/07/17 - $GPGSA,A,2,06,14,25,29,31,32,,,,,,,1.6,1.3,0.8*32

6:57:40:769 Nachm. 03/07/17 - $GNGSA,A,2,06,14,25,29,31,32,,,,,,,1.6,1.3,0.8*2C

6:57:40:770 Nachm. 03/07/17 - $GNGSA,A,2,81,,,,,,,,,,,,1.6,1.3,0.8*29

6:57:41:750 Nachm. 03/07/17 - $GPGSV,3,1,10,02,38,075,20,06,16,036,27,12,45,090,20,14,27,268,29*7C

6:57:41:751 Nachm. 03/07/17 - $GPGSV,3,2,10,24,10,153,17,25,84,357,24,29,52,215,29,31,38,302,36*7F

6:57:41:751 Nachm. 03/07/17 - $GPGSV,3,3,10,32,18,243,25,26,,,*46

6:57:41:753 Nachm. 03/07/17 - $GLGSV,3,1,10,78,75,326,18,70,12,350,14,77,42,129,13,79,32,314,16*62

6:57:41:754 Nachm. 03/07/17 - $GLGSV,3,2,10,88,65,180,15,87,,,19,81,14,203,23,86,01,030,*5C

6:57:41:757 Nachm. 03/07/17 - $GLGSV,3,3,10,69,06,296,,71,01,035,*61

6:57:41:757 Nachm. 03/07/17 - $GPGGA,175736.0,5208.392008,N,01138.663376,E,1,07,1.1,53.3,M,45.0,M,,*6B

6:57:41:758 Nachm. 03/07/17 - $GNGNS,175736.0,5208.392008,N,01138.663376,E,AA,08,1.1,53.3,45.0,,*50

6:57:41:758 Nachm. 03/07/17 - $GPVTG,281.1,T,280.7,M,2.8,N,5.2,K,A*29

6:57:41:759 Nachm. 03/07/17 - $GPRMC,175736.0,A,5208.392008,N,01138.663376,E,2.8,281.1,070317,0.4,E,A*07

6:57:41:759 Nachm. 03/07/17 - $GPGSA,A,2,06,12,14,25,29,31,32,,,,,,1.4,1.1,0.8*31

6:57:41:759 Nachm. 03/07/17 - $GNGSA,A,2,06,12,14,25,29,31,32,,,,,,1.4,1.1,0.8*2F

6:57:41:760 Nachm. 03/07/17 - $GNGSA,A,2,81,,,,,,,,,,,,1.4,1.1,0.8*29

6:57:42:753 Nachm. 03/07/17 - $GPGSV,3,1,10,02,38,075,18,06,16,036,27,12,45,090,19,14,27,268,28*7C

6:57:42:758 Nachm. 03/07/17 - $GPGSV,3,2,10,24,10,153,17,25,84,357,23,29,52,215,28,31,38,302,37*78

6:57:42:761 Nachm. 03/07/17 - $GPGSV,3,3,10,32,18,243,22,26,,,*41

6:57:42:767 Nachm. 03/07/17 - $GLGSV,3,1,10,78,75,326,17,70,12,350,14,77,42,129,13,79,32,314,18*63

6:57:42:768 Nachm. 03/07/17 - $GLGSV,3,2,10,88,65,180,15,87,,,18,81,14,203,29,86,01,030,*57

6:57:42:777 Nachm. 03/07/17 - $GLGSV,3,3,10,69,06,296,,71,01,035,*61

6:57:42:777 Nachm. 03/07/17 - $GPGGA,175737.0,5208.392630,N,01138.662181,E,1,07,1.1,53.8,M,45.0,M,,*67

6:57:42:777 Nachm. 03/07/17 - $GNGNS,175737.0,5208.392630,N,01138.662181,E,AA,08,1.1,53.8,45.0,,*5C

6:57:42:777 Nachm. 03/07/17 - $GPVTG,280.2,T,279.7,M,2.8,N,5.2,K,A*2D

6:57:42:777 Nachm. 03/07/17 - $GPRMC,175737.0,A,5208.392630,N,01138.662181,E,2.8,280.2,070317,0.4,E,A*02

6:57:42:778 Nachm. 03/07/17 - $GPGSA,A,2,06,12,14,25,29,31,32,,,,,,1.4,1.1,0.8*31

6:57:42:778 Nachm. 03/07/17 - $GNGSA,A,2,06,12,14,25,29,31,32,,,,,,1.4,1.1,0.8*2F

6:57:42:778 Nachm. 03/07/17 - $GNGSA,A,2,81,,,,,,,,,,,,1.4,1.1,0.8*29

6:57:43:752 Nachm. 03/07/17 - $GPGSV,3,1,10,02,38,075,20,06,16,036,28,12,45,090,20,14,27,268,26*7C

6:57:43:752 Nachm. 03/07/17 - $GPGSV,3,2,10,24,10,153,17,25,84,357,24,29,52,215,28,31,38,302,37*7F

6:57:43:755 Nachm. 03/07/17 - $GPGSV,3,3,10,32,18,243,22,26,,,*41

6:57:43:762 Nachm. 03/07/17 - $GLGSV,3,1,10,78,75,326,16,70,12,350,14,77,42,129,10,79,32,314,20*6A

6:57:43:762 Nachm. 03/07/17 - $GLGSV,3,2,10,88,65,180,18,87,,,18,81,14,203,24,86,01,030,*57

6:57:43:762 Nachm. 03/07/17 - $GLGSV,3,3,10,69,06,296,,71,01,035,*61

6:57:43:762 Nachm. 03/07/17 - $GPGGA,175738.0,5208.392914,N,01138.660730,E,1,07,1.1,53.9,M,45.0,M,,*6E

6:57:43:762 Nachm. 03/07/17 - $GNGNS,175738.0,5208.392914,N,01138.660730,E,AA,08,1.1,53.9,45.0,,*55

6:57:43:763 Nachm. 03/07/17 - $GPVTG,278.2,T,277.7,M,2.6,N,4.9,K,A*20

6:57:43:763 Nachm. 03/07/17 - $GPRMC,175738.0,A,5208.392914,N,01138.660730,E,2.6,278.2,070317,0.4,E,A*03

6:57:43:763 Nachm. 03/07/17 - $GPGSA,A,2,06,12,14,25,29,31,32,,,,,,1.4,1.1,0.8*31

6:57:43:763 Nachm. 03/07/17 - $GNGSA,A,2,06,12,14,25,29,31,32,,,,,,1.4,1.1,0.8*2F

6:57:43:764 Nachm. 03/07/17 - $GNGSA,A,2,81,,,,,,,,,,,,1.4,1.1,0.8*29

6:57:44:752 Nachm. 03/07/17 - $GPGSV,3,1,10,02,38,075,20,06,16,036,26,12,45,090,20,14,27,268,24*70

6:57:44:755 Nachm. 03/07/17 - $GPGSV,3,2,10,24,10,153,18,25,84,357,26,29,52,215,27,31,38,302,35*7F

6:57:44:756 Nachm. 03/07/17 - $GPGSV,3,3,10,32,18,243,19,26,,,*49

6:57:44:759 Nachm. 03/07/17 - $GLGSV,3,1,10,78,75,326,16,70,12,350,13,77,42,129,10,79,32,314,19*67

6:57:44:760 Nachm. 03/07/17 - $GLGSV,3,2,10,88,65,180,17,87,,,21,81,14,203,27,86,01,030,*51

6:57:44:772 Nachm. 03/07/17 - $GLGSV,3,3,10,69,06,296,,71,01,035,*61

6:57:44:774 Nachm. 03/07/17 - $GPGGA,175739.0,5208.392551,N,01138.659418,E,1,07,1.1,52.4,M,45.0,M,,*6D

6:57:44:775 Nachm. 03/07/17 - $GNGNS,175739.0,5208.392551,N,01138.659418,E,AA,08,1.1,52.4,45.0,,*56

6:57:44:776 Nachm. 03/07/17 - $GPVTG,277.8,T,277.4,M,2.8,N,5.1,K,A*21

6:57:44:776 Nachm. 03/07/17 - $GPRMC,175739.0,A,5208.392551,N,01138.659418,E,2.8,277.8,070317,0.4,E,A*07

6:57:44:777 Nachm. 03/07/17 - $GPGSA,A,2,06,12,14,25,29,31,32,,,,,,1.4,1.1,0.8*31

6:57:44:778 Nachm. 03/07/17 - $GNGSA,A,2,06,12,14,25,29,31,32,,,,,,1.4,1.1,0.8*2F

6:57:44:786 Nachm. 03/07/17 - $GNGSA,A,2,81,,,,,,,,,,,,1.4,1.1,0.8*29

6:57:45:751 Nachm. 03/07/17 - $GPGSV,3,1,10,02,38,075,19,06,16,036,18,12,45,090,20,14,27,268,21*72

6:57:45:753 Nachm. 03/07/17 - $GPGSV,3,2,10,24,10,153,19,25,84,357,24,29,52,215,23,31,38,302,35*78

6:57:45:762 Nachm. 03/07/17 - $GPGSV,3,3,10,32,18,243,22,26,,,*41

6:57:45:770 Nachm. 03/07/17 - $GLGSV,3,1,10,78,75,326,16,70,12,350,16,77,42,129,10,79,32,314,21*69

6:57:45:771 Nachm. 03/07/17 - $GLGSV,3,2,10,88,65,180,17,87,,,21,81,14,203,25,86,01,030,*53

6:57:45:773 Nachm. 03/07/17 - $GLGSV,3,3,10,69,06,296,,71,01,035,*61

6:57:45:774 Nachm. 03/07/17 - $GPGGA,175740.0,5208.393173,N,01138.657905,E,1,09,0.8,53.7,M,45.0,M,,*6D

6:57:45:776 Nachm. 03/07/17 - $GNGNS,175740.0,5208.393173,N,01138.657905,E,AA,12,0.8,53.7,45.0,,*53

6:57:45:777 Nachm. 03/07/17 - $GPVTG,282.3,T,281.9,M,2.9,N,5.4,K,A*20

6:57:45:779 Nachm. 03/07/17 - $GPRMC,175740.0,A,5208.393173,N,01138.657905,E,2.9,282.3,070317,0.4,E,A*03

6:57:45:781 Nachm. 03/07/17 - $GPGSA,A,2,02,06,12,14,24,25,29,31,32,,,,1.1,0.8,0.8*38

6:57:45:781 Nachm. 03/07/17 - $GNGSA,A,2,02,06,12,14,24,25,29,31,32,,,,1.1,0.8,0.8*26

6:57:45:782 Nachm. 03/07/17 - $GNGSA,A,2,78,79,81,,,,,,,,,,1.1,0.8,0.8*25

6:57:46:755 Nachm. 03/07/17 - $GPGSV,3,1,10,02,38,075,18,06,16,036,18,12,45,090,19,14,27,268,22*7A

6:57:46:756 Nachm. 03/07/17 - $GPGSV,3,2,10,24,10,153,19,25,84,357,23,29,52,215,24,31,38,302,37*7A

6:57:46:757 Nachm. 03/07/17 - $GPGSV,3,3,10,32,18,243,28,26,,,*4B

6:57:46:761 Nachm. 03/07/17 - $GLGSV,3,1,10,78,75,326,18,70,12,350,18,77,42,129,10,79,32,314,24*6C

6:57:46:763 Nachm. 03/07/17 - $GLGSV,3,2,10,88,65,180,17,87,,,19,81,14,203,26,86,01,030,*5B

6:57:46:774 Nachm. 03/07/17 - $GLGSV,3,3,10,69,06,296,,71,01,035,*61

6:57:46:775 Nachm. 03/07/17 - $GPGGA,175741.0,5208.392860,N,01138.656741,E,1,09,0.8,54.1,M,45.0,M,,*68

6:57:46:775 Nachm. 03/07/17 - $GNGNS,175741.0,5208.392860,N,01138.656741,E,AA,12,0.8,54.1,45.0,,*56

6:57:46:776 Nachm. 03/07/17 - $GPVTG,268.8,T,268.3,M,2.9,N,5.3,K,A*25

6:57:46:776 Nachm. 03/07/17 - $GPRMC,175741.0,A,5208.392860,N,01138.656741,E,2.9,268.8,070317,0.4,E,A*08

6:57:46:776 Nachm. 03/07/17 - $GPGSA,A,2,02,06,12,14,24,25,29,31,32,,,,1.1,0.8,0.8*38

6:57:46:776 Nachm. 03/07/17 - $GNGSA,A,2,02,06,12,14,24,25,29,31,32,,,,1.1,0.8,0.8*26

6:57:46:776 Nachm. 03/07/17 - $GNGSA,A,2,78,79,81,,,,,,,,,,1.1,0.8,0.8*25

6:57:47:750 Nachm. 03/07/17 - $GPGSV,3,1,10,02,38,075,16,06,16,036,18,12,45,090,17,14,27,268,20*78

6:57:47:756 Nachm. 03/07/17 - $GPGSV,3,2,10,24,10,153,21,25,84,357,24,29,52,215,30,31,38,302,37*73

6:57:47:758 Nachm. 03/07/17 - $GPGSV,3,3,10,32,18,243,29,26,,,*4A

6:57:47:771 Nachm. 03/07/17 - $GLGSV,3,1,10,78,75,326,18,70,12,350,18,77,42,129,10,79,32,314,25*6D

6:57:47:773 Nachm. 03/07/17 - $GLGSV,3,2,10,88,65,180,14,87,,,20,81,14,203,26,86,01,030,*52

6:57:47:776 Nachm. 03/07/17 - $GLGSV,3,3,10,69,06,296,,71,01,035,*61

6:57:47:778 Nachm. 03/07/17 - $GPGGA,175742.0,5208.392846,N,01138.655436,E,1,09,0.8,54.8,M,45.0,M,,*66

6:57:47:779 Nachm. 03/07/17 - $GNGNS,175742.0,5208.392846,N,01138.655436,E,AA,12,0.8,54.8,45.0,,*58

6:57:47:780 Nachm. 03/07/17 - $GPVTG,266.7,T,266.3,M,3.0,N,5.5,K,A*24

6:57:47:781 Nachm. 03/07/17 - $GPRMC,175742.0,A,5208.392846,N,01138.655436,E,3.0,266.7,070317,0.4,E,A*06

6:57:47:781 Nachm. 03/07/17 - $GPGSA,A,2,02,06,12,14,24,25,29,31,32,,,,1.1,0.8,0.8*38

6:57:47:782 Nachm. 03/07/17 - $GNGSA,A,2,02,06,12,14,24,25,29,31,32,,,,1.1,0.8,0.8*26

6:57:47:782 Nachm. 03/07/17 - $GNGSA,A,2,78,79,81,,,,,,,,,,1.1,0.8,0.8*25

6:57:48:752 Nachm. 03/07/17 - $GPGSV,3,1,10,02,38,075,18,06,16,036,18,12,45,090,20,14,27,268,24*76

6:57:48:752 Nachm. 03/07/17 - $GPGSV,3,2,10,24,10,153,19,25,84,357,24,29,52,215,26,31,38,302,35*7D

6:57:48:753 Nachm. 03/07/17 - $GPGSV,3,3,10,32,18,243,26,26,,,*45

6:57:48:755 Nachm. 03/07/17 - $GLGSV,3,1,10,78,75,326,15,70,12,350,15,77,42,129,10,79,32,314,25*6D

6:57:48:761 Nachm. 03/07/17 - $GLGSV,3,2,10,88,65,180,17,87,,,21,81,14,203,27,86,01,030,*51

6:57:48:763 Nachm. 03/07/17 - $GLGSV,3,3,10,69,06,296,,71,01,035,*61

6:57:48:774 Nachm. 03/07/17 - $GPGGA,175743.0,5208.393315,N,01138.652967,E,1,09,0.8,56.2,M,45.0,M,,*6D

6:57:48:778 Nachm. 03/07/17 - $GNGNS,175743.0,5208.393315,N,01138.652967,E,AA,13,0.8,56.2,45.0,,*52

6:57:48:780 Nachm. 03/07/17 - $GPVTG,270.1,T,269.6,M,3.3,N,6.1,K,A*2B

6:57:48:781 Nachm. 03/07/17 - $GPRMC,175743.0,A,5208.393315,N,01138.652967,E,3.3,270.1,070317,0.4,E,A*07

6:57:48:782 Nachm. 03/07/17 - $GPGSA,A,2,02,06,12,14,24,25,29,31,32,,,,1.1,0.8,0.7*37

6:57:48:783 Nachm. 03/07/17 - $GNGSA,A,2,02,06,12,14,24,25,29,31,32,,,,1.1,0.8,0.7*29

6:57:48:784 Nachm. 03/07/17 - $GNGSA,A,2,78,79,81,88,,,,,,,,,1.1,0.8,0.7*2A

6:57:49:753 Nachm. 03/07/17 - $GPGSV,3,1,10,02,38,075,19,06,16,036,18,12,45,090,17,14,27,268,17*73

6:57:49:754 Nachm. 03/07/17 - $GPGSV,3,2,10,24,10,153,21,25,84,357,22,29,52,215,27,31,38,302,36*72

6:57:49:754 Nachm. 03/07/17 - $GPGSV,3,3,10,32,18,243,25,26,,,*46

6:57:49:756 Nachm. 03/07/17 - $GLGSV,3,1,10,78,75,326,15,70,12,350,17,77,42,129,10,79,32,314,25*6F

6:57:49:757 Nachm. 03/07/17 - $GLGSV,3,2,10,88,65,180,17,87,,,21,81,14,203,30,86,01,030,*57

6:57:49:765 Nachm. 03/07/17 - $GLGSV,3,3,10,69,06,296,,71,01,035,*61

6:57:49:766 Nachm. 03/07/17 - $GPGGA,175744.0,5208.393368,N,01138.651416,E,1,09,0.8,56.8,M,45.0,M,,*62

6:57:49:768 Nachm. 03/07/17 - $GNGNS,175744.0,5208.393368,N,01138.651416,E,AA,13,0.8,56.8,45.0,,*5D

6:57:49:777 Nachm. 03/07/17 - $GPVTG,269.1,T,268.6,M,3.3,N,6.2,K,A*21

6:57:49:778 Nachm. 03/07/17 - $GPRMC,175744.0,A,5208.393368,N,01138.651416,E,3.3,269.1,070317,0.4,E,A*0A

6:57:49:778 Nachm. 03/07/17 - $GPGSA,A,2,02,06,12,14,24,25,29,31,32,,,,1.1,0.8,0.7*37

6:57:49:778 Nachm. 03/07/17 - $GNGSA,A,2,02,06,12,14,24,25,29,31,32,,,,1.1,0.8,0.7*29

6:57:49:778 Nachm. 03/07/17 - $GNGSA,A,2,78,79,81,88,,,,,,,,,1.1,0.8,0.7*2A

6:57:50:753 Nachm. 03/07/17 - $GPGSV,3,1,10,02,38,075,18,06,16,036,18,12,45,090,17,14,27,268,22*74

6:57:50:755 Nachm. 03/07/17 - $GPGSV,3,2,10,24,10,153,22,25,84,357,22,29,52,215,29,31,38,302,36*7F

6:57:50:756 Nachm. 03/07/17 - $GPGSV,3,3,10,32,18,243,25,26,,,*46

6:57:50:757 Nachm. 03/07/17 - $GLGSV,3,1,10,78,75,326,16,70,12,350,17,77,42,129,10,79,32,314,25*6C

6:57:50:757 Nachm. 03/07/17 - $GLGSV,3,2,10,88,65,180,17,87,,,22,81,14,203,25,86,01,030,*50

6:57:50:767 Nachm. 03/07/17 - $GLGSV,3,3,10,69,06,296,,71,01,035,*61

6:57:50:769 Nachm. 03/07/17 - $GPGGA,175745.0,5208.393616,N,01138.650519,E,1,09,0.8,57.7,M,45.0,M,,*6E

6:57:50:771 Nachm. 03/07/17 - $GNGNS,175745.0,5208.393616,N,01138.650519,E,AA,13,0.8,57.7,45.0,,*51

6:57:50:772 Nachm. 03/07/17 - $GPVTG,274.4,T,274.0,M,3.1,N,5.8,K,A*28

6:57:50:772 Nachm. 03/07/17 - $GPRMC,175745.0,A,5208.393616,N,01138.650519,E,3.1,274.4,070317,0.4,E,A*03

6:57:50:775 Nachm. 03/07/17 - $GPGSA,A,2,02,06,12,14,24,25,29,31,32,,,,1.1,0.8,0.7*37

6:57:50:776 Nachm. 03/07/17 - $GNGSA,A,2,02,06,12,14,24,25,29,31,32,,,,1.1,0.8,0.7*29

6:57:50:779 Nachm. 03/07/17 - $GNGSA,A,2,78,79,81,88,,,,,,,,,1.1,0.8,0.7*2A

6:57:51:749 Nachm. 03/07/17 - $GPGSV,3,1,10,02,38,075,18,06,16,036,18,12,45,090,17,14,27,268,17*72

6:57:51:750 Nachm. 03/07/17 - $GPGSV,3,2,10,24,10,153,20,25,84,357,20,29,52,215,26,31,38,302,33*75

6:57:51:750 Nachm. 03/07/17 - $GPGSV,3,3,10,32,18,243,22,26,,,*41

6:57:51:751 Nachm. 03/07/17 - $GLGSV,3,1,10,78,75,326,16,70,12,350,16,77,42,129,10,79,32,314,25*6D

6:57:51:751 Nachm. 03/07/17 - $GLGSV,3,2,10,88,65,180,14,87,,,18,81,14,203,28,86,01,030,*57

6:57:51:753 Nachm. 03/07/17 - $GLGSV,3,3,10,69,06,296,,71,01,035,*61

6:57:51:753 Nachm. 03/07/17 - $GPGGA,175746.0,5208.393491,N,01138.648058,E,1,09,0.8,57.7,M,45.0,M,,*69

6:57:51:758 Nachm. 03/07/17 - $GNGNS,175746.0,5208.393491,N,01138.648058,E,AA,13,0.8,57.7,45.0,,*56

6:57:51:758 Nachm. 03/07/17 - $GPVTG,271.4,T,271.0,M,3.4,N,6.4,K,A*22

6:57:51:758 Nachm. 03/07/17 - $GPRMC,175746.0,A,5208.393491,N,01138.648058,E,3.4,271.4,070317,0.4,E,A*04

6:57:51:758 Nachm. 03/07/17 - $GPGSA,A,2,02,06,12,14,24,25,29,31,32,,,,1.1,0.8,0.7*37

6:57:51:759 Nachm. 03/07/17 - $GNGSA,A,2,02,06,12,14,24,25,29,31,32,,,,1.1,0.8,0.7*29

6:57:51:759 Nachm. 03/07/17 - $GNGSA,A,2,78,79,81,88,,,,,,,,,1.1,0.8,0.7*2A

6:57:52:750 Nachm. 03/07/17 - $GPGSV,3,1,10,02,38,075,19,06,16,036,18,12,45,090,21,14,27,268,21*73

6:57:52:752 Nachm. 03/07/17 - $GPGSV,3,2,10,24,10,153,19,25,84,357,24,29,52,215,30,31,38,302,37*78

6:57:52:754 Nachm. 03/07/17 - $GPGSV,3,3,10,32,18,243,26,26,,,*45

6:57:52:755 Nachm. 03/07/17 - $GLGSV,3,1,10,78,75,326,18,70,12,350,17,77,42,129,10,79,32,314,26*61

6:57:52:755 Nachm. 03/07/17 - $GLGSV,3,2,10,88,65,180,20,87,,,20,81,14,203,21,86,01,030,*52

6:57:52:760 Nachm. 03/07/17 - $GLGSV,3,3,10,69,06,296,,71,01,035,*61

6:57:52:764 Nachm. 03/07/17 - $GPGGA,175747.0,5208.394034,N,01138.647602,E,1,08,0.9,57.3,M,45.0,M,,*66

6:57:52:765 Nachm. 03/07/17 - $GNGNS,175747.0,5208.394034,N,01138.647602,E,AA,12,0.9,57.3,45.0,,*59

6:57:52:765 Nachm. 03/07/17 - $GPVTG,279.2,T,278.8,M,3.0,N,5.6,K,A*28

6:57:52:765 Nachm. 03/07/17 - $GPRMC,175747.0,A,5208.394034,N,01138.647602,E,3.0,279.2,070317,0.4,E,A*05

6:57:52:766 Nachm. 03/07/17 - $GPGSA,A,2,02,12,14,24,25,29,31,32,,,,,1.2,0.9,0.8*3C

6:57:52:769 Nachm. 03/07/17 - $GNGSA,A,2,02,12,14,24,25,29,31,32,,,,,1.2,0.9,0.8*22

6:57:52:769 Nachm. 03/07/17 - $GNGSA,A,2,78,79,81,88,,,,,,,,,1.2,0.9,0.8*27

6:57:53:750 Nachm. 03/07/17 - $GPGSV,3,1,10,02,38,075,21,06,16,036,18,12,45,090,22,14,27,268,23*79

6:57:53:751 Nachm. 03/07/17 - $GPGSV,3,2,10,24,10,153,19,25,84,357,23,29,52,215,27,31,38,302,36*78

6:57:53:751 Nachm. 03/07/17 - $GPGSV,3,3,10,32,18,243,24,26,,,*47

6:57:53:755 Nachm. 03/07/17 - $GLGSV,3,1,10,78,75,326,18,70,12,350,22,77,42,129,10,79,32,314,25*64

6:57:53:770 Nachm. 03/07/17 - $GLGSV,3,2,10,88,65,180,20,87,,,22,81,14,203,30,86,01,030,*50

6:57:53:772 Nachm. 03/07/17 - $GLGSV,3,3,10,69,06,296,,71,01,035,*61

6:57:53:772 Nachm. 03/07/17 - $GPGGA,175748.0,5208.394943,N,01138.647122,E,1,08,0.9,58.0,M,45.0,M,,*69

6:57:53:773 Nachm. 03/07/17 - $GNGNS,175748.0,5208.394943,N,01138.647122,E,AA,12,0.9,58.0,45.0,,*56

6:57:53:773 Nachm. 03/07/17 - $GPVTG,279.2,T,278.8,M,2.8,N,5.2,K,A*25

6:57:53:774 Nachm. 03/07/17 - $GPRMC,175748.0,A,5208.394943,N,01138.647122,E,2.8,279.2,070317,0.4,E,A*0F

6:57:53:774 Nachm. 03/07/17 - $GPGSA,A,2,02,12,14,24,25,29,31,32,,,,,1.2,0.9,0.8*3C

6:57:53:774 Nachm. 03/07/17 - $GNGSA,A,2,02,12,14,24,25,29,31,32,,,,,1.2,0.9,0.8*22

6:57:53:774 Nachm. 03/07/17 - $GNGSA,A,2,78,79,81,88,,,,,,,,,1.2,0.9,0.8*27

6:57:54:748 Nachm. 03/07/17 - $GPGSV,3,1,10,02,38,075,19,06,16,036,18,12,45,090,17,14,27,268,18*7C

6:57:54:749 Nachm. 03/07/17 - $GPGSV,3,2,10,24,10,153,18,25,84,357,23,29,52,215,28,31,38,302,36*76

6:57:54:749 Nachm. 03/07/17 - $GPGSV,3,3,10,32,18,243,24,26,,,*47

6:57:54:749 Nachm. 03/07/17 - $GLGSV,3,1,10,78,75,326,19,70,12,350,18,77,42,129,10,79,32,314,25*6C

6:57:54:750 Nachm. 03/07/17 - $GLGSV,3,2,10,88,65,180,17,87,,,20,81,14,203,24,86,01,030,*53

6:57:54:750 Nachm. 03/07/17 - $GLGSV,3,3,10,69,06,296,,71,01,035,*61

6:57:54:750 Nachm. 03/07/17 - $GPGGA,175749.0,5208.395106,N,01138.646864,E,1,08,0.9,56.8,M,45.0,M,,*6C

6:57:54:750 Nachm. 03/07/17 - $GNGNS,175749.0,5208.395106,N,01138.646864,E,AA,12,0.9,56.8,45.0,,*53

6:57:54:751 Nachm. 03/07/17 - $GPVTG,279.2,T,278.8,M,2.4,N,4.5,K,A*2F

6:57:54:751 Nachm. 03/07/17 - $GPRMC,175749.0,A,5208.395106,N,01138.646864,E,2.4,279.2,070317,0.4,E,A*00

6:57:54:751 Nachm. 03/07/17 - $GPGSA,A,2,02,12,14,24,25,29,31,32,,,,,1.2,0.9,0.8*3C

6:57:54:751 Nachm. 03/07/17 - $GNGSA,A,2,02,12,14,24,25,29,31,32,,,,,1.2,0.9,0.8*22

6:57:54:751 Nachm. 03/07/17 - $GNGSA,A,2,78,79,81,88,,,,,,,,,1.2,0.9,0.8*27

6:57:55:748 Nachm. 03/07/17 - $GPGSV,3,1,10,02,38,075,19,06,16,036,18,12,45,090,17,14,27,268,18*7C

6:57:55:749 Nachm. 03/07/17 - $GPGSV,3,2,10,24,10,153,18,25,84,357,22,29,52,215,23,31,38,302,32*78

6:57:55:750 Nachm. 03/07/17 - $GPGSV,3,3,10,32,18,243,20,26,,,*43

6:57:55:750 Nachm. 03/07/17 - $GLGSV,3,1,10,78,75,326,16,70,12,350,18,77,42,129,10,79,32,314,23*65

6:57:55:750 Nachm. 03/07/17 - $GLGSV,3,2,10,88,65,180,17,87,,,19,81,14,203,27,86,01,030,*5A

6:57:55:755 Nachm. 03/07/17 - $GLGSV,3,3,10,69,06,296,,71,01,035,*61

6:57:55:755 Nachm. 03/07/17 - $GPGGA,175750.0,5208.394827,N,01138.646500,E,1,08,0.9,56.4,M,45.0,M,,*6C

6:57:55:756 Nachm. 03/07/17 - $GNGNS,175750.0,5208.394827,N,01138.646500,E,AA,12,0.9,56.4,45.0,,*53

6:57:55:756 Nachm. 03/07/17 - $GPVTG,279.2,T,278.8,M,2.4,N,4.4,K,A*2E

6:57:55:757 Nachm. 03/07/17 - $GPRMC,175750.0,A,5208.394827,N,01138.646500,E,2.4,279.2,070317,0.4,E,A*0C

6:57:55:757 Nachm. 03/07/17 - $GPGSA,A,2,02,12,14,24,25,29,31,32,,,,,1.2,0.9,0.8*3C

6:57:55:758 Nachm. 03/07/17 - $GNGSA,A,2,02,12,14,24,25,29,31,32,,,,,1.2,0.9,0.8*22

6:57:55:758 Nachm. 03/07/17 - $GNGSA,A,2,78,79,81,88,,,,,,,,,1.2,0.9,0.8*27

6:57:56:751 Nachm. 03/07/17 - $GPGSV,3,1,10,02,38,075,17,06,16,036,18,12,45,090,15,14,27,268,21*7A

6:57:56:754 Nachm. 03/07/17 - $GPGSV,3,2,10,24,10,153,18,25,84,357,22,29,52,215,25,31,38,302,34*78

6:57:56:754 Nachm. 03/07/17 - $GPGSV,3,3,10,32,18,243,23,26,,,*40

6:57:56:755 Nachm. 03/07/17 - $GLGSV,3,1,10,78,75,326,16,70,12,350,18,77,42,129,10,79,32,314,24*62

6:57:56:756 Nachm. 03/07/17 - $GLGSV,3,2,10,88,65,180,16,87,,,19,81,14,203,21,86,01,030,*5D

6:57:56:762 Nachm. 03/07/17 - $GLGSV,3,3,10,69,06,296,,71,01,035,*61

6:57:56:769 Nachm. 03/07/17 - $GPGGA,175751.0,5208.393348,N,01138.638229,E,1,08,0.9,58.1,M,45.0,M,,*66

6:57:56:770 Nachm. 03/07/17 - $GNGNS,175751.0,5208.393348,N,01138.638229,E,AA,12,0.9,58.1,45.0,,*59

6:57:56:770 Nachm. 03/07/17 - $GPVTG,265.4,T,265.0,M,4.8,N,8.9,K,A*2A

6:57:56:770 Nachm. 03/07/17 - $GPRMC,175751.0,A,5208.393348,N,01138.638229,E,4.8,265.4,070317,0.4,E,A*0C

6:57:56:775 Nachm. 03/07/17 - $GPGSA,A,2,02,12,14,24,25,29,31,32,,,,,1.2,0.9,0.8*3C

6:57:56:775 Nachm. 03/07/17 - $GNGSA,A,2,02,12,14,24,25,29,31,32,,,,,1.2,0.9,0.8*22

6:57:56:777 Nachm. 03/07/17 - $GNGSA,A,2,78,79,81,88,,,,,,,,,1.2,0.9,0.8*27

6:57:57:748 Nachm. 03/07/17 - $GPGSV,3,1,10,02,38,075,17,06,16,036,18,12,45,090,15,14,27,268,23*78

6:57:57:749 Nachm. 03/07/17 - $GPGSV,3,2,10,24,10,153,18,25,84,357,22,29,52,215,25,31,38,302,34*78

6:57:57:749 Nachm. 03/07/17 - $GPGSV,3,3,10,32,18,243,21,26,,,*42

6:57:57:749 Nachm. 03/07/17 - $GLGSV,3,1,10,78,75,326,15,70,12,350,18,77,42,129,10,79,32,314,25*60

6:57:57:749 Nachm. 03/07/17 - $GLGSV,3,2,10,88,65,180,16,87,,,18,81,14,203,21,86,01,030,*5C

6:57:57:751 Nachm. 03/07/17 - $GLGSV,3,3,10,69,06,296,,71,01,035,*61

6:57:57:751 Nachm. 03/07/17 - $GPGGA,175752.0,5208.392999,N,01138.634261,E,1,08,0.9,57.9,M,45.0,M,,*65

6:57:57:751 Nachm. 03/07/17 - $GNGNS,175752.0,5208.392999,N,01138.634261,E,AA,12,0.9,57.9,45.0,,*5A

6:57:57:751 Nachm. 03/07/17 - $GPVTG,265.2,T,264.8,M,5.6,N,10.4,K,A*1E

6:57:57:752 Nachm. 03/07/17 - $GPRMC,175752.0,A,5208.392999,N,01138.634261,E,5.6,265.2,070317,0.4,E,A*01

6:57:57:752 Nachm. 03/07/17 - $GPGSA,A,2,02,12,14,24,25,29,31,32,,,,,1.2,0.9,0.8*3C

6:57:57:753 Nachm. 03/07/17 - $GNGSA,A,2,02,12,14,24,25,29,31,32,,,,,1.2,0.9,0.8*22

6:57:57:753 Nachm. 03/07/17 - $GNGSA,A,2,78,79,81,88,,,,,,,,,1.2,0.9,0.8*27

6:57:58:748 Nachm. 03/07/17 - $GPGSV,3,1,10,02,38,075,17,06,16,036,18,12,45,090,15,14,27,268,17*7F

6:57:58:751 Nachm. 03/07/17 - $GPGSV,3,2,10,24,10,153,18,25,84,357,22,29,52,215,24,31,38,302,35*78

6:57:58:752 Nachm. 03/07/17 - $GPGSV,3,3,10,32,18,243,22,26,,,*41

6:57:58:752 Nachm. 03/07/17 - $GLGSV,3,1,10,78,75,326,15,70,12,350,18,77,42,129,10,79,32,314,24*61

6:57:58:752 Nachm. 03/07/17 - $GLGSV,3,2,10,88,65,180,15,87,,,18,81,14,203,21,86,01,030,*5F

6:57:58:753 Nachm. 03/07/17 - $GLGSV,3,3,10,69,06,296,,71,01,035,*61

6:57:58:753 Nachm. 03/07/17 - $GPGGA,175753.0,5208.393105,N,01138.631411,E,1,08,0.9,57.8,M,45.0,M,,*6D

6:57:58:753 Nachm. 03/07/17 - $GNGNS,175753.0,5208.393105,N,01138.631411,E,AA,12,0.9,57.8,45.0,,*52

6:57:58:753 Nachm. 03/07/17 - $GPVTG,269.8,T,269.4,M,5.9,N,11.0,K,A*13

6:57:58:753 Nachm. 03/07/17 - $GPRMC,175753.0,A,5208.393105,N,01138.631411,E,5.9,269.8,070317,0.4,E,A*01

6:57:58:754 Nachm. 03/07/17 - $GPGSA,A,2,02,12,14,24,25,29,31,32,,,,,1.2,0.9,0.8*3C

6:57:58:754 Nachm. 03/07/17 - $GNGSA,A,2,02,12,14,24,25,29,31,32,,,,,1.2,0.9,0.8*22

6:57:58:755 Nachm. 03/07/17 - $GNGSA,A,2,78,79,81,88,,,,,,,,,1.2,0.9,0.8*27

6:57:59:749 Nachm. 03/07/17 - $GPGSV,3,1,10,02,38,075,15,06,16,036,18,12,45,090,15,14,27,268,21*78

6:57:59:749 Nachm. 03/07/17 - $GPGSV,3,2,10,24,10,153,16,25,84,357,18,29,52,215,24,31,38,302,33*79

6:57:59:749 Nachm. 03/07/17 - $GPGSV,3,3,10,32,18,243,16,26,,,*46

6:57:59:751 Nachm. 03/07/17 - $GLGSV,3,1,10,78,75,326,17,70,12,350,18,77,42,129,10,79,32,314,22*65

6:57:59:751 Nachm. 03/07/17 - $GLGSV,3,2,10,88,65,180,15,87,,,20,81,14,203,20,86,01,030,*55

6:57:59:751 Nachm. 03/07/17 - $GLGSV,3,3,10,69,06,296,,71,01,035,*61

6:57:59:751 Nachm. 03/07/17 - $GPGGA,175754.0,5208.395786,N,01138.631329,E,1,08,0.9,58.2,M,45.0,M,,*68

6:57:59:751 Nachm. 03/07/17 - $GNGNS,175754.0,5208.395786,N,01138.631329,E,AA,12,0.9,58.2,45.0,,*57

6:57:59:751 Nachm. 03/07/17 - $GPVTG,292.8,T,292.4,M,5.9,N,11.0,K,A*13

6:57:59:751 Nachm. 03/07/17 - $GPRMC,175754.0,A,5208.395786,N,01138.631329,E,5.9,292.8,070317,0.4,E,A*05

6:57:59:752 Nachm. 03/07/17 - $GPGSA,A,2,02,12,14,24,25,29,31,32,,,,,1.2,0.9,0.8*3C

6:57:59:752 Nachm. 03/07/17 - $GNGSA,A,2,02,12,14,24,25,29,31,32,,,,,1.2,0.9,0.8*22

6:57:59:752 Nachm. 03/07/17 - $GNGSA,A,2,78,79,81,88,,,,,,,,,1.2,0.9,0.8*27

6:58:00:749 Nachm. 03/07/17 - $GPGSV,3,1,10,02,38,075,17,06,16,036,18,12,45,090,15,14,27,268,22*79

6:58:00:749 Nachm. 03/07/17 - $GPGSV,3,2,10,24,10,153,16,25,84,357,22,29,52,215,23,31,38,302,34*70

6:58:00:750 Nachm. 03/07/17 - $GPGSV,3,3,10,32,18,243,18,26,,,*48

6:58:00:751 Nachm. 03/07/17 - $GLGSV,3,1,10,78,75,326,18,70,12,350,18,77,42,129,10,79,32,314,25*6D

6:58:00:751 Nachm. 03/07/17 - $GLGSV,3,2,10,88,65,180,15,87,,,20,81,14,203,20,86,01,030,*55

6:58:00:753 Nachm. 03/07/17 - $GLGSV,3,3,10,69,06,296,,71,01,035,*61

6:58:00:753 Nachm. 03/07/17 - $GPGGA,175755.0,5208.399036,N,01138.638380,E,1,08,0.9,56.6,M,45.0,M,,*69

6:58:00:753 Nachm. 03/07/17 - $GNGNS,175755.0,5208.399036,N,01138.638380,E,AA,12,0.9,56.6,45.0,,*56

6:58:00:753 Nachm. 03/07/17 - $GPVTG,324.3,T,323.9,M,5.0,N,9.2,K,A*20

6:58:00:753 Nachm. 03/07/17 - $GPRMC,175755.0,A,5208.399036,N,01138.638380,E,5.0,324.3,070317,0.4,E,A*00

6:58:00:753 Nachm. 03/07/17 - $GPGSA,A,2,02,12,14,24,25,29,31,32,,,,,1.2,0.9,0.8*3C

6:58:00:754 Nachm. 03/07/17 - $GNGSA,A,2,02,12,14,24,25,29,31,32,,,,,1.2,0.9,0.8*22

6:58:00:754 Nachm. 03/07/17 - $GNGSA,A,2,78,79,81,88,,,,,,,,,1.2,0.9,0.8*27

6:58:01:749 Nachm. 03/07/17 - $GPGSV,3,1,10,02,38,075,17,06,16,036,18,12,45,090,14,14,27,268,23*79

6:58:01:749 Nachm. 03/07/17 - $GPGSV,3,2,10,24,10,153,17,25,84,357,20,29,52,215,20,31,38,302,33*77

6:58:01:749 Nachm. 03/07/17 - $GPGSV,3,3,10,32,18,243,20,26,,,*43

6:58:01:751 Nachm. 03/07/17 - $GLGSV,3,1,10,78,75,326,16,70,12,350,18,77,42,129,10,79,32,314,23*65

6:58:01:754 Nachm. 03/07/17 - $GLGSV,3,2,10,88,65,180,15,87,,,19,81,14,203,23,86,01,030,*5C

6:58:01:754 Nachm. 03/07/17 - $GLGSV,3,3,10,69,06,296,,71,01,035,*61

6:58:01:755 Nachm. 03/07/17 - $GPGGA,175756.0,5208.401419,N,01138.638701,E,1,08,0.9,54.7,M,45.0,M,,*6B

6:58:01:755 Nachm. 03/07/17 - $GNGNS,175756.0,5208.401419,N,01138.638701,E,AA,12,0.9,54.7,45.0,,*54

6:58:01:756 Nachm. 03/07/17 - $GPVTG,330.0,T,329.6,M,5.6,N,10.3,K,A*1C

6:58:01:756 Nachm. 03/07/17 - $GPRMC,175756.0,A,5208.401419,N,01138.638701,E,5.6,330.0,070317,0.4,E,A*01

6:58:01:756 Nachm. 03/07/17 - $GPGSA,A,2,02,12,14,24,25,29,31,32,,,,,1.2,0.9,0.8*3C

6:58:01:756 Nachm. 03/07/17 - $GNGSA,A,2,02,12,14,24,25,29,31,32,,,,,1.2,0.9,0.8*22

6:58:01:757 Nachm. 03/07/17 - $GNGSA,A,2,78,79,81,88,,,,,,,,,1.2,0.9,0.8*27

6:58:02:750 Nachm. 03/07/17 - $GPGSV,3,1,10,02,38,075,18,06,16,036,18,12,45,090,20,14,27,268,25*77

6:58:02:756 Nachm. 03/07/17 - $GPGSV,3,2,10,24,10,153,19,25,84,357,22,29,52,215,24,31,38,302,36*7A

6:58:02:758 Nachm. 03/07/17 - $GPGSV,3,3,10,32,18,243,24,26,,,*47

6:58:02:777 Nachm. 03/07/17 - $GLGSV,3,1,10,78,75,326,16,70,12,350,18,79,32,314,22,88,65,180,14*66

6:58:02:778 Nachm. 03/07/17 - $GLGSV,3,2,10,87,,,22,81,14,203,25,86,01,030,,,42,129,*50

6:58:02:778 Nachm. 03/07/17 - $GLGSV,3,3,10,69,06,296,,71,01,035,*61

6:58:02:779 Nachm. 03/07/17 - $GPGGA,175757.0,5208.399954,N,01138.636828,E,1,08,0.9,54.2,M,45.0,M,,*67

6:58:02:781 Nachm. 03/07/17 - $GNGNS,175757.0,5208.399954,N,01138.636828,E,AA,12,0.9,54.2,45.0,,*58

6:58:02:782 Nachm. 03/07/17 - $GPVTG,314.0,T,313.6,M,4.0,N,7.4,K,A*25

6:58:02:782 Nachm. 03/07/17 - $GPRMC,175757.0,A,5208.399954,N,01138.636828,E,4.0,314.0,070317,0.4,E,A*09

6:58:02:783 Nachm. 03/07/17 - $GPGSA,A,2,02,12,14,24,25,29,31,32,,,,,1.2,0.9,0.8*3C

6:58:02:783 Nachm. 03/07/17 - $GNGSA,A,2,02,12,14,24,25,29,31,32,,,,,1.2,0.9,0.8*22

6:58:02:791 Nachm. 03/07/17 - $GNGSA,A,2,78,79,81,88,,,,,,,,,1.2,0.9,0.8*27

6:58:03:750 Nachm. 03/07/17 - $GPGSV,3,1,10,02,38,075,18,06,16,036,18,12,45,090,20,14,27,268,25*77

6:58:03:751 Nachm. 03/07/17 - $GPGSV,3,2,10,24,10,153,20,25,84,357,22,29,52,215,29,31,38,302,36*7D

6:58:03:753 Nachm. 03/07/17 - $GPGSV,3,3,10,32,18,243,24,26,,,*47

6:58:03:754 Nachm. 03/07/17 - $GLGSV,3,1,10,78,75,326,17,70,12,350,10,79,32,314,20,88,65,180,14*6D

6:58:03:754 Nachm. 03/07/17 - $GLGSV,3,2,10,87,,,22,81,14,203,23,86,01,030,,77,42,129,*56

6:58:03:760 Nachm. 03/07/17 - $GLGSV,3,3,10,69,06,296,,71,01,035,*61

6:58:03:762 Nachm. 03/07/17 - $GPGGA,175758.0,5208.398635,N,01138.635796,E,1,08,0.9,53.3,M,45.0,M,,*6E

6:58:03:763 Nachm. 03/07/17 - $GNGNS,175758.0,5208.398635,N,01138.635796,E,AA,12,0.9,53.3,45.0,,*51

6:58:03:769 Nachm. 03/07/17 - $GPVTG,314.0,T,313.6,M,2.4,N,4.4,K,A*24

6:58:03:774 Nachm. 03/07/17 - $GPRMC,175758.0,A,5208.398635,N,01138.635796,E,2.4,314.0,070317,0.4,E,A*04

6:58:03:774 Nachm. 03/07/17 - $GPGSA,A,2,02,12,14,24,25,29,31,32,,,,,1.2,0.9,0.8*3C

6:58:03:775 Nachm. 03/07/17 - $GNGSA,A,2,02,12,14,24,25,29,31,32,,,,,1.2,0.9,0.8*22

6:58:03:775 Nachm. 03/07/17 - $GNGSA,A,2,78,79,81,88,,,,,,,,,1.2,0.9,0.8*27

6:58:04:748 Nachm. 03/07/17 - $GPGSV,3,1,10,02,38,075,22,06,16,036,18,12,45,090,19,14,27,268,24*75

6:58:04:749 Nachm. 03/07/17 - $GPGSV,3,2,10,24,10,153,22,25,84,357,22,29,52,215,26,31,38,302,33*75

6:58:04:750 Nachm. 03/07/17 - $GPGSV,3,3,10,32,18,243,23,26,,,*40

6:58:04:750 Nachm. 03/07/17 - $GLGSV,3,1,10,78,75,326,17,70,12,350,10,79,32,314,20,88,65,180,14*6D

6:58:04:750 Nachm. 03/07/17 - $GLGSV,3,2,10,87,,,24,81,14,203,26,86,01,030,,77,42,129,*55

6:58:04:752 Nachm. 03/07/17 - $GLGSV,3,3,10,69,06,296,,71,01,035,*61

6:58:04:752 Nachm. 03/07/17 - $GPGGA,175759.0,5208.399268,N,01138.635264,E,1,08,0.9,54.3,M,45.0,M,,*6D

6:58:04:752 Nachm. 03/07/17 - $GNGNS,175759.0,5208.399268,N,01138.635264,E,AA,12,0.9,54.3,45.0,,*52

6:58:04:753 Nachm. 03/07/17 - $GPVTG,314.0,T,313.6,M,1.9,N,3.4,K,A*2D

6:58:04:753 Nachm. 03/07/17 - $GPRMC,175759.0,A,5208.399268,N,01138.635264,E,1.9,314.0,070317,0.4,E,A*0E

6:58:04:753 Nachm. 03/07/17 - $GPGSA,A,2,02,12,14,24,25,29,31,32,,,,,1.2,0.9,0.8*3C

6:58:04:753 Nachm. 03/07/17 - $GNGSA,A,2,02,12,14,24,25,29,31,32,,,,,1.2,0.9,0.8*22

6:58:04:753 Nachm. 03/07/17 - $GNGSA,A,2,78,79,81,88,,,,,,,,,1.2,0.9,0.8*27

6:58:05:748 Nachm. 03/07/17 - $GPGSV,3,1,10,02,38,075,23,06,16,036,18,12,45,090,19,14,27,268,22*72

6:58:05:750 Nachm. 03/07/17 - $GPGSV,3,2,10,24,10,153,22,25,84,357,24,29,52,215,25,31,38,302,33*70

6:58:05:751 Nachm. 03/07/17 - $GPGSV,3,3,10,32,18,243,25,26,,,*46

6:58:05:751 Nachm. 03/07/17 - $GLGSV,3,1,10,78,75,326,18,70,12,350,10,79,32,314,19,88,65,180,14*68

6:58:05:753 Nachm. 03/07/17 - $GLGSV,3,2,10,87,,,23,81,14,203,25,86,01,030,,77,42,129,*51

6:58:05:753 Nachm. 03/07/17 - $GLGSV,3,3,10,69,06,296,,71,01,035,*61

6:58:05:753 Nachm. 03/07/17 - $GPGGA,175800.0,5208.398857,N,01138.633747,E,1,08,0.9,52.2,M,45.0,M,,*6C

6:58:05:753 Nachm. 03/07/17 - $GNGNS,175800.0,5208.398857,N,01138.633747,E,AA,12,0.9,52.2,45.0,,*53

6:58:05:753 Nachm. 03/07/17 - $GPVTG,314.0,T,313.6,M,2.0,N,3.7,K,A*24

6:58:05:753 Nachm. 03/07/17 - $GPRMC,175800.0,A,5208.398857,N,01138.633747,E,2.0,314.0,070317,0.4,E,A*02

6:58:05:758 Nachm. 03/07/17 - $GPGSA,A,2,02,12,14,24,25,29,31,32,,,,,1.2,0.9,0.8*3C

6:58:05:759 Nachm. 03/07/17 - $GNGSA,A,2,02,12,14,24,25,29,31,32,,,,,1.2,0.9,0.8*22

6:58:05:759 Nachm. 03/07/17 - $GNGSA,A,2,78,79,81,88,,,,,,,,,1.2,0.9,0.8*27

6:58:06:748 Nachm. 03/07/17 - $GPGSV,3,1,10,02,38,075,20,06,16,036,18,12,45,090,18,14,27,268,22*70

6:58:06:749 Nachm. 03/07/17 - $GPGSV,3,2,10,24,10,153,22,25,84,357,24,29,52,215,25,31,38,302,34*77

6:58:06:750 Nachm. 03/07/17 - $GPGSV,3,3,10,32,18,243,20,26,,,*43

6:58:06:751 Nachm. 03/07/17 - $GLGSV,3,1,10,78,75,326,17,70,12,350,15,79,32,314,19,88,65,180,14*62

6:58:06:751 Nachm. 03/07/17 - $GLGSV,3,2,10,87,,,24,81,14,203,21,86,01,030,,77,42,129,*52

6:58:06:755 Nachm. 03/07/17 - $GLGSV,3,3,10,69,06,296,,71,01,035,*61

6:58:06:755 Nachm. 03/07/17 - $GPGGA,175801.0,5208.399381,N,01138.634413,E,1,08,0.9,52.0,M,45.0,M,,*6B

6:58:06:756 Nachm. 03/07/17 - $GNGNS,175801.0,5208.399381,N,01138.634413,E,AA,12,0.9,52.0,45.0,,*54

6:58:06:756 Nachm. 03/07/17 - $GPVTG,314.0,T,313.6,M,1.2,N,2.2,K,A*21

6:58:06:756 Nachm. 03/07/17 - $GPRMC,175801.0,A,5208.399381,N,01138.634413,E,1.2,314.0,070317,0.4,E,A*06

6:58:06:756 Nachm. 03/07/17 - $GPGSA,A,2,02,12,14,24,25,29,31,32,,,,,1.2,0.9,0.8*3C

6:58:06:757 Nachm. 03/07/17 - $GNGSA,A,2,02,12,14,24,25,29,31,32,,,,,1.2,0.9,0.8*22

6:58:06:757 Nachm. 03/07/17 - $GNGSA,A,2,78,79,81,88,,,,,,,,,1.2,0.9,0.8*27

6:58:07:749 Nachm. 03/07/17 - $GPGSV,3,1,10,02,38,075,18,06,16,036,18,12,45,090,19,14,27,268,25*7D

6:58:07:751 Nachm. 03/07/17 - $GPGSV,3,2,10,24,10,153,19,25,84,357,23,29,52,215,26,31,38,302,36*79

6:58:07:753 Nachm. 03/07/17 - $GPGSV,3,3,10,32,18,243,25,26,,,*46

6:58:07:753 Nachm. 03/07/17 - $GLGSV,3,1,10,78,75,326,18,70,12,350,15,79,32,314,19,88,65,180,14*6D

6:58:07:754 Nachm. 03/07/17 - $GLGSV,3,2,10,87,,,22,81,14,203,24,86,01,030,,77,42,129,*51

6:58:07:757 Nachm. 03/07/17 - $GLGSV,3,3,10,69,06,296,,71,01,035,*61

6:58:07:757 Nachm. 03/07/17 - $GPGGA,175802.0,5208.399823,N,01138.634182,E,1,08,0.9,50.1,M,45.0,M,,*65

6:58:07:757 Nachm. 03/07/17 - $GNGNS,175802.0,5208.399823,N,01138.634182,E,AA,12,0.9,50.1,45.0,,*5A

6:58:07:762 Nachm. 03/07/17 - $GPVTG,314.0,T,313.6,M,1.3,N,2.3,K,A*21

6:58:07:762 Nachm. 03/07/17 - $GPRMC,175802.0,A,5208.399823,N,01138.634182,E,1.3,314.0,070317,0.4,E,A*0A

6:58:07:763 Nachm. 03/07/17 - $GPGSA,A,2,02,12,14,24,25,29,31,32,,,,,1.2,0.9,0.8*3C

6:58:07:765 Nachm. 03/07/17 - $GNGSA,A,2,02,12,14,24,25,29,31,32,,,,,1.2,0.9,0.8*22

6:58:07:765 Nachm. 03/07/17 - $GNGSA,A,2,78,79,81,88,,,,,,,,,1.2,0.9,0.8*27

6:58:08:750 Nachm. 03/07/17 - $GPGSV,3,1,10,02,38,075,18,06,16,036,18,12,45,090,18,14,27,268,28*71

6:58:08:750 Nachm. 03/07/17 - $GPGSV,3,2,10,24,10,153,24,25,84,357,25,29,52,215,23,31,38,302,37*75

6:58:08:751 Nachm. 03/07/17 - $GPGSV,3,3,10,32,18,243,25,26,,,*46

6:58:08:752 Nachm. 03/07/17 - $GLGSV,3,1,10,78,75,326,18,70,12,350,15,79,32,314,19,88,65,180,13*6A

6:58:08:759 Nachm. 03/07/17 - $GLGSV,3,2,10,87,,,18,81,14,203,26,86,01,030,,77,42,129,*5A

6:58:08:761 Nachm. 03/07/17 - $GLGSV,3,3,10,69,06,296,,71,01,035,*61

6:58:08:761 Nachm. 03/07/17 - $GPGGA,175803.0,5208.399646,N,01138.631336,E,1,08,0.9,49.3,M,45.0,M,,*6B

6:58:08:762 Nachm. 03/07/17 - $GNGNS,175803.0,5208.399646,N,01138.631336,E,AA,12,0.9,49.3,45.0,,*54

6:58:08:762 Nachm. 03/07/17 - $GPVTG,314.0,T,313.6,M,1.9,N,3.6,K,A*2F

6:58:08:763 Nachm. 03/07/17 - $GPRMC,175803.0,A,5208.399646,N,01138.631336,E,1.9,314.0,070317,0.4,E,A*04

6:58:08:763 Nachm. 03/07/17 - $GPGSA,A,2,02,12,14,24,25,29,31,32,,,,,1.2,0.9,0.8*3C

6:58:08:764 Nachm. 03/07/17 - $GNGSA,A,2,02,12,14,24,25,29,31,32,,,,,1.2,0.9,0.8*22

6:58:08:764 Nachm. 03/07/17 - $GNGSA,A,2,78,79,81,88,,,,,,,,,1.2,0.9,0.8*27

6:58:09:751 Nachm. 03/07/17 - $GPGSV,3,1,10,02,38,075,18,06,16,036,18,12,45,090,17,14,27,268,24*72

6:58:09:756 Nachm. 03/07/17 - $GPGSV,3,2,10,24,10,153,24,25,84,357,22,29,52,215,26,31,38,302,36*76

6:58:09:757 Nachm. 03/07/17 - $GPGSV,3,3,10,32,18,243,20,26,,,*43

6:58:09:757 Nachm. 03/07/17 - $GLGSV,3,1,10,78,75,326,17,70,12,350,15,79,32,314,19,88,65,180,13*65

6:58:09:758 Nachm. 03/07/17 - $GLGSV,3,2,10,87,,,19,81,14,203,23,86,01,030,,77,42,129,*5E

6:58:09:764 Nachm. 03/07/17 - $GLGSV,3,3,10,69,06,296,,71,01,035,*61

6:58:09:774 Nachm. 03/07/17 - $GPGGA,175804.0,5208.399886,N,01138.629414,E,1,08,0.9,48.9,M,45.0,M,,*6B

6:58:09:774 Nachm. 03/07/17 - $GNGNS,175804.0,5208.399886,N,01138.629414,E,AA,12,0.9,48.9,45.0,,*54

6:58:09:775 Nachm. 03/07/17 - $GPVTG,314.0,T,313.6,M,2.1,N,3.9,K,A*2B

6:58:09:775 Nachm. 03/07/17 - $GPRMC,175804.0,A,5208.399886,N,01138.629414,E,2.1,314.0,070317,0.4,E,A*04

6:58:09:775 Nachm. 03/07/17 - $GPGSA,A,2,02,12,14,24,25,29,31,32,,,,,1.2,0.9,0.8*3C

6:58:09:775 Nachm. 03/07/17 - $GNGSA,A,2,02,12,14,24,25,29,31,32,,,,,1.2,0.9,0.8*22

6:58:09:776 Nachm. 03/07/17 - $GNGSA,A,2,78,79,81,88,,,,,,,,,1.2,0.9,0.8*27

6:58:10:751 Nachm. 03/07/17 - $GPGSV,3,1,10,02,38,075,17,12,45,090,17,14,27,268,27,24,10,153,24*75

6:58:10:752 Nachm. 03/07/17 - $GPGSV,3,2,10,25,84,357,23,29,52,215,29,31,38,302,36,32,18,243,23*72

6:58:10:753 Nachm. 03/07/17 - $GPGSV,3,3,10,06,16,036,,26,,,*48

6:58:10:757 Nachm. 03/07/17 - $GLGSV,3,1,10,78,75,326,18,70,12,350,12,79,32,314,19,88,65,180,18*66

6:58:10:758 Nachm. 03/07/17 - $GLGSV,3,2,10,87,,,20,81,14,203,22,86,01,030,,77,42,129,*55

6:58:10:759 Nachm. 03/07/17 - $GLGSV,3,3,10,69,06,296,,71,01,035,*61

6:58:10:761 Nachm. 03/07/17 - $GPGGA,175805.0,5208.399956,N,01138.628451,E,1,08,0.9,49.1,M,45.0,M,,*6F

6:58:10:761 Nachm. 03/07/17 - $GNGNS,175805.0,5208.399956,N,01138.628451,E,AA,12,0.9,49.1,45.0,,*50

6:58:10:762 Nachm. 03/07/17 - $GPVTG,314.0,T,313.6,M,1.9,N,3.5,K,A*2C

6:58:10:763 Nachm. 03/07/17 - $GPRMC,175805.0,A,5208.399956,N,01138.628451,E,1.9,314.0,070317,0.4,E,A*02

6:58:10:764 Nachm. 03/07/17 - $GPGSA,A,2,02,12,14,24,25,29,31,32,,,,,1.2,0.9,0.8*3C

6:58:10:767 Nachm. 03/07/17 - $GNGSA,A,2,02,12,14,24,25,29,31,32,,,,,1.2,0.9,0.8*22

6:58:10:768 Nachm. 03/07/17 - $GNGSA,A,2,78,79,81,88,,,,,,,,,1.2,0.9,0.8*27

6:58:11:751 Nachm. 03/07/17 - $GPGSV,3,1,10,02,38,075,19,12,45,090,19,14,27,268,27,24,10,153,20*71

6:58:11:753 Nachm. 03/07/17 - $GPGSV,3,2,10,25,84,357,24,29,52,215,30,31,38,302,37,32,18,243,22*7D

6:58:11:759 Nachm. 03/07/17 - $GPGSV,3,3,10,06,16,036,,26,,,*48

6:58:11:760 Nachm. 03/07/17 - $GLGSV,3,1,10,78,75,326,18,70,12,350,12,79,32,314,19,88,65,180,19*67

6:58:11:762 Nachm. 03/07/17 - $GLGSV,3,2,10,87,,,20,81,14,203,22,86,01,030,,77,42,129,*55

6:58:11:774 Nachm. 03/07/17 - $GLGSV,3,3,10,69,06,296,,71,01,035,*61

6:58:11:774 Nachm. 03/07/17 - $GPGGA,175806.0,5208.400367,N,01138.627816,E,1,08,0.9,49.3,M,45.0,M,,*61

6:58:11:774 Nachm. 03/07/17 - $GNGNS,175806.0,5208.400367,N,01138.627816,E,AA,12,0.9,49.3,45.0,,*5E

6:58:11:775 Nachm. 03/07/17 - $GPVTG,314.0,T,313.6,M,1.9,N,3.4,K,A*2D

6:58:11:775 Nachm. 03/07/17 - $GPRMC,175806.0,A,5208.400367,N,01138.627816,E,1.9,314.0,070317,0.4,E,A*0E

6:58:11:775 Nachm. 03/07/17 - $GPGSA,A,2,02,12,14,24,25,29,31,32,,,,,1.2,0.9,0.8*3C

6:58:11:775 Nachm. 03/07/17 - $GNGSA,A,2,02,12,14,24,25,29,31,32,,,,,1.2,0.9,0.8*22

6:58:11:775 Nachm. 03/07/17 - $GNGSA,A,2,78,79,81,88,,,,,,,,,1.2,0.9,0.8*27

6:58:12:750 Nachm. 03/07/17 - $GPGSV,3,1,10,02,38,075,17,12,45,090,18,14,27,268,25,24,10,153,22*7E

6:58:12:751 Nachm. 03/07/17 - $GPGSV,3,2,10,25,84,357,22,29,52,215,33,31,38,302,35,32,18,243,24*7C

6:58:12:751 Nachm. 03/07/17 - $GPGSV,3,3,10,06,16,036,,26,,,*48

6:58:12:752 Nachm. 03/07/17 - $GLGSV,3,1,10,78,75,326,17,70,12,350,12,79,32,314,19,88,65,180,17*66

6:58:12:755 Nachm. 03/07/17 - $GLGSV,3,2,10,87,,,18,81,14,203,22,86,01,030,,77,42,129,*5E

6:58:12:759 Nachm. 03/07/17 - $GLGSV,3,3,10,69,06,296,,71,01,035,*61

6:58:12:760 Nachm. 03/07/17 - $GPGGA,175807.0,5208.400488,N,01138.626529,E,1,08,1.0,48.7,M,45.0,M,,*6B

6:58:12:760 Nachm. 03/07/17 - $GNGNS,175807.0,5208.400488,N,01138.626529,E,AA,10,1.0,48.7,45.0,,*56

6:58:12:760 Nachm. 03/07/17 - $GPVTG,314.0,T,313.6,M,1.9,N,3.4,K,A*2D

6:58:12:760 Nachm. 03/07/17 - $GPRMC,175807.0,A,5208.400488,N,01138.626529,E,1.9,314.0,070317,0.4,E,A*09

6:58:12:761 Nachm. 03/07/17 - $GPGSA,A,2,02,12,14,24,25,29,31,32,,,,,1.3,1.0,0.9*34

6:58:12:762 Nachm. 03/07/17 - $GNGSA,A,2,02,12,14,24,25,29,31,32,,,,,1.3,1.0,0.9*2A

6:58:12:763 Nachm. 03/07/17 - $GNGSA,A,2,78,81,,,,,,,,,,,1.3,1.0,0.9*21

6:58:13:750 Nachm. 03/07/17 - $GPGSV,3,1,11,02,38,075,21,04,,,31,12,45,090,21,14,27,268,27*44

6:58:13:751 Nachm. 03/07/17 - $GPGSV,3,2,11,24,10,153,22,25,84,357,23,29,52,215,34,31,38,302,37*72

6:58:13:752 Nachm. 03/07/17 - $GPGSV,3,3,11,32,18,243,25,06,16,036,,26,,,*73

6:58:13:759 Nachm. 03/07/17 - $GLGSV,3,1,10,78,75,326,18,70,12,350,12,79,32,314,19,88,65,180,17*69

6:58:13:768 Nachm. 03/07/17 - $GLGSV,3,2,10,87,,,18,81,14,203,23,86,01,030,,77,42,129,*5F

6:58:13:770 Nachm. 03/07/17 - $GLGSV,3,3,10,69,06,296,,71,01,035,*61

6:58:13:770 Nachm. 03/07/17 - $GPGGA,175808.0,5208.400377,N,01138.624600,E,1,08,1.0,49.5,M,45.0,M,,*6A

6:58:13:771 Nachm. 03/07/17 - $GNGNS,175808.0,5208.400377,N,01138.624600,E,AA,09,1.0,49.5,45.0,,*5F

6:58:13:772 Nachm. 03/07/17 - $GPVTG,283.3,T,282.9,M,2.1,N,4.0,K,A*2F

6:58:13:772 Nachm. 03/07/17 - $GPRMC,175808.0,A,5208.400377,N,01138.624600,E,2.1,283.3,070317,0.4,E,A*0C

6:58:13:773 Nachm. 03/07/17 - $GPGSA,A,2,02,12,14,24,25,29,31,32,,,,,1.4,1.0,0.9*33

6:58:13:774 Nachm. 03/07/17 - $GNGSA,A,2,02,12,14,24,25,29,31,32,,,,,1.4,1.0,0.9*2D

6:58:13:774 Nachm. 03/07/17 - $GNGSA,A,2,81,,,,,,,,,,,,1.4,1.0,0.9*29

6:58:14:749 Nachm. 03/07/17 - $GPGSV,3,1,11,02,38,075,19,04,,,32,12,45,090,21,14,27,268,26*4D

6:58:14:751 Nachm. 03/07/17 - $GPGSV,3,2,11,24,10,153,19,25,84,357,23,29,52,215,32,31,38,302,36*7D

6:58:14:751 Nachm. 03/07/17 - $GPGSV,3,3,11,32,18,243,21,06,16,036,,26,,,*77

6:58:14:752 Nachm. 03/07/17 - $GLGSV,3,1,10,78,75,326,18,70,12,350,14,79,32,314,19,88,65,180,16*6E

6:58:14:753 Nachm. 03/07/17 - $GLGSV,3,2,10,87,,,18,81,14,203,23,86,01,030,,77,42,129,*5F

6:58:14:757 Nachm. 03/07/17 - $GLGSV,3,3,10,69,06,296,,71,01,035,*61

6:58:14:759 Nachm. 03/07/17 - $GPGGA,175809.0,5208.400171,N,01138.623347,E,1,08,1.0,48.0,M,45.0,M,,*6A

6:58:14:759 Nachm. 03/07/17 - $GNGNS,175809.0,5208.400171,N,01138.623347,E,AA,09,1.0,48.0,45.0,,*5F

6:58:14:759 Nachm. 03/07/17 - $GPVTG,284.0,T,283.5,M,2.2,N,4.1,K,A*24

6:58:14:759 Nachm. 03/07/17 - $GPRMC,175809.0,A,5208.400171,N,01138.623347,E,2.2,284.0,070317,0.4,E,A*0F

6:58:14:759 Nachm. 03/07/17 - $GPGSA,A,2,02,12,14,24,25,29,31,32,,,,,1.4,1.0,0.9*33

6:58:14:760 Nachm. 03/07/17 - $GNGSA,A,2,02,12,14,24,25,29,31,32,,,,,1.4,1.0,0.9*2D

6:58:14:760 Nachm. 03/07/17 - $GNGSA,A,2,81,,,,,,,,,,,,1.4,1.0,0.9*29

6:58:15:750 Nachm. 03/07/17 - $GPGSV,3,1,11,02,38,075,20,04,,,32,12,45,090,16,14,27,268,25*40

6:58:15:751 Nachm. 03/07/17 - $GPGSV,3,2,11,24,10,153,20,25,84,357,21,29,52,215,29,31,38,302,36*7F

6:58:15:754 Nachm. 03/07/17 - $GPGSV,3,3,11,32,18,243,21,06,16,036,,26,,,*77

6:58:15:755 Nachm. 03/07/17 - $GLGSV,3,1,10,78,75,326,16,70,12,350,14,79,32,314,19,88,65,180,17*61

6:58:15:765 Nachm. 03/07/17 - $GLGSV,3,2,10,87,,,19,81,14,203,22,86,01,030,,77,42,129,*5F

6:58:15:766 Nachm. 03/07/17 - $GLGSV,3,3,10,69,06,296,,71,01,035,*61

6:58:15:766 Nachm. 03/07/17 - $GPGGA,175810.0,5208.399858,N,01138.621132,E,1,08,1.0,47.0,M,45.0,M,,*6A

6:58:15:767 Nachm. 03/07/17 - $GNGNS,175810.0,5208.399858,N,01138.621132,E,AA,09,1.0,47.0,45.0,,*5F

6:58:15:768 Nachm. 03/07/17 - $GPVTG,271.5,T,271.1,M,2.4,N,4.5,K,A*20

6:58:15:769 Nachm. 03/07/17 - $GPRMC,175810.0,A,5208.399858,N,01138.621132,E,2.4,271.5,070317,0.4,E,A*09

6:58:15:770 Nachm. 03/07/17 - $GPGSA,A,2,02,12,14,24,25,29,31,32,,,,,1.4,1.0,0.9*33

6:58:15:770 Nachm. 03/07/17 - $GNGSA,A,2,02,12,14,24,25,29,31,32,,,,,1.4,1.0,0.9*2D

6:58:15:771 Nachm. 03/07/17 - $GNGSA,A,2,81,,,,,,,,,,,,1.4,1.0,0.9*29

6:58:16:751 Nachm. 03/07/17 - $GPGSV,3,1,11,02,38,075,17,04,,,32,12,45,090,18,14,27,268,26*49

6:58:16:751 Nachm. 03/07/17 - $GPGSV,3,2,11,24,10,153,18,25,84,357,20,29,52,215,30,31,38,302,36*7D

6:58:16:752 Nachm. 03/07/17 - $GPGSV,3,3,11,32,18,243,22,06,16,036,,26,,,*74

6:58:16:755 Nachm. 03/07/17 - $GLGSV,3,1,10,78,75,326,16,70,12,350,14,79,32,314,19,88,65,180,17*61

6:58:16:757 Nachm. 03/07/17 - $GLGSV,3,2,10,87,,,21,81,14,203,26,86,01,030,,77,42,129,*50

6:58:16:757 Nachm. 03/07/17 - $GLGSV,3,3,10,69,06,296,,71,01,035,*61

6:58:16:758 Nachm. 03/07/17 - $GPGGA,175811.0,5208.400230,N,01138.619224,E,1,08,1.0,47.5,M,45.0,M,,*62

6:58:16:759 Nachm. 03/07/17 - $GNGNS,175811.0,5208.400230,N,01138.619224,E,AA,09,1.0,47.5,45.0,,*57

6:58:16:760 Nachm. 03/07/17 - $GPVTG,278.0,T,277.6,M,2.7,N,5.0,K,A*2A

6:58:16:760 Nachm. 03/07/17 - $GPRMC,175811.0,A,5208.400230,N,01138.619224,E,2.7,278.0,070317,0.4,E,A*0B

6:58:16:760 Nachm. 03/07/17 - $GPGSA,A,2,02,12,14,24,25,29,31,32,,,,,1.4,1.0,0.9*33

6:58:16:761 Nachm. 03/07/17 - $GNGSA,A,2,02,12,14,24,25,29,31,32,,,,,1.4,1.0,0.9*2D

6:58:16:761 Nachm. 03/07/17 - $GNGSA,A,2,81,,,,,,,,,,,,1.4,1.0,0.9*29

6:58:17:751 Nachm. 03/07/17 - $GPGSV,3,1,11,02,38,075,20,04,,,32,12,45,090,19,14,27,268,24*4E

6:58:17:751 Nachm. 03/07/17 - $GPGSV,3,2,11,24,10,153,22,25,84,357,20,29,52,215,29,31,38,302,37*7D

6:58:17:751 Nachm. 03/07/17 - $GPGSV,3,3,11,32,18,243,23,06,16,036,,26,,,*75

6:58:17:758 Nachm. 03/07/17 - $GLGSV,3,1,10,78,75,326,16,70,12,350,14,79,32,314,19,88,65,180,16*60

6:58:17:760 Nachm. 03/07/17 - $GLGSV,3,2,10,87,,,20,81,14,203,24,86,01,030,,77,42,129,*53

6:58:17:762 Nachm. 03/07/17 - $GLGSV,3,3,10,69,06,296,,71,01,035,*61

6:58:17:762 Nachm. 03/07/17 - $GPGGA,175812.0,5208.400548,N,01138.618690,E,1,08,1.0,48.9,M,45.0,M,,*60

6:58:17:764 Nachm. 03/07/17 - $GNGNS,175812.0,5208.400548,N,01138.618690,E,AA,09,1.0,48.9,45.0,,*55

6:58:17:765 Nachm. 03/07/17 - $GPVTG,278.0,T,277.6,M,2.5,N,4.7,K,A*2E

