5:36:01:384 Nachm. 03/26/17 - $GPGSV,3,1,12,02,29,108,24,06,26,061,21,12,70,066,23,14,30,300,31*7A

5:36:01:386 Nachm. 03/26/17 - $GPGSV,3,2,12,19,12,043,19,24,38,147,19,25,58,275,33,31,12,307,31*75

5:36:01:387 Nachm. 03/26/17 - $GPGSV,3,3,12,32,34,271,33,03,02,357,,22,,,,29,22,206,*47

5:36:01:387 Nachm. 03/26/17 - $GLGSV,3,1,09,82,66,101,21,73,52,312,29,80,68,091,16,79,11,113,16*6C

5:36:01:387 Nachm. 03/26/17 - $GLGSV,3,2,09,83,30,178,14,81,29,035,29,71,14,275,23,72,18,326,16*6F

5:36:01:387 Nachm. 03/26/17 - $GLGSV,3,3,09,65,04,009,*52

5:36:01:389 Nachm. 03/26/17 - $GPGGA,153558.0,5208.372023,N,01138.433645,E,1,08,1.0,69.2,M,45.0,M,,*66

5:36:01:397 Nachm. 03/26/17 - $GNGNS,153558.0,5208.372023,N,01138.433645,E,AA,09,1.0,69.2,45.0,,*53

5:36:01:399 Nachm. 03/26/17 - $GPVTG,118.0,T,117.6,M,0.4,N,0.8,K,A*26

5:36:01:399 Nachm. 03/26/17 - $GPRMC,153558.0,A,5208.372023,N,01138.433645,E,0.4,118.0,260317,0.4,E,A*03

5:36:01:399 Nachm. 03/26/17 - $GPGSA,A,2,02,06,12,14,19,24,25,32,,,,,1.4,1.0,0.9*34

5:36:01:400 Nachm. 03/26/17 - $GNGSA,A,2,02,06,12,14,19,24,25,32,,,,,1.4,1.0,0.9*2A

5:36:01:400 Nachm. 03/26/17 - $GNGSA,A,2,73,,,,,,,,,,,,1.4,1.0,0.9*24

5:36:02:386 Nachm. 03/26/17 - $GPGSV,3,1,12,02,29,108,20,06,26,061,22,12,70,066,19,14,30,300,29*7D

5:36:02:388 Nachm. 03/26/17 - $GPGSV,3,2,12,19,12,043,19,24,38,147,18,25,58,275,33,31,12,307,26*72

5:36:02:392 Nachm. 03/26/17 - $GPGSV,3,3,12,32,34,271,31,03,02,357,,22,,,,29,22,206,*45

5:36:02:396 Nachm. 03/26/17 - $GLGSV,3,1,09,82,66,101,21,73,52,312,32,80,68,091,16,79,11,113,16*66

5:36:02:399 Nachm. 03/26/17 - $GLGSV,3,2,09,83,30,178,14,81,29,035,20,71,14,275,18,72,18,326,16*6E

5:36:02:399 Nachm. 03/26/17 - $GLGSV,3,3,09,65,04,009,*52

5:36:02:403 Nachm. 03/26/17 - $GPGGA,153559.0,5208.370854,N,01138.433037,E,1,08,1.0,68.4,M,45.0,M,,*69

5:36:02:404 Nachm. 03/26/17 - $GNGNS,153559.0,5208.370854,N,01138.433037,E,AA,09,1.0,68.4,45.0,,*5C

5:36:02:404 Nachm. 03/26/17 - $GPVTG,118.0,T,117.6,M,0.0,N,0.0,K,A*2A

5:36:02:405 Nachm. 03/26/17 - $GPRMC,153559.0,A,5208.370854,N,01138.433037,E,0.0,118.0,260317,0.4,E,A*0F

5:36:02:406 Nachm. 03/26/17 - $GPGSA,A,2,02,06,12,14,19,24,25,32,,,,,1.4,1.0,0.9*34

5:36:02:406 Nachm. 03/26/17 - $GNGSA,A,2,02,06,12,14,19,24,25,32,,,,,1.4,1.0,0.9*2A

5:36:02:407 Nachm. 03/26/17 - $GNGSA,A,2,73,,,,,,,,,,,,1.4,1.0,0.9*24

5:36:03:387 Nachm. 03/26/17 - $GPGSV,3,1,12,02,29,108,18,06,26,061,23,12,70,066,25,14,30,300,28*79

5:36:03:388 Nachm. 03/26/17 - $GPGSV,3,2,12,19,12,043,19,24,38,147,19,25,58,275,31,31,12,307,25*72

5:36:03:393 Nachm. 03/26/17 - $GPGSV,3,3,12,32,34,271,27,03,02,357,,22,,,,29,22,206,*42

5:36:03:394 Nachm. 03/26/17 - $GLGSV,3,1,09,82,66,101,19,73,52,312,33,80,68,091,16,79,11,113,16*6C

5:36:03:396 Nachm. 03/26/17 - $GLGSV,3,2,09,83,30,178,14,81,29,035,25,71,14,275,18,72,18,326,16*6B

5:36:03:397 Nachm. 03/26/17 - $GLGSV,3,3,09,65,04,009,*52

5:36:03:403 Nachm. 03/26/17 - $GPGGA,153600.0,5208.371133,N,01138.432502,E,1,08,1.0,68.1,M,45.0,M,,*68

5:36:03:405 Nachm. 03/26/17 - $GNGNS,153600.0,5208.371133,N,01138.432502,E,AA,09,1.0,68.1,45.0,,*5D

5:36:03:407 Nachm. 03/26/17 - $GPVTG,118.0,T,117.6,M,0.0,N,0.0,K,A*2A

5:36:03:407 Nachm. 03/26/17 - $GPRMC,153600.0,A,5208.371133,N,01138.432502,E,0.0,118.0,260317,0.4,E,A*0B

5:36:03:408 Nachm. 03/26/17 - $GPGSA,A,2,02,06,12,14,19,24,25,32,,,,,1.4,1.0,0.9*34

5:36:03:408 Nachm. 03/26/17 - $GNGSA,A,2,02,06,12,14,19,24,25,32,,,,,1.4,1.0,0.9*2A

5:36:03:409 Nachm. 03/26/17 - $GNGSA,A,2,73,,,,,,,,,,,,1.4,1.0,0.9*24

5:36:04:386 Nachm. 03/26/17 - $GPGSV,3,1,12,02,29,108,23,06,26,061,23,12,70,066,25,14,30,300,28*71

5:36:04:388 Nachm. 03/26/17 - $GPGSV,3,2,12,19,12,043,19,24,38,147,18,25,58,275,31,31,12,307,27*71

5:36:04:388 Nachm. 03/26/17 - $GPGSV,3,3,12,32,34,271,26,03,02,357,,22,,,,29,22,206,*43

5:36:04:406 Nachm. 03/26/17 - $GLGSV,3,1,09,82,66,101,18,73,52,312,32,80,68,091,16,79,11,113,16*6C

5:36:04:406 Nachm. 03/26/17 - $GLGSV,3,2,09,83,30,178,14,81,29,035,18,71,14,275,14,72,18,326,14*6B

5:36:04:406 Nachm. 03/26/17 - $GLGSV,3,3,09,65,04,009,*52

5:36:04:407 Nachm. 03/26/17 - $GPGGA,153601.0,5208.370561,N,01138.432403,E,1,08,1.0,67.6,M,45.0,M,,*63

5:36:04:407 Nachm. 03/26/17 - $GNGNS,153601.0,5208.370561,N,01138.432403,E,AA,09,1.0,67.6,45.0,,*56

5:36:04:407 Nachm. 03/26/17 - $GPVTG,118.0,T,117.6,M,0.0,N,0.0,K,A*2A

5:36:04:407 Nachm. 03/26/17 - $GPRMC,153601.0,A,5208.370561,N,01138.432403,E,0.0,118.0,260317,0.4,E,A*08

5:36:04:407 Nachm. 03/26/17 - $GPGSA,A,2,02,06,12,14,19,24,25,32,,,,,1.4,1.0,0.9*34

5:36:04:408 Nachm. 03/26/17 - $GNGSA,A,2,02,06,12,14,19,24,25,32,,,,,1.4,1.0,0.9*2A

5:36:04:409 Nachm. 03/26/17 - $GNGSA,A,2,73,,,,,,,,,,,,1.4,1.0,0.9*24

5:36:05:389 Nachm. 03/26/17 - $GPGSV,3,1,12,02,29,108,26,06,26,061,17,12,70,066,19,14,30,300,29*7D

5:36:05:390 Nachm. 03/26/17 - $GPGSV,3,2,12,19,12,043,19,24,38,147,18,25,58,275,30,31,12,307,28*7F

5:36:05:391 Nachm. 03/26/17 - $GPGSV,3,3,12,32,34,271,29,03,02,357,,22,,,,29,22,206,*4C

5:36:05:395 Nachm. 03/26/17 - $GLGSV,3,1,09,82,66,101,20,73,52,312,34,80,68,091,16,79,11,113,16*61

5:36:05:402 Nachm. 03/26/17 - $GLGSV,3,2,09,83,30,178,14,81,29,035,20,71,14,275,14,72,18,326,14*60

5:36:05:403 Nachm. 03/26/17 - $GLGSV,3,3,09,65,04,009,*52

5:36:05:403 Nachm. 03/26/17 - $GPGGA,153602.0,5208.369386,N,01138.432753,E,1,08,1.0,65.9,M,45.0,M,,*6C

5:36:05:407 Nachm. 03/26/17 - $GNGNS,153602.0,5208.369386,N,01138.432753,E,AA,09,1.0,65.9,45.0,,*59

5:36:05:408 Nachm. 03/26/17 - $GPVTG,118.0,T,117.6,M,0.0,N,0.0,K,A*2A

5:36:05:408 Nachm. 03/26/17 - $GPRMC,153602.0,A,5208.369386,N,01138.432753,E,0.0,118.0,260317,0.4,E,A*0A

5:36:05:409 Nachm. 03/26/17 - $GPGSA,A,2,02,06,12,14,19,24,25,32,,,,,1.4,1.0,0.9*34

5:36:05:411 Nachm. 03/26/17 - $GNGSA,A,2,02,06,12,14,19,24,25,32,,,,,1.4,1.0,0.9*2A

5:36:05:411 Nachm. 03/26/17 - $GNGSA,A,2,73,,,,,,,,,,,,1.4,1.0,0.9*24

5:36:06:387 Nachm. 03/26/17 - $GPGSV,3,1,12,02,29,108,26,06,26,061,17,12,70,066,18,14,30,300,26*73

5:36:06:389 Nachm. 03/26/17 - $GPGSV,3,2,12,19,12,043,19,24,38,147,18,25,58,275,31,31,12,307,24*72

5:36:06:391 Nachm. 03/26/17 - $GPGSV,3,3,12,32,34,271,29,03,02,357,,22,,,,29,22,206,*4C

5:36:06:400 Nachm. 03/26/17 - $GLGSV,3,1,09,82,66,101,20,73,52,312,33,80,68,091,16,79,11,113,16*66

5:36:06:401 Nachm. 03/26/17 - $GLGSV,3,2,09,83,30,178,14,81,29,035,17,71,14,275,14,72,18,326,14*64

5:36:06:402 Nachm. 03/26/17 - $GLGSV,3,3,09,65,04,009,*52

5:36:06:402 Nachm. 03/26/17 - $GPGGA,153603.0,5208.369444,N,01138.432805,E,1,08,1.0,65.8,M,45.0,M,,*69

5:36:06:403 Nachm. 03/26/17 - $GNGNS,153603.0,5208.369444,N,01138.432805,E,AA,09,1.0,65.8,45.0,,*5C

5:36:06:406 Nachm. 03/26/17 - $GPVTG,118.0,T,117.6,M,0.0,N,0.0,K,A*2A

5:36:06:407 Nachm. 03/26/17 - $GPRMC,153603.0,A,5208.369444,N,01138.432805,E,0.0,118.0,260317,0.4,E,A*0E

5:36:06:407 Nachm. 03/26/17 - $GPGSA,A,2,02,06,12,14,19,24,25,32,,,,,1.4,1.0,0.9*34

5:36:06:407 Nachm. 03/26/17 - $GNGSA,A,2,02,06,12,14,19,24,25,32,,,,,1.4,1.0,0.9*2A

5:36:06:408 Nachm. 03/26/17 - $GNGSA,A,2,73,,,,,,,,,,,,1.4,1.0,0.9*24

5:36:07:385 Nachm. 03/26/17 - $GPGSV,3,1,12,02,30,108,17,06,26,061,17,12,70,066,20,14,30,299,27*72

5:36:07:385 Nachm. 03/26/17 - $GPGSV,3,2,12,19,12,043,19,24,38,147,18,25,58,275,29,31,12,307,27*78

5:36:07:386 Nachm. 03/26/17 - $GPGSV,3,3,12,32,34,270,30,03,02,357,,22,,,,29,22,206,*45

5:36:07:388 Nachm. 03/26/17 - $GLGSV,3,1,09,82,66,101,16,73,52,312,33,80,68,091,16,79,11,113,10*65

5:36:07:388 Nachm. 03/26/17 - $GLGSV,3,2,09,83,30,178,14,81,29,035,17,71,14,275,13,72,18,326,14*63

5:36:07:389 Nachm. 03/26/17 - $GLGSV,3,3,09,65,04,009,*52

5:36:07:389 Nachm. 03/26/17 - $GPGGA,153604.0,5208.369075,N,01138.433069,E,1,07,1.2,65.4,M,45.0,M,,*6A

5:36:07:392 Nachm. 03/26/17 - $GNGNS,153604.0,5208.369075,N,01138.433069,E,AA,08,1.2,65.4,45.0,,*51

5:36:07:392 Nachm. 03/26/17 - $GPVTG,118.0,T,117.6,M,0.0,N,0.0,K,A*2A

5:36:07:393 Nachm. 03/26/17 - $GPRMC,153604.0,A,5208.369075,N,01138.433069,E,0.0,118.0,260317,0.4,E,A*0C

5:36:07:393 Nachm. 03/26/17 - $GPGSA,A,2,02,06,12,14,24,25,32,,,,,,1.5,1.2,0.9*3F

5:36:07:394 Nachm. 03/26/17 - $GNGSA,A,2,02,06,12,14,24,25,32,,,,,,1.5,1.2,0.9*21

5:36:07:394 Nachm. 03/26/17 - $GNGSA,A,2,73,,,,,,,,,,,,1.5,1.2,0.9*27

5:36:08:387 Nachm. 03/26/17 - $GPGSV,3,1,12,02,30,108,27,06,26,061,15,12,70,066,17,14,30,299,29*79

5:36:08:387 Nachm. 03/26/17 - $GPGSV,3,2,12,19,12,043,19,24,38,147,15,25,58,275,29,31,12,307,27*75

5:36:08:387 Nachm. 03/26/17 - $GPGSV,3,3,12,32,34,270,30,03,02,357,,22,,,,29,22,206,*45

5:36:08:388 Nachm. 03/26/17 - $GLGSV,3,1,09,82,66,101,18,73,52,312,33,80,68,091,16,79,11,113,10*6B

5:36:08:388 Nachm. 03/26/17 - $GLGSV,3,2,09,83,30,178,14,81,29,035,17,71,14,275,13,72,18,326,14*63

5:36:08:388 Nachm. 03/26/17 - $GLGSV,3,3,09,65,04,009,*52

5:36:08:388 Nachm. 03/26/17 - $GPGGA,153605.0,5208.369174,N,01138.432723,E,1,07,1.2,65.7,M,45.0,M,,*60

5:36:08:389 Nachm. 03/26/17 - $GNGNS,153605.0,5208.369174,N,01138.432723,E,AA,08,1.2,65.7,45.0,,*5B

5:36:08:393 Nachm. 03/26/17 - $GPVTG,118.0,T,117.6,M,0.0,N,0.0,K,A*2A

5:36:08:394 Nachm. 03/26/17 - $GPRMC,153605.0,A,5208.369174,N,01138.432723,E,0.0,118.0,260317,0.4,E,A*05

5:36:08:394 Nachm. 03/26/17 - $GPGSA,A,2,02,06,12,14,24,25,32,,,,,,1.5,1.2,0.9*3F

5:36:08:394 Nachm. 03/26/17 - $GNGSA,A,2,02,06,12,14,24,25,32,,,,,,1.5,1.2,0.9*21

5:36:08:397 Nachm. 03/26/17 - $GNGSA,A,2,73,,,,,,,,,,,,1.5,1.2,0.9*27

5:36:09:385 Nachm. 03/26/17 - $GPGSV,3,1,12,02,30,108,28,06,26,061,19,12,70,066,20,14,30,299,29*7E

5:36:09:386 Nachm. 03/26/17 - $GPGSV,3,2,12,19,12,043,19,24,38,147,20,25,58,275,29,31,12,307,26*72

5:36:09:390 Nachm. 03/26/17 - $GPGSV,3,3,12,32,34,270,30,03,02,357,,22,,,,29,22,206,*45

5:36:09:393 Nachm. 03/26/17 - $GLGSV,3,1,09,82,66,101,19,73,52,312,33,80,68,091,12,79,11,113,10*6E

5:36:09:393 Nachm. 03/26/17 - $GLGSV,3,2,09,83,30,178,14,81,29,035,17,71,14,275,13,72,18,326,13*64

5:36:09:394 Nachm. 03/26/17 - $GLGSV,3,3,09,65,04,009,*52

5:36:09:398 Nachm. 03/26/17 - $GPGGA,153606.0,5208.368796,N,01138.432937,E,1,07,1.2,64.6,M,45.0,M,,*63

5:36:09:400 Nachm. 03/26/17 - $GNGNS,153606.0,5208.368796,N,01138.432937,E,AA,08,1.2,64.6,45.0,,*58

5:36:09:401 Nachm. 03/26/17 - $GPVTG,118.0,T,117.6,M,0.0,N,0.0,K,A*2A

5:36:09:401 Nachm. 03/26/17 - $GPRMC,153606.0,A,5208.368796,N,01138.432937,E,0.0,118.0,260317,0.4,E,A*06

5:36:09:401 Nachm. 03/26/17 - $GPGSA,A,2,02,06,12,14,24,25,32,,,,,,1.5,1.2,0.9*3F

5:36:09:402 Nachm. 03/26/17 - $GNGSA,A,2,02,06,12,14,24,25,32,,,,,,1.5,1.2,0.9*21

5:36:09:402 Nachm. 03/26/17 - $GNGSA,A,2,73,,,,,,,,,,,,1.5,1.2,0.9*27

5:36:10:387 Nachm. 03/26/17 - $GPGSV,3,1,12,02,30,108,28,06,26,061,18,12,70,066,17,14,30,299,29*7B

5:36:10:388 Nachm. 03/26/17 - $GPGSV,3,2,12,19,12,043,19,24,38,147,20,25,58,275,29,31,12,307,26*72

5:36:10:389 Nachm. 03/26/17 - $GPGSV,3,3,12,32,34,270,30,03,02,357,,22,,,,29,22,206,*45

5:36:10:393 Nachm. 03/26/17 - $GLGSV,3,1,09,82,66,101,18,73,52,312,34,80,68,091,12,79,11,113,10*68

5:36:10:394 Nachm. 03/26/17 - $GLGSV,3,2,09,83,30,178,14,81,29,035,17,71,14,275,13,72,18,326,13*64

5:36:10:394 Nachm. 03/26/17 - $GLGSV,3,3,09,65,04,009,*52

5:36:10:395 Nachm. 03/26/17 - $GPGGA,153607.0,5208.369058,N,01138.433008,E,1,07,1.2,65.8,M,45.0,M,,*6D

5:36:10:407 Nachm. 03/26/17 - $GNGNS,153607.0,5208.369058,N,01138.433008,E,AA,08,1.2,65.8,45.0,,*56

5:36:10:409 Nachm. 03/26/17 - $GPVTG,118.0,T,117.6,M,0.0,N,0.0,K,A*2A

5:36:10:413 Nachm. 03/26/17 - $GPRMC,153607.0,A,5208.369058,N,01138.433008,E,0.0,118.0,260317,0.4,E,A*07

5:36:10:420 Nachm. 03/26/17 - $GPGSA,A,2,02,06,12,14,24,25,32,,,,,,1.5,1.2,0.9*3F

5:36:10:421 Nachm. 03/26/17 - $GNGSA,A,2,02,06,12,14,24,25,32,,,,,,1.5,1.2,0.9*21

5:36:10:421 Nachm. 03/26/17 - $GNGSA,A,2,73,,,,,,,,,,,,1.5,1.2,0.9*27

5:36:11:386 Nachm. 03/26/17 - $GPGSV,3,1,12,02,30,108,26,06,26,061,18,12,70,066,17,14,30,299,29*75

5:36:11:388 Nachm. 03/26/17 - $GPGSV,3,2,12,19,12,043,19,24,38,147,20,25,58,275,29,31,12,307,27*73

5:36:11:389 Nachm. 03/26/17 - $GPGSV,3,3,12,32,34,270,30,03,02,357,,22,,,,29,22,206,*45

5:36:11:396 Nachm. 03/26/17 - $GLGSV,3,1,09,82,66,101,19,73,52,312,34,80,68,091,12,79,11,113,10*69

5:36:11:398 Nachm. 03/26/17 - $GLGSV,3,2,09,83,30,178,14,81,29,035,13,71,14,275,17,72,18,326,15*62

5:36:11:398 Nachm. 03/26/17 - $GLGSV,3,3,09,65,04,009,*52

5:36:11:403 Nachm. 03/26/17 - $GPGGA,153608.0,5208.369067,N,01138.432675,E,1,07,1.2,66.5,M,45.0,M,,*6D

5:36:11:403 Nachm. 03/26/17 - $GNGNS,153608.0,5208.369067,N,01138.432675,E,AA,08,1.2,66.5,45.0,,*56

5:36:11:403 Nachm. 03/26/17 - $GPVTG,118.0,T,117.6,M,0.0,N,0.0,K,A*2A

5:36:11:404 Nachm. 03/26/17 - $GPRMC,153608.0,A,5208.369067,N,01138.432675,E,0.0,118.0,260317,0.4,E,A*09

5:36:11:404 Nachm. 03/26/17 - $GPGSA,A,2,02,06,12,14,24,25,32,,,,,,1.5,1.2,0.9*3F

5:36:11:404 Nachm. 03/26/17 - $GNGSA,A,2,02,06,12,14,24,25,32,,,,,,1.5,1.2,0.9*21

5:36:11:404 Nachm. 03/26/17 - $GNGSA,A,2,73,,,,,,,,,,,,1.5,1.2,0.9*27

5:36:12:384 Nachm. 03/26/17 - $GPGSV,3,1,12,02,30,108,25,06,26,061,18,12,70,066,14,14,30,299,26*7A

5:36:12:385 Nachm. 03/26/17 - $GPGSV,3,2,12,19,12,043,19,24,38,147,20,25,58,275,31,31,12,307,28*75

5:36:12:385 Nachm. 03/26/17 - $GPGSV,3,3,12,32,34,270,30,03,02,357,,22,,,,29,22,206,*45

5:36:12:386 Nachm. 03/26/17 - $GLGSV,3,1,09,82,66,101,21,73,52,312,32,80,68,091,12,79,11,113,12*66

5:36:12:386 Nachm. 03/26/17 - $GLGSV,3,2,09,83,30,178,14,81,29,035,17,71,14,275,17,72,18,326,15*66

5:36:12:386 Nachm. 03/26/17 - $GLGSV,3,3,09,65,04,009,*52

5:36:12:386 Nachm. 03/26/17 - $GPGGA,153609.0,5208.369035,N,01138.432655,E,1,07,1.2,66.4,M,45.0,M,,*68

5:36:12:389 Nachm. 03/26/17 - $GNGNS,153609.0,5208.369035,N,01138.432655,E,AA,08,1.2,66.4,45.0,,*53

5:36:12:390 Nachm. 03/26/17 - $GPVTG,118.0,T,117.6,M,0.0,N,0.0,K,A*2A

5:36:12:390 Nachm. 03/26/17 - $GPRMC,153609.0,A,5208.369035,N,01138.432655,E,0.0,118.0,260317,0.4,E,A*0D

5:36:12:392 Nachm. 03/26/17 - $GPGSA,A,2,02,06,12,14,24,25,32,,,,,,1.5,1.2,0.9*3F

5:36:12:392 Nachm. 03/26/17 - $GNGSA,A,2,02,06,12,14,24,25,32,,,,,,1.5,1.2,0.9*21

5:36:12:392 Nachm. 03/26/17 - $GNGSA,A,2,73,,,,,,,,,,,,1.5,1.2,0.9*27

5:36:13:386 Nachm. 03/26/17 - $GPGSV,3,1,12,02,30,108,24,06,26,061,18,12,70,066,14,14,30,299,28*75

5:36:13:387 Nachm. 03/26/17 - $GPGSV,3,2,12,19,12,043,19,24,38,147,19,25,58,275,29,31,12,307,26*78

5:36:13:390 Nachm. 03/26/17 - $GPGSV,3,3,12,32,34,270,30,03,02,357,,22,,,,29,22,206,*45

5:36:13:392 Nachm. 03/26/17 - $GLGSV,3,1,09,82,66,101,20,73,52,312,33,80,68,091,12,79,11,113,12*66

5:36:13:398 Nachm. 03/26/17 - $GLGSV,3,2,09,83,30,178,14,81,29,035,17,71,14,275,16,72,18,326,15*67

5:36:13:398 Nachm. 03/26/17 - $GLGSV,3,3,09,65,04,009,*52

5:36:13:398 Nachm. 03/26/17 - $GPGGA,153610.0,5208.368813,N,01138.432760,E,1,07,1.2,66.3,M,45.0,M,,*6D

5:36:13:398 Nachm. 03/26/17 - $GNGNS,153610.0,5208.368813,N,01138.432760,E,AA,08,1.2,66.3,45.0,,*56

5:36:13:399 Nachm. 03/26/17 - $GPVTG,118.0,T,117.6,M,0.0,N,0.0,K,A*2A

5:36:13:399 Nachm. 03/26/17 - $GPRMC,153610.0,A,5208.368813,N,01138.432760,E,0.0,118.0,260317,0.4,E,A*0F

5:36:13:399 Nachm. 03/26/17 - $GPGSA,A,2,02,06,12,14,24,25,32,,,,,,1.5,1.2,0.9*3F

5:36:13:399 Nachm. 03/26/17 - $GNGSA,A,2,02,06,12,14,24,25,32,,,,,,1.5,1.2,0.9*21

5:36:13:399 Nachm. 03/26/17 - $GNGSA,A,2,73,,,,,,,,,,,,1.5,1.2,0.9*27

5:36:14:387 Nachm. 03/26/17 - $GPGSV,3,1,12,02,30,108,27,06,26,061,18,12,70,066,16,14,30,299,29*75

5:36:14:388 Nachm. 03/26/17 - $GPGSV,3,2,12,19,12,043,19,24,38,147,21,25,58,275,29,31,12,307,26*73

5:36:14:397 Nachm. 03/26/17 - $GPGSV,3,3,12,32,34,270,31,03,02,357,,22,,,,29,22,206,*44

5:36:14:397 Nachm. 03/26/17 - $GLGSV,3,1,09,82,66,101,21,73,52,312,34,80,68,091,12,79,11,113,12*60

5:36:14:400 Nachm. 03/26/17 - $GLGSV,3,2,09,83,30,178,14,81,29,035,17,71,14,275,16,72,18,326,13*61

5:36:14:400 Nachm. 03/26/17 - $GLGSV,3,3,09,65,04,009,*52

5:36:14:401 Nachm. 03/26/17 - $GPGGA,153611.0,5208.368776,N,01138.432743,E,1,07,1.2,66.3,M,45.0,M,,*61

5:36:14:409 Nachm. 03/26/17 - $GNGNS,153611.0,5208.368776,N,01138.432743,E,AA,08,1.2,66.3,45.0,,*5A

5:36:14:416 Nachm. 03/26/17 - $GPVTG,118.0,T,117.6,M,0.0,N,0.0,K,A*2A

5:36:14:417 Nachm. 03/26/17 - $GPRMC,153611.0,A,5208.368776,N,01138.432743,E,0.0,118.0,260317,0.4,E,A*03

5:36:14:417 Nachm. 03/26/17 - $GPGSA,A,2,02,06,12,14,24,25,32,,,,,,1.5,1.2,0.9*3F

5:36:14:418 Nachm. 03/26/17 - $GNGSA,A,2,02,06,12,14,24,25,32,,,,,,1.5,1.2,0.9*21

5:36:14:418 Nachm. 03/26/17 - $GNGSA,A,2,73,,,,,,,,,,,,1.5,1.2,0.9*27

5:36:15:385 Nachm. 03/26/17 - $GPGSV,3,1,12,02,30,108,28,06,26,061,18,12,70,066,20,14,30,299,29*7F

5:36:15:395 Nachm. 03/26/17 - $GPGSV,3,2,12,19,12,043,19,24,38,147,21,25,58,275,29,31,12,307,26*73

5:36:15:396 Nachm. 03/26/17 - $GPGSV,3,3,12,32,34,270,30,03,02,357,,22,,,,29,22,206,*45

5:36:15:396 Nachm. 03/26/17 - $GLGSV,3,1,09,82,66,101,17,73,52,312,34,80,68,091,12,79,11,113,12*65

5:36:15:397 Nachm. 03/26/17 - $GLGSV,3,2,09,83,30,178,14,81,29,035,17,71,14,275,16,72,18,326,17*65

5:36:15:397 Nachm. 03/26/17 - $GLGSV,3,3,09,65,04,009,*52

5:36:15:397 Nachm. 03/26/17 - $GPGGA,153612.0,5208.368828,N,01138.432728,E,1,07,1.2,66.2,M,45.0,M,,*6A

5:36:15:406 Nachm. 03/26/17 - $GNGNS,153612.0,5208.368828,N,01138.432728,E,AA,08,1.2,66.2,45.0,,*51

5:36:15:407 Nachm. 03/26/17 - $GPVTG,118.0,T,117.6,M,0.0,N,0.0,K,A*2A

5:36:15:407 Nachm. 03/26/17 - $GPRMC,153612.0,A,5208.368828,N,01138.432728,E,0.0,118.0,260317,0.4,E,A*09

5:36:15:407 Nachm. 03/26/17 - $GPGSA,A,2,02,06,12,14,24,25,32,,,,,,1.5,1.2,0.9*3F

5:36:15:407 Nachm. 03/26/17 - $GNGSA,A,2,02,06,12,14,24,25,32,,,,,,1.5,1.2,0.9*21

5:36:15:408 Nachm. 03/26/17 - $GNGSA,A,2,73,,,,,,,,,,,,1.5,1.2,0.9*27

5:36:16:387 Nachm. 03/26/17 - $GPGSV,3,1,12,02,30,108,27,06,26,061,18,12,70,066,20,14,30,299,30*78

5:36:16:388 Nachm. 03/26/17 - $GPGSV,3,2,12,19,12,043,19,24,38,147,21,25,58,275,29,31,12,307,26*73

5:36:16:389 Nachm. 03/26/17 - $GPGSV,3,3,12,32,34,270,30,03,02,357,,22,,,,29,22,206,*45

5:36:16:392 Nachm. 03/26/17 - $GLGSV,3,1,09,82,66,101,19,73,52,312,34,80,68,091,12,79,11,113,12*6B

5:36:16:394 Nachm. 03/26/17 - $GLGSV,3,2,09,83,30,178,14,81,29,035,17,71,14,275,16,72,18,326,17*65

5:36:16:394 Nachm. 03/26/17 - $GLGSV,3,3,09,65,04,009,*52

5:36:16:395 Nachm. 03/26/17 - $GPGGA,153613.0,5208.368844,N,01138.432728,E,1,07,1.2,66.2,M,45.0,M,,*61

5:36:16:403 Nachm. 03/26/17 - $GNGNS,153613.0,5208.368844,N,01138.432728,E,AA,08,1.2,66.2,45.0,,*5A

5:36:16:407 Nachm. 03/26/17 - $GPVTG,118.0,T,117.6,M,0.0,N,0.0,K,A*2A

5:36:16:408 Nachm. 03/26/17 - $GPRMC,153613.0,A,5208.368844,N,01138.432728,E,0.0,118.0,260317,0.4,E,A*02

5:36:16:408 Nachm. 03/26/17 - $GPGSA,A,2,02,06,12,14,24,25,32,,,,,,1.5,1.2,0.9*3F

5:36:16:409 Nachm. 03/26/17 - $GNGSA,A,2,02,06,12,14,24,25,32,,,,,,1.5,1.2,0.9*21

5:36:16:414 Nachm. 03/26/17 - $GNGSA,A,2,73,,,,,,,,,,,,1.5,1.2,0.9*27

5:36:17:386 Nachm. 03/26/17 - $GPGSV,3,1,12,02,30,108,27,06,26,061,18,12,70,066,18,14,30,299,30*73

5:36:17:386 Nachm. 03/26/17 - $GPGSV,3,2,12,19,12,043,19,24,38,147,19,25,58,275,30,31,12,307,26*70

5:36:17:387 Nachm. 03/26/17 - $GPGSV,3,3,12,32,34,270,30,03,02,357,,22,,,,29,22,206,*45

5:36:17:388 Nachm. 03/26/17 - $GLGSV,3,1,09,82,66,101,20,73,52,312,35,80,68,091,12,79,11,113,12*60

5:36:17:388 Nachm. 03/26/17 - $GLGSV,3,2,09,83,30,178,14,81,29,035,14,71,14,275,16,72,18,326,17*66

5:36:17:388 Nachm. 03/26/17 - $GLGSV,3,3,09,65,04,009,*52

5:36:17:389 Nachm. 03/26/17 - $GPGGA,153614.0,5208.368849,N,01138.432726,E,1,06,1.7,66.2,M,45.0,M,,*61

5:36:17:391 Nachm. 03/26/17 - $GNGNS,153614.0,5208.368849,N,01138.432726,E,AA,07,1.7,66.2,45.0,,*54

5:36:17:391 Nachm. 03/26/17 - $GPVTG,118.0,T,117.6,M,0.0,N,0.0,K,A*2A

5:36:17:391 Nachm. 03/26/17 - $GPRMC,153614.0,A,5208.368849,N,01138.432726,E,0.0,118.0,260317,0.4,E,A*06

5:36:17:391 Nachm. 03/26/17 - $GPGSA,A,2,02,12,14,24,25,32,,,,,,,2.0,1.7,0.9*3A

5:36:17:391 Nachm. 03/26/17 - $GNGSA,A,2,02,12,14,24,25,32,,,,,,,2.0,1.7,0.9*24

5:36:17:392 Nachm. 03/26/17 - $GNGSA,A,2,73,,,,,,,,,,,,2.0,1.7,0.9*24

5:36:18:387 Nachm. 03/26/17 - $GPGSV,3,1,12,02,30,108,26,06,26,061,18,12,70,066,18,14,30,299,30*72

5:36:18:388 Nachm. 03/26/17 - $GPGSV,3,2,12,19,12,043,19,24,38,147,20,25,58,275,29,31,12,307,26*72

5:36:18:389 Nachm. 03/26/17 - $GPGSV,3,3,12,32,34,270,31,03,02,357,,22,,,,29,22,206,*44

5:36:18:390 Nachm. 03/26/17 - $GLGSV,3,1,09,82,66,101,21,73,52,312,34,80,68,091,12,79,11,113,12*60

5:36:18:391 Nachm. 03/26/17 - $GLGSV,3,2,09,83,30,178,14,81,29,035,14,71,14,275,16,72,18,326,17*66

5:36:18:391 Nachm. 03/26/17 - $GLGSV,3,3,09,65,04,009,*52

5:36:18:392 Nachm. 03/26/17 - $GPGGA,153615.0,5208.368848,N,01138.432723,E,1,06,1.7,66.2,M,45.0,M,,*64

5:36:18:411 Nachm. 03/26/17 - $GNGNS,153615.0,5208.368848,N,01138.432723,E,AA,07,1.7,66.2,45.0,,*51

5:36:18:413 Nachm. 03/26/17 - $GPVTG,118.0,T,117.6,M,0.0,N,0.0,K,A*2A

5:36:18:413 Nachm. 03/26/17 - $GPRMC,153615.0,A,5208.368848,N,01138.432723,E,0.0,118.0,260317,0.4,E,A*03

5:36:18:414 Nachm. 03/26/17 - $GPGSA,A,2,02,12,14,24,25,32,,,,,,,2.0,1.7,0.9*3A

5:36:18:414 Nachm. 03/26/17 - $GNGSA,A,2,02,12,14,24,25,32,,,,,,,2.0,1.7,0.9*24

5:36:18:415 Nachm. 03/26/17 - $GNGSA,A,2,73,,,,,,,,,,,,2.0,1.7,0.9*24

5:36:19:386 Nachm. 03/26/17 - $GPGSV,3,1,12,02,30,108,27,06,26,061,18,12,70,066,17,14,30,299,30*7C

5:36:19:388 Nachm. 03/26/17 - $GPGSV,3,2,12,19,12,043,19,24,38,147,20,25,58,275,30,31,12,307,26*7A

5:36:19:389 Nachm. 03/26/17 - $GPGSV,3,3,12,32,34,270,30,03,02,357,,22,,,,29,22,206,*45

5:36:19:399 Nachm. 03/26/17 - $GLGSV,3,1,09,82,66,101,20,73,52,312,34,80,68,091,12,79,11,113,12*61

5:36:19:401 Nachm. 03/26/17 - $GLGSV,3,2,09,83,30,178,14,81,29,035,15,71,14,275,16,72,18,326,17*67

5:36:19:402 Nachm. 03/26/17 - $GLGSV,3,3,09,65,04,009,*52

5:36:19:402 Nachm. 03/26/17 - $GPGGA,153616.0,5208.368853,N,01138.432720,E,1,06,1.7,66.2,M,45.0,M,,*6E

5:36:19:404 Nachm. 03/26/17 - $GNGNS,153616.0,5208.368853,N,01138.432720,E,AA,07,1.7,66.2,45.0,,*5B

5:36:19:405 Nachm. 03/26/17 - $GPVTG,118.0,T,117.6,M,0.0,N,0.0,K,A*2A

5:36:19:405 Nachm. 03/26/17 - $GPRMC,153616.0,A,5208.368853,N,01138.432720,E,0.0,118.0,260317,0.4,E,A*09

5:36:19:405 Nachm. 03/26/17 - $GPGSA,A,2,02,12,14,24,25,32,,,,,,,2.0,1.7,0.9*3A

5:36:19:406 Nachm. 03/26/17 - $GNGSA,A,2,02,12,14,24,25,32,,,,,,,2.0,1.7,0.9*24

5:36:19:406 Nachm. 03/26/17 - $GNGSA,A,2,73,,,,,,,,,,,,2.0,1.7,0.9*24

5:36:20:387 Nachm. 03/26/17 - $GPGSV,3,1,12,02,30,108,27,06,26,061,13,12,70,066,17,14,30,299,29*7F

5:36:20:388 Nachm. 03/26/17 - $GPGSV,3,2,12,19,12,043,19,24,38,147,19,25,58,275,30,31,12,307,26*70

5:36:20:389 Nachm. 03/26/17 - $GPGSV,3,3,12,32,34,270,30,03,02,357,,22,,,,29,22,206,*45

5:36:20:399 Nachm. 03/26/17 - $GLGSV,3,1,09,82,66,101,18,73,52,312,34,80,68,091,12,79,11,113,12*6A

5:36:20:409 Nachm. 03/26/17 - $GLGSV,3,2,09,81,29,035,15,71,14,275,16,72,18,326,17,65,04,009,*6A

5:36:20:411 Nachm. 03/26/17 - $GLGSV,3,3,09,,30,178,*51

5:36:20:411 Nachm. 03/26/17 - $GPGGA,153617.0,5208.368849,N,01138.432703,E,1,07,1.2,66.2,M,45.0,M,,*61

5:36:20:411 Nachm. 03/26/17 - $GNGNS,153617.0,5208.368849,N,01138.432703,E,AA,08,1.2,66.2,45.0,,*5A

5:36:20:411 Nachm. 03/26/17 - $GPVTG,118.0,T,117.6,M,0.0,N,0.0,K,A*2A

5:36:20:411 Nachm. 03/26/17 - $GPRMC,153617.0,A,5208.368849,N,01138.432703,E,0.0,118.0,260317,0.4,E,A*02

5:36:20:412 Nachm. 03/26/17 - $GPGSA,A,2,02,06,12,14,24,25,32,,,,,,1.5,1.2,0.9*3F

5:36:20:412 Nachm. 03/26/17 - $GNGSA,A,2,02,06,12,14,24,25,32,,,,,,1.5,1.2,0.9*21

5:36:20:412 Nachm. 03/26/17 - $GNGSA,A,2,73,,,,,,,,,,,,1.5,1.2,0.9*27

5:36:21:388 Nachm. 03/26/17 - $GPGSV,3,1,12,02,30,108,27,06,26,061,13,12,70,066,17,14,30,299,29*7F

5:36:21:389 Nachm. 03/26/17 - $GPGSV,3,2,12,19,12,043,19,24,38,147,18,25,58,275,30,31,12,307,26*71

5:36:21:392 Nachm. 03/26/17 - $GPGSV,3,3,12,32,34,270,30,03,02,357,,22,,,,29,22,206,*45

5:36:21:392 Nachm. 03/26/17 - $GLGSV,3,1,09,82,66,101,19,73,52,312,33,80,68,091,12,79,11,113,12*6C

5:36:21:393 Nachm. 03/26/17 - $GLGSV,3,2,09,81,29,035,15,71,14,275,11,72,18,326,17,65,04,009,*6D

5:36:21:400 Nachm. 03/26/17 - $GLGSV,3,3,09,83,30,178,*5A

5:36:21:411 Nachm. 03/26/17 - $GPGGA,153618.0,5208.368852,N,01138.432701,E,1,07,1.2,66.2,M,45.0,M,,*66

5:36:21:412 Nachm. 03/26/17 - $GNGNS,153618.0,5208.368852,N,01138.432701,E,AA,08,1.2,66.2,45.0,,*5D

5:36:21:412 Nachm. 03/26/17 - $GPVTG,118.0,T,117.6,M,0.0,N,0.0,K,A*2A

5:36:21:413 Nachm. 03/26/17 - $GPRMC,153618.0,A,5208.368852,N,01138.432701,E,0.0,118.0,260317,0.4,E,A*05

5:36:21:413 Nachm. 03/26/17 - $GPGSA,A,2,02,06,12,14,24,25,32,,,,,,1.5,1.2,0.9*3F

5:36:21:414 Nachm. 03/26/17 - $GNGSA,A,2,02,06,12,14,24,25,32,,,,,,1.5,1.2,0.9*21

5:36:21:414 Nachm. 03/26/17 - $GNGSA,A,2,73,,,,,,,,,,,,1.5,1.2,0.9*27

5:36:22:385 Nachm. 03/26/17 - $GPGSV,3,1,12,02,30,108,25,06,26,061,13,12,70,066,17,14,30,299,29*7D

5:36:22:386 Nachm. 03/26/17 - $GPGSV,3,2,12,19,12,043,19,24,38,147,19,25,58,275,30,31,12,307,26*70

5:36:22:387 Nachm. 03/26/17 - $GPGSV,3,3,12,32,34,270,30,03,02,357,,22,,,,29,22,206,*45

5:36:22:388 Nachm. 03/26/17 - $GLGSV,3,1,09,82,66,101,18,73,52,312,33,80,68,091,12,79,11,113,10*6F

5:36:22:393 Nachm. 03/26/17 - $GLGSV,3,2,09,81,29,035,16,71,14,275,11,72,18,326,10,65,04,009,*69

5:36:22:394 Nachm. 03/26/17 - $GLGSV,3,3,09,83,30,178,*5A

5:36:22:395 Nachm. 03/26/17 - $GPGGA,153619.0,5208.368854,N,01138.432700,E,1,07,1.2,66.2,M,45.0,M,,*60

5:36:22:402 Nachm. 03/26/17 - $GNGNS,153619.0,5208.368854,N,01138.432700,E,AA,08,1.2,66.2,45.0,,*5B

5:36:22:407 Nachm. 03/26/17 - $GPVTG,118.0,T,117.6,M,0.0,N,0.0,K,A*2A

5:36:22:408 Nachm. 03/26/17 - $GPRMC,153619.0,A,5208.368854,N,01138.432700,E,0.0,118.0,260317,0.4,E,A*03

5:36:22:408 Nachm. 03/26/17 - $GPGSA,A,2,02,06,12,14,24,25,32,,,,,,1.5,1.2,0.9*3F

5:36:22:408 Nachm. 03/26/17 - $GNGSA,A,2,02,06,12,14,24,25,32,,,,,,1.5,1.2,0.9*21

5:36:22:409 Nachm. 03/26/17 - $GNGSA,A,2,73,,,,,,,,,,,,1.5,1.2,0.9*27

5:36:23:386 Nachm. 03/26/17 - $GPGSV,3,1,12,02,30,108,24,06,26,061,13,12,70,066,14,14,30,299,29*7F

5:36:23:388 Nachm. 03/26/17 - $GPGSV,3,2,12,19,12,043,19,24,38,147,18,25,58,275,30,29,22,206,17*79

5:36:23:392 Nachm. 03/26/17 - $GPGSV,3,3,12,31,12,307,26,32,34,270,30,03,02,357,,22,,,*4B

5:36:23:394 Nachm. 03/26/17 - $GLGSV,3,1,09,82,66,101,21,73,52,312,32,80,68,091,12,79,11,113,10*64

5:36:23:401 Nachm. 03/26/17 - $GLGSV,3,2,09,81,29,035,16,71,14,275,11,72,18,326,10,65,04,009,*69

5:36:23:406 Nachm. 03/26/17 - $GLGSV,3,3,09,83,30,178,*5A

5:36:23:407 Nachm. 03/26/17 - $GPGGA,153620.0,5208.368854,N,01138.432698,E,1,07,1.2,66.2,M,45.0,M,,*6A

5:36:23:407 Nachm. 03/26/17 - $GNGNS,153620.0,5208.368854,N,01138.432698,E,AA,08,1.2,66.2,45.0,,*51

5:36:23:416 Nachm. 03/26/17 - $GPVTG,118.0,T,117.6,M,0.0,N,0.0,K,A*2A

5:36:23:416 Nachm. 03/26/17 - $GPRMC,153620.0,A,5208.368854,N,01138.432698,E,0.0,118.0,260317,0.4,E,A*09

5:36:23:417 Nachm. 03/26/17 - $GPGSA,A,2,02,06,12,14,24,25,32,,,,,,1.5,1.2,0.9*3F

5:36:23:417 Nachm. 03/26/17 - $GNGSA,A,2,02,06,12,14,24,25,32,,,,,,1.5,1.2,0.9*21

5:36:23:418 Nachm. 03/26/17 - $GNGSA,A,2,73,,,,,,,,,,,,1.5,1.2,0.9*27

5:36:24:386 Nachm. 03/26/17 - $GPGSV,3,1,12,02,30,108,24,06,26,061,13,12,70,066,14,14,30,299,30*77

5:36:24:387 Nachm. 03/26/17 - $GPGSV,3,2,12,24,38,147,21,25,58,275,30,29,22,206,17,31,12,307,26*76

5:36:24:389 Nachm. 03/26/17 - $GPGSV,3,3,12,32,34,270,29,03,02,357,,19,12,043,,22,,,*4E

5:36:24:397 Nachm. 03/26/17 - $GLGSV,3,1,09,82,66,101,18,73,52,312,32,80,68,091,12,79,11,113,10*6E

5:36:24:397 Nachm. 03/26/17 - $GLGSV,3,2,09,81,29,035,18,71,14,275,11,72,18,326,10,65,04,009,*67

5:36:24:398 Nachm. 03/26/17 - $GLGSV,3,3,09,83,30,178,*5A

5:36:24:398 Nachm. 03/26/17 - $GPGGA,153621.0,5208.368852,N,01138.432695,E,1,07,1.2,66.2,M,45.0,M,,*60

5:36:24:399 Nachm. 03/26/17 - $GNGNS,153621.0,5208.368852,N,01138.432695,E,AA,08,1.2,66.2,45.0,,*5B

5:36:24:399 Nachm. 03/26/17 - $GPVTG,118.0,T,117.6,M,0.0,N,0.0,K,A*2A

5:36:24:402 Nachm. 03/26/17 - $GPRMC,153621.0,A,5208.368852,N,01138.432695,E,0.0,118.0,260317,0.4,E,A*03

5:36:24:402 Nachm. 03/26/17 - $GPGSA,A,2,02,06,12,14,24,25,32,,,,,,1.5,1.2,0.9*3F

5:36:24:403 Nachm. 03/26/17 - $GNGSA,A,2,02,06,12,14,24,25,32,,,,,,1.5,1.2,0.9*21

5:36:24:403 Nachm. 03/26/17 - $GNGSA,A,2,73,,,,,,,,,,,,1.5,1.2,0.9*27

5:36:25:387 Nachm. 03/26/17 - $GPGSV,3,1,12,02,30,108,23,06,26,061,14,12,70,066,14,14,30,299,28*7E

5:36:25:388 Nachm. 03/26/17 - $GPGSV,3,2,12,24,38,147,19,25,58,275,31,29,22,206,16,31,12,307,27*7C

5:36:25:389 Nachm. 03/26/17 - $GPGSV,3,3,12,32,34,270,30,03,02,357,,19,12,043,,22,,,*46

5:36:25:395 Nachm. 03/26/17 - $GLGSV,3,1,09,82,66,101,18,73,52,312,32,80,68,091,12,79,11,113,10*6E

5:36:25:399 Nachm. 03/26/17 - $GLGSV,3,2,09,81,29,035,20,71,14,275,11,72,18,326,10,65,04,009,*6C

5:36:25:404 Nachm. 03/26/17 - $GLGSV,3,3,09,83,30,178,*5A

5:36:25:405 Nachm. 03/26/17 - $GPGGA,153622.0,5208.368846,N,01138.432684,E,1,07,1.2,66.2,M,45.0,M,,*66

5:36:25:406 Nachm. 03/26/17 - $GNGNS,153622.0,5208.368846,N,01138.432684,E,AA,08,1.2,66.2,45.0,,*5D

5:36:25:406 Nachm. 03/26/17 - $GPVTG,118.0,T,117.6,M,0.0,N,0.0,K,A*2A

5:36:25:407 Nachm. 03/26/17 - $GPRMC,153622.0,A,5208.368846,N,01138.432684,E,0.0,118.0,260317,0.4,E,A*05

5:36:25:407 Nachm. 03/26/17 - $GPGSA,A,2,02,06,12,14,24,25,32,,,,,,1.5,1.2,0.9*3F

5:36:25:408 Nachm. 03/26/17 - $GNGSA,A,2,02,06,12,14,24,25,32,,,,,,1.5,1.2,0.9*21

5:36:25:408 Nachm. 03/26/17 - $GNGSA,A,2,73,,,,,,,,,,,,1.5,1.2,0.9*27

5:36:26:389 Nachm. 03/26/17 - $GPGSV,3,1,12,02,30,108,24,06,26,061,14,12,70,066,14,14,30,299,28*79

5:36:26:390 Nachm. 03/26/17 - $GPGSV,3,2,12,24,38,147,21,25,58,275,30,29,22,206,15,31,12,307,27*75

5:36:26:391 Nachm. 03/26/17 - $GPGSV,3,3,12,32,34,270,30,03,02,357,,19,12,043,,22,,,*46

5:36:26:394 Nachm. 03/26/17 - $GLGSV,3,1,09,82,66,101,18,73,52,312,32,80,68,091,12,79,11,113,10*6E

5:36:26:403 Nachm. 03/26/17 - $GLGSV,3,2,09,81,29,035,17,71,14,275,11,72,18,326,10,65,04,009,*68

5:36:26:404 Nachm. 03/26/17 - $GLGSV,3,3,09,83,30,178,*5A

5:36:26:409 Nachm. 03/26/17 - $GPGGA,153623.0,5208.368843,N,01138.432685,E,1,07,1.2,66.2,M,45.0,M,,*63

5:36:26:409 Nachm. 03/26/17 - $GNGNS,153623.0,5208.368843,N,01138.432685,E,AA,08,1.2,66.2,45.0,,*58

5:36:26:409 Nachm. 03/26/17 - $GPVTG,118.0,T,117.6,M,0.0,N,0.0,K,A*2A

5:36:26:409 Nachm. 03/26/17 - $GPRMC,153623.0,A,5208.368843,N,01138.432685,E,0.0,118.0,260317,0.4,E,A*00

5:36:26:409 Nachm. 03/26/17 - $GPGSA,A,2,02,06,12,14,24,25,32,,,,,,1.5,1.2,0.9*3F

5:36:26:410 Nachm. 03/26/17 - $GNGSA,A,2,02,06,12,14,24,25,32,,,,,,1.5,1.2,0.9*21

5:36:26:410 Nachm. 03/26/17 - $GNGSA,A,2,73,,,,,,,,,,,,1.5,1.2,0.9*27

5:36:27:384 Nachm. 03/26/17 - $GPGSV,3,1,12,02,30,108,22,06,26,061,14,12,70,066,14,14,30,299,29*7E

5:36:27:385 Nachm. 03/26/17 - $GPGSV,3,2,12,24,38,147,19,25,58,275,31,29,22,206,15,31,12,307,26*7E

5:36:27:386 Nachm. 03/26/17 - $GPGSV,3,3,12,32,34,270,30,03,02,357,,19,12,043,,22,,,*46

5:36:27:387 Nachm. 03/26/17 - $GLGSV,3,1,09,82,66,101,17,73,52,312,32,80,68,091,12,79,11,113,10*61

5:36:27:388 Nachm. 03/26/17 - $GLGSV,3,2,09,81,29,035,19,71,14,275,11,72,18,326,10,65,04,009,*66

5:36:27:388 Nachm. 03/26/17 - $GLGSV,3,3,09,83,30,178,*5A

5:36:27:388 Nachm. 03/26/17 - $GPGGA,153624.0,5208.368838,N,01138.432685,E,1,07,1.2,66.2,M,45.0,M,,*68

5:36:27:390 Nachm. 03/26/17 - $GNGNS,153624.0,5208.368838,N,01138.432685,E,AA,08,1.2,66.2,45.0,,*53

5:36:27:391 Nachm. 03/26/17 - $GPVTG,118.0,T,117.6,M,0.0,N,0.0,K,A*2A

5:36:27:391 Nachm. 03/26/17 - $GPRMC,153624.0,A,5208.368838,N,01138.432685,E,0.0,118.0,260317,0.4,E,A*0B

5:36:27:391 Nachm. 03/26/17 - $GPGSA,A,2,02,06,12,14,24,25,32,,,,,,1.5,1.2,0.9*3F

5:36:27:391 Nachm. 03/26/17 - $GNGSA,A,2,02,06,12,14,24,25,32,,,,,,1.5,1.2,0.9*21

5:36:27:392 Nachm. 03/26/17 - $GNGSA,A,2,73,,,,,,,,,,,,1.5,1.2,0.9*27

5:36:28:387 Nachm. 03/26/17 - $GPGSV,3,1,12,02,30,108,26,06,26,061,14,12,70,066,14,14,30,299,29*7A

5:36:28:388 Nachm. 03/26/17 - $GPGSV,3,2,12,24,38,147,21,25,58,275,30,29,22,206,16,31,12,307,24*75

5:36:28:389 Nachm. 03/26/17 - $GPGSV,3,3,12,32,34,270,29,03,02,357,,19,12,043,,22,,,*4E

5:36:28:393 Nachm. 03/26/17 - $GLGSV,3,1,09,82,66,101,17,73,52,312,31,80,68,091,12,79,11,113,10*62

5:36:28:394 Nachm. 03/26/17 - $GLGSV,3,2,09,81,29,035,19,71,14,275,11,72,18,326,10,65,04,009,*66

5:36:28:395 Nachm. 03/26/17 - $GLGSV,3,3,09,83,30,178,*5A

5:36:28:396 Nachm. 03/26/17 - $GPGGA,153625.0,5208.368840,N,01138.432682,E,1,07,1.2,66.2,M,45.0,M,,*61

5:36:28:407 Nachm. 03/26/17 - $GNGNS,153625.0,5208.368840,N,01138.432682,E,AA,08,1.2,66.2,45.0,,*5A

5:36:28:407 Nachm. 03/26/17 - $GPVTG,118.0,T,117.6,M,0.0,N,0.0,K,A*2A

5:36:28:408 Nachm. 03/26/17 - $GPRMC,153625.0,A,5208.368840,N,01138.432682,E,0.0,118.0,260317,0.4,E,A*02

5:36:28:408 Nachm. 03/26/17 - $GPGSA,A,2,02,06,12,14,24,25,32,,,,,,1.5,1.2,0.9*3F

5:36:28:409 Nachm. 03/26/17 - $GNGSA,A,2,02,06,12,14,24,25,32,,,,,,1.5,1.2,0.9*21

5:36:28:409 Nachm. 03/26/17 - $GNGSA,A,2,73,,,,,,,,,,,,1.5,1.2,0.9*27

5:36:29:386 Nachm. 03/26/17 - $GPGSV,3,1,12,02,30,108,26,06,26,061,14,12,70,066,14,14,30,299,29*7A

5:36:29:387 Nachm. 03/26/17 - $GPGSV,3,2,12,24,38,147,20,25,58,275,30,29,22,206,16,31,12,307,26*76

5:36:29:388 Nachm. 03/26/17 - $GPGSV,3,3,12,32,34,270,30,03,02,357,,19,12,043,,22,,,*46

5:36:29:389 Nachm. 03/26/17 - $GLGSV,3,1,09,82,66,101,17,73,52,312,33,80,68,091,12,79,11,113,10*60

5:36:29:389 Nachm. 03/26/17 - $GLGSV,3,2,09,81,29,035,15,71,14,275,11,72,18,326,10,65,04,009,*6A

5:36:29:392 Nachm. 03/26/17 - $GLGSV,3,3,09,83,30,178,*5A

5:36:29:393 Nachm. 03/26/17 - $GPGGA,153626.0,5208.368837,N,01138.432680,E,1,07,1.2,66.2,M,45.0,M,,*60

5:36:29:393 Nachm. 03/26/17 - $GNGNS,153626.0,5208.368837,N,01138.432680,E,AA,08,1.2,66.2,45.0,,*5B

5:36:29:394 Nachm. 03/26/17 - $GPVTG,118.0,T,117.6,M,0.0,N,0.0,K,A*2A

5:36:29:394 Nachm. 03/26/17 - $GPRMC,153626.0,A,5208.368837,N,01138.432680,E,0.0,118.0,260317,0.4,E,A*03

5:36:29:395 Nachm. 03/26/17 - $GPGSA,A,2,02,06,12,14,24,25,32,,,,,,1.5,1.2,0.9*3F

5:36:29:395 Nachm. 03/26/17 - $GNGSA,A,2,02,06,12,14,24,25,32,,,,,,1.5,1.2,0.9*21

5:36:29:395 Nachm. 03/26/17 - $GNGSA,A,2,73,,,,,,,,,,,,1.5,1.2,0.9*27

5:36:30:386 Nachm. 03/26/17 - $GPGSV,3,1,12,02,30,108,25,06,26,061,14,12,70,066,14,14,30,299,29*79

5:36:30:387 Nachm. 03/26/17 - $GPGSV,3,2,12,24,38,147,21,25,58,275,30,29,22,206,17,31,12,307,26*76

5:36:30:388 Nachm. 03/26/17 - $GPGSV,3,3,12,32,34,270,30,03,02,357,,19,12,043,,22,,,*46

5:36:30:389 Nachm. 03/26/17 - $GLGSV,3,1,09,82,66,101,16,73,52,312,33,80,68,091,12,79,11,113,10*61

5:36:30:389 Nachm. 03/26/17 - $GLGSV,3,2,09,81,29,035,18,71,14,275,11,72,18,326,10,65,04,009,*67

5:36:30:389 Nachm. 03/26/17 - $GLGSV,3,3,09,83,30,178,*5A

5:36:30:389 Nachm. 03/26/17 - $GPGGA,153627.0,5208.368837,N,01138.432684,E,1,06,1.3,66.2,M,45.0,M,,*65

5:36:30:392 Nachm. 03/26/17 - $GNGNS,153627.0,5208.368837,N,01138.432684,E,AA,07,1.3,66.2,45.0,,*50

5:36:30:392 Nachm. 03/26/17 - $GPVTG,118.0,T,117.6,M,0.0,N,0.0,K,A*2A

5:36:30:392 Nachm. 03/26/17 - $GPRMC,153627.0,A,5208.368837,N,01138.432684,E,0.0,118.0,260317,0.4,E,A*06

5:36:30:392 Nachm. 03/26/17 - $GPGSA,A,2,02,06,14,24,25,32,,,,,,,1.6,1.3,1.0*36

5:36:30:393 Nachm. 03/26/17 - $GNGSA,A,2,02,06,14,24,25,32,,,,,,,1.6,1.3,1.0*28

5:36:30:393 Nachm. 03/26/17 - $GNGSA,A,2,73,,,,,,,,,,,,1.6,1.3,1.0*2D

5:36:31:384 Nachm. 03/26/17 - $GPGSV,3,1,12,02,30,108,25,06,26,061,14,12,70,066,14,14,30,299,29*79

5:36:31:384 Nachm. 03/26/17 - $GPGSV,3,2,12,24,38,147,20,25,58,275,30,29,22,206,17,31,12,307,26*77

5:36:31:384 Nachm. 03/26/17 - $GPGSV,3,3,12,32,34,270,30,03,02,357,,19,12,043,,22,,,*46

5:36:31:386 Nachm. 03/26/17 - $GLGSV,3,1,09,82,66,101,16,73,52,312,32,80,68,091,12,79,11,113,10*60

5:36:31:386 Nachm. 03/26/17 - $GLGSV,3,2,09,81,29,035,18,71,14,275,11,72,18,326,10,65,04,009,*67

5:36:31:386 Nachm. 03/26/17 - $GLGSV,3,3,09,83,30,178,*5A

5:36:31:387 Nachm. 03/26/17 - $GPGGA,153628.0,5208.368830,N,01138.432668,E,1,06,1.3,66.2,M,45.0,M,,*6F

5:36:31:388 Nachm. 03/26/17 - $GNGNS,153628.0,5208.368830,N,01138.432668,E,AA,07,1.3,66.2,45.0,,*5A

5:36:31:388 Nachm. 03/26/17 - $GPVTG,118.0,T,117.6,M,0.0,N,0.0,K,A*2A

5:36:31:389 Nachm. 03/26/17 - $GPRMC,153628.0,A,5208.368830,N,01138.432668,E,0.0,118.0,260317,0.4,E,A*0C

5:36:31:389 Nachm. 03/26/17 - $GPGSA,A,2,02,06,14,24,25,32,,,,,,,1.6,1.3,1.0*36

5:36:31:390 Nachm. 03/26/17 - $GNGSA,A,2,02,06,14,24,25,32,,,,,,,1.6,1.3,1.0*28

5:36:31:390 Nachm. 03/26/17 - $GNGSA,A,2,73,,,,,,,,,,,,1.6,1.3,1.0*2D

5:36:32:386 Nachm. 03/26/17 - $GPGSV,3,1,12,02,30,108,24,06,26,061,14,12,70,066,14,14,30,299,29*78

5:36:32:387 Nachm. 03/26/17 - $GPGSV,3,2,12,24,38,147,20,25,58,275,29,29,22,206,17,31,12,307,26*7F

5:36:32:387 Nachm. 03/26/17 - $GPGSV,3,3,12,32,34,270,30,03,02,357,,19,12,043,,22,,,*46

5:36:32:389 Nachm. 03/26/17 - $GLGSV,3,1,09,82,66,101,16,73,52,312,33,80,68,091,12,79,11,113,10*61

5:36:32:389 Nachm. 03/26/17 - $GLGSV,3,2,09,81,29,035,18,71,14,275,11,72,18,326,10,65,04,009,*67

5:36:32:389 Nachm. 03/26/17 - $GLGSV,3,3,09,83,30,178,*5A

5:36:32:396 Nachm. 03/26/17 - $GPGGA,153629.0,5208.368832,N,01138.432666,E,1,06,1.3,66.2,M,45.0,M,,*62

5:36:32:396 Nachm. 03/26/17 - $GNGNS,153629.0,5208.368832,N,01138.432666,E,AA,07,1.3,66.2,45.0,,*57

5:36:32:397 Nachm. 03/26/17 - $GPVTG,118.0,T,117.6,M,0.0,N,0.0,K,A*2A

5:36:32:401 Nachm. 03/26/17 - $GPRMC,153629.0,A,5208.368832,N,01138.432666,E,0.0,118.0,260317,0.4,E,A*01

5:36:32:401 Nachm. 03/26/17 - $GPGSA,A,2,02,06,14,24,25,32,,,,,,,1.6,1.3,1.0*36

5:36:32:401 Nachm. 03/26/17 - $GNGSA,A,2,02,06,14,24,25,32,,,,,,,1.6,1.3,1.0*28

5:36:32:402 Nachm. 03/26/17 - $GNGSA,A,2,73,,,,,,,,,,,,1.6,1.3,1.0*2D

5:36:33:387 Nachm. 03/26/17 - $GPGSV,3,1,12,02,30,108,26,06,26,061,14,12,70,066,14,14,30,299,29*7A

5:36:33:388 Nachm. 03/26/17 - $GPGSV,3,2,12,24,38,147,18,25,58,275,31,29,22,206,16,31,12,307,26*7C

5:36:33:388 Nachm. 03/26/17 - $GPGSV,3,3,12,32,34,270,30,03,02,357,,19,12,043,,22,,,*46

5:36:33:388 Nachm. 03/26/17 - $GLGSV,3,1,09,82,66,101,13,73,52,312,33,80,68,091,12,79,11,113,10*64

5:36:33:389 Nachm. 03/26/17 - $GLGSV,3,2,09,81,29,035,16,71,14,275,7,72,18,326,10,65,04,009,*5E

5:36:33:389 Nachm. 03/26/17 - $GLGSV,3,3,09,83,30,178,*5A

5:36:33:389 Nachm. 03/26/17 - $GPGGA,153630.0,5208.368831,N,01138.432665,E,1,06,1.3,66.2,M,45.0,M,,*6A

5:36:33:390 Nachm. 03/26/17 - $GNGNS,153630.0,5208.368831,N,01138.432665,E,AA,07,1.3,66.2,45.0,,*5F

5:36:33:390 Nachm. 03/26/17 - $GPVTG,118.0,T,117.6,M,0.0,N,0.0,K,A*2A

5:36:33:391 Nachm. 03/26/17 - $GPRMC,153630.0,A,5208.368831,N,01138.432665,E,0.0,118.0,260317,0.4,E,A*09

5:36:33:391 Nachm. 03/26/17 - $GPGSA,A,2,02,06,14,24,25,32,,,,,,,1.6,1.3,1.0*36

5:36:33:391 Nachm. 03/26/17 - $GNGSA,A,2,02,06,14,24,25,32,,,,,,,1.6,1.3,1.0*28

5:36:33:391 Nachm. 03/26/17 - $GNGSA,A,2,73,,,,,,,,,,,,1.6,1.3,1.0*2D

5:36:34:385 Nachm. 03/26/17 - $GPGSV,3,1,12,02,30,108,25,06,26,061,16,12,70,066,12,14,30,299,29*7D

5:36:34:386 Nachm. 03/26/17 - $GPGSV,3,2,12,24,38,147,20,25,58,275,31,29,22,206,17,31,13,307,28*79

5:36:34:386 Nachm. 03/26/17 - $GPGSV,3,3,12,32,34,270,31,03,02,357,,19,12,043,,22,,,*47

5:36:34:387 Nachm. 03/26/17 - $GLGSV,3,1,09,82,66,101,13,73,52,312,33,80,68,091,12,79,11,115,10*62

5:36:34:388 Nachm. 03/26/17 - $GLGSV,3,2,09,81,29,035,16,71,14,275,7,72,18,326,10,65,04,009,*5E

5:36:34:388 Nachm. 03/26/17 - $GLGSV,3,3,09,83,30,178,*5A

5:36:34:388 Nachm. 03/26/17 - $GPGGA,153631.0,5208.368853,N,01138.432595,E,1,08,1.2,66.0,M,45.0,M,,*6E

5:36:34:391 Nachm. 03/26/17 - $GNGNS,153631.0,5208.368853,N,01138.432595,E,AA,09,1.2,66.0,45.0,,*5B

5:36:34:392 Nachm. 03/26/17 - $GPVTG,118.0,T,117.6,M,0.0,N,0.0,K,A*2A

5:36:34:393 Nachm. 03/26/17 - $GPRMC,153631.0,A,5208.368853,N,01138.432595,E,0.0,118.0,260317,0.4,E,A*00

5:36:34:393 Nachm. 03/26/17 - $GPGSA,A,2,02,06,12,14,24,25,31,32,,,,,1.5,1.2,0.9*3D

5:36:34:394 Nachm. 03/26/17 - $GNGSA,A,2,02,06,12,14,24,25,31,32,,,,,1.5,1.2,0.9*23

5:36:34:394 Nachm. 03/26/17 - $GNGSA,A,2,73,,,,,,,,,,,,1.5,1.2,0.9*27


