5:42:14:385 Nachm. 03/26/17 - $GPGSV,3,1,11,12,67,068,16,14,31,296,16,24,35,149,17,25,61,277,24*73

5:42:14:385 Nachm. 03/26/17 - $GPGSV,3,2,11,29,25,206,17,31,15,307,15,32,33,267,19,02,31,105,*7E

5:42:14:385 Nachm. 03/26/17 - $GPGSV,3,3,11,03,02,355,,06,26,057,,19,10,043,*45

5:42:14:385 Nachm. 03/26/17 - $GLGSV,3,1,10,73,55,313,27,79,09,116,15,83,33,178,13,71,11,272,20*67

5:42:14:387 Nachm. 03/26/17 - $GLGSV,3,2,10,74,,,,82,66,092,,80,66,098,,65,05,008,*50

5:42:14:389 Nachm. 03/26/17 - $GLGSV,3,3,10,81,26,033,,72,18,323,*67

5:42:14:389 Nachm. 03/26/17 - $GPGGA,154211.0,5208.407869,N,01138.450493,E,1,07,1.3,57.6,M,45.0,M,,*61

5:42:14:390 Nachm. 03/26/17 - $GNGNS,154211.0,5208.407869,N,01138.450493,E,AA,08,1.3,57.6,45.0,,*5A

5:42:14:391 Nachm. 03/26/17 - $GPVTG,104.1,T,103.7,M,0.0,N,0.0,K,A*22

5:42:14:392 Nachm. 03/26/17 - $GPRMC,154211.0,A,5208.407869,N,01138.450493,E,0.0,104.1,260317,0.4,E,A*09

5:42:14:393 Nachm. 03/26/17 - $GPGSA,A,2,12,14,24,25,29,31,32,,,,,,1.6,1.3,0.9*30

5:42:14:393 Nachm. 03/26/17 - $GNGSA,A,2,12,14,24,25,29,31,32,,,,,,1.6,1.3,0.9*2E

5:42:14:394 Nachm. 03/26/17 - $GNGSA,A,2,73,,,,,,,,,,,,1.6,1.3,0.9*25

5:42:15:385 Nachm. 03/26/17 - $GPGSV,3,1,11,12,67,068,16,14,31,296,18,24,35,149,17,25,61,277,26*7F

5:42:15:386 Nachm. 03/26/17 - $GPGSV,3,2,11,29,25,206,17,31,15,307,15,32,33,267,20,02,31,105,*74

5:42:15:387 Nachm. 03/26/17 - $GPGSV,3,3,11,03,02,355,,06,26,057,,19,10,043,*45

5:42:15:389 Nachm. 03/26/17 - $GLGSV,3,1,10,73,55,313,22,79,09,116,15,83,33,178,13,71,11,272,17*66

5:42:15:389 Nachm. 03/26/17 - $GLGSV,3,2,10,74,,,,82,66,092,,80,66,098,,65,05,008,*50

5:42:15:390 Nachm. 03/26/17 - $GLGSV,3,3,10,81,26,033,,72,18,323,*67

5:42:15:390 Nachm. 03/26/17 - $GPGGA,154212.0,5208.407985,N,01138.450523,E,1,07,1.3,57.7,M,45.0,M,,*6A

5:42:15:391 Nachm. 03/26/17 - $GNGNS,154212.0,5208.407985,N,01138.450523,E,AA,08,1.3,57.7,45.0,,*51

5:42:15:391 Nachm. 03/26/17 - $GPVTG,104.1,T,103.7,M,0.0,N,0.0,K,A*22

5:42:15:393 Nachm. 03/26/17 - $GPRMC,154212.0,A,5208.407985,N,01138.450523,E,0.0,104.1,260317,0.4,E,A*03

5:42:15:393 Nachm. 03/26/17 - $GPGSA,A,2,12,14,24,25,29,31,32,,,,,,1.6,1.3,0.9*30

5:42:15:393 Nachm. 03/26/17 - $GNGSA,A,2,12,14,24,25,29,31,32,,,,,,1.6,1.3,0.9*2E

5:42:15:395 Nachm. 03/26/17 - $GNGSA,A,2,73,,,,,,,,,,,,1.6,1.3,0.9*25

5:42:16:384 Nachm. 03/26/17 - $GPGSV,3,1,11,12,67,068,15,14,31,296,18,24,35,149,12,25,61,277,29*76

5:42:16:385 Nachm. 03/26/17 - $GPGSV,3,2,11,29,25,206,17,31,15,307,15,32,33,267,24,02,31,105,*70

5:42:16:385 Nachm. 03/26/17 - $GPGSV,3,3,11,03,02,355,,06,26,057,,19,10,043,*45

5:42:16:386 Nachm. 03/26/17 - $GLGSV,3,1,10,73,55,313,23,79,09,116,15,83,33,178,13,71,11,272,19*69

5:42:16:387 Nachm. 03/26/17 - $GLGSV,3,2,10,74,,,,82,66,092,,80,66,098,,65,05,008,*50

5:42:16:387 Nachm. 03/26/17 - $GLGSV,3,3,10,81,26,033,,72,18,323,*67

5:42:16:387 Nachm. 03/26/17 - $GPGGA,154213.0,5208.408229,N,01138.450590,E,1,07,1.3,57.9,M,45.0,M,,*6F

5:42:16:387 Nachm. 03/26/17 - $GNGNS,154213.0,5208.408229,N,01138.450590,E,AA,08,1.3,57.9,45.0,,*54

5:42:16:387 Nachm. 03/26/17 - $GPVTG,104.1,T,103.7,M,0.0,N,0.0,K,A*22

5:42:16:406 Nachm. 03/26/17 - $GPRMC,154213.0,A,5208.408229,N,01138.450590,E,0.0,104.1,260317,0.4,E,A*08

5:42:16:407 Nachm. 03/26/17 - $GPGSA,A,2,12,14,24,25,29,31,32,,,,,,1.6,1.3,0.9*30

5:42:16:407 Nachm. 03/26/17 - $GNGSA,A,2,12,14,24,25,29,31,32,,,,,,1.6,1.3,0.9*2E

5:42:16:408 Nachm. 03/26/17 - $GNGSA,A,2,73,,,,,,,,,,,,1.6,1.3,0.9*25

5:42:17:385 Nachm. 03/26/17 - $GPGSV,3,1,11,12,67,068,15,14,31,296,18,24,35,149,12,25,61,277,29*76

5:42:17:386 Nachm. 03/26/17 - $GPGSV,3,2,11,29,25,206,17,31,15,307,14,32,33,267,24,02,31,105,*71

5:42:17:386 Nachm. 03/26/17 - $GPGSV,3,3,11,03,02,355,,06,26,057,,19,10,043,*45

5:42:17:386 Nachm. 03/26/17 - $GLGSV,3,1,10,73,55,313,22,79,09,116,15,83,33,178,12,71,11,272,20*63

5:42:17:391 Nachm. 03/26/17 - $GLGSV,3,2,10,74,,,,82,66,092,,80,66,098,,65,05,008,*50

5:42:17:391 Nachm. 03/26/17 - $GLGSV,3,3,10,81,26,033,,72,18,323,*67

5:42:17:391 Nachm. 03/26/17 - $GPGGA,154214.0,5208.408308,N,01138.450625,E,1,07,1.3,58.0,M,45.0,M,,*61

5:42:17:391 Nachm. 03/26/17 - $GNGNS,154214.0,5208.408308,N,01138.450625,E,AA,08,1.3,58.0,45.0,,*5A

5:42:17:391 Nachm. 03/26/17 - $GPVTG,104.1,T,103.7,M,0.0,N,0.0,K,A*22

5:42:17:392 Nachm. 03/26/17 - $GPRMC,154214.0,A,5208.408308,N,01138.450625,E,0.0,104.1,260317,0.4,E,A*00

5:42:17:392 Nachm. 03/26/17 - $GPGSA,A,2,12,14,24,25,29,31,32,,,,,,1.6,1.3,0.9*30

5:42:17:392 Nachm. 03/26/17 - $GNGSA,A,2,12,14,24,25,29,31,32,,,,,,1.6,1.3,0.9*2E

5:42:17:393 Nachm. 03/26/17 - $GNGSA,A,2,73,,,,,,,,,,,,1.6,1.3,0.9*25

5:42:18:384 Nachm. 03/26/17 - $GPGSV,3,1,11,12,67,068,14,14,31,296,18,24,35,149,16,25,61,277,28*72

5:42:18:384 Nachm. 03/26/17 - $GPGSV,3,2,11,29,25,206,16,31,15,307,14,32,33,267,22,02,31,105,*76

5:42:18:385 Nachm. 03/26/17 - $GPGSV,3,3,11,03,02,355,,06,26,057,,19,10,043,*45

5:42:18:385 Nachm. 03/26/17 - $GLGSV,3,1,10,73,55,313,24,79,09,116,15,83,33,178,12,71,11,272,17*61

5:42:18:387 Nachm. 03/26/17 - $GLGSV,3,2,10,74,,,,82,66,092,,80,66,098,,65,05,008,*50

5:42:18:388 Nachm. 03/26/17 - $GLGSV,3,3,10,81,26,033,,72,18,323,*67

5:42:18:388 Nachm. 03/26/17 - $GPGGA,154215.0,5208.408278,N,01138.450629,E,1,07,1.3,57.9,M,45.0,M,,*6C

5:42:18:389 Nachm. 03/26/17 - $GNGNS,154215.0,5208.408278,N,01138.450629,E,AA,08,1.3,57.9,45.0,,*57

5:42:18:389 Nachm. 03/26/17 - $GPVTG,104.1,T,103.7,M,0.0,N,0.0,K,A*22

5:42:18:390 Nachm. 03/26/17 - $GPRMC,154215.0,A,5208.408278,N,01138.450629,E,0.0,104.1,260317,0.4,E,A*0B

5:42:18:390 Nachm. 03/26/17 - $GPGSA,A,2,12,14,24,25,29,31,32,,,,,,1.6,1.3,0.9*30

5:42:18:391 Nachm. 03/26/17 - $GNGSA,A,2,12,14,24,25,29,31,32,,,,,,1.6,1.3,0.9*2E

5:42:18:391 Nachm. 03/26/17 - $GNGSA,A,2,73,,,,,,,,,,,,1.6,1.3,0.9*25

5:42:19:385 Nachm. 03/26/17 - $GPGSV,3,1,11,12,67,068,14,14,31,296,18,24,35,149,18,25,61,277,29*7D

5:42:19:386 Nachm. 03/26/17 - $GPGSV,3,2,11,29,25,206,16,31,15,307,18,32,33,267,18,02,31,105,*73

5:42:19:386 Nachm. 03/26/17 - $GPGSV,3,3,11,03,02,355,,06,26,057,,19,10,043,*45

5:42:19:387 Nachm. 03/26/17 - $GLGSV,3,1,10,73,55,313,25,79,09,116,15,83,33,178,12,71,11,272,22*66

5:42:19:389 Nachm. 03/26/17 - $GLGSV,3,2,10,74,,,,82,66,092,,80,66,098,,65,05,008,*50

5:42:19:390 Nachm. 03/26/17 - $GLGSV,3,3,10,81,26,033,,72,18,323,*67

5:42:19:391 Nachm. 03/26/17 - $GPGGA,154216.0,5208.408291,N,01138.450616,E,1,07,1.3,58.0,M,45.0,M,,*62

5:42:19:391 Nachm. 03/26/17 - $GNGNS,154216.0,5208.408291,N,01138.450616,E,AA,08,1.3,58.0,45.0,,*59

5:42:19:392 Nachm. 03/26/17 - $GPVTG,104.1,T,103.7,M,0.0,N,0.0,K,A*22

5:42:19:400 Nachm. 03/26/17 - $GPRMC,154216.0,A,5208.408291,N,01138.450616,E,0.0,104.1,260317,0.4,E,A*03

5:42:19:411 Nachm. 03/26/17 - $GPGSA,A,2,12,14,24,25,29,31,32,,,,,,1.6,1.3,0.9*30

5:42:19:412 Nachm. 03/26/17 - $GNGSA,A,2,12,14,24,25,29,31,32,,,,,,1.6,1.3,0.9*2E

5:42:19:414 Nachm. 03/26/17 - $GNGSA,A,2,73,,,,,,,,,,,,1.6,1.3,0.9*25

5:42:20:384 Nachm. 03/26/17 - $GPGSV,3,1,11,12,67,068,14,14,31,296,18,24,35,149,20,25,61,277,27*78

5:42:20:385 Nachm. 03/26/17 - $GPGSV,3,2,11,29,25,206,17,31,15,307,18,32,33,267,17,02,31,105,*7D

5:42:20:385 Nachm. 03/26/17 - $GPGSV,3,3,11,03,02,355,,06,26,057,,19,10,043,*45

5:42:20:385 Nachm. 03/26/17 - $GLGSV,3,1,10,73,55,313,23,79,09,116,15,83,33,178,12,71,11,272,20*62

5:42:20:391 Nachm. 03/26/17 - $GLGSV,3,2,10,74,,,,82,66,092,,80,66,098,,65,05,008,*50

5:42:20:392 Nachm. 03/26/17 - $GLGSV,3,3,10,81,26,033,,72,18,323,*67

5:42:20:393 Nachm. 03/26/17 - $GPGGA,154217.0,5208.408432,N,01138.450557,E,1,07,1.3,58.2,M,45.0,M,,*68

5:42:20:393 Nachm. 03/26/17 - $GNGNS,154217.0,5208.408432,N,01138.450557,E,AA,08,1.3,58.2,45.0,,*53

5:42:20:394 Nachm. 03/26/17 - $GPVTG,104.1,T,103.7,M,0.0,N,0.0,K,A*22

5:42:20:394 Nachm. 03/26/17 - $GPRMC,154217.0,A,5208.408432,N,01138.450557,E,0.0,104.1,260317,0.4,E,A*0B

5:42:20:395 Nachm. 03/26/17 - $GPGSA,A,2,12,14,24,25,29,31,32,,,,,,1.6,1.3,0.9*30

5:42:20:395 Nachm. 03/26/17 - $GNGSA,A,2,12,14,24,25,29,31,32,,,,,,1.6,1.3,0.9*2E

5:42:20:396 Nachm. 03/26/17 - $GNGSA,A,2,73,,,,,,,,,,,,1.6,1.3,0.9*25

5:42:21:385 Nachm. 03/26/17 - $GPGSV,3,1,11,12,67,068,14,14,31,296,18,24,35,149,20,25,61,277,27*78

5:42:21:386 Nachm. 03/26/17 - $GPGSV,3,2,11,29,25,206,17,31,15,307,18,32,33,267,19,02,31,105,*73

5:42:21:387 Nachm. 03/26/17 - $GPGSV,3,3,11,03,02,355,,06,26,057,,19,10,043,*45

5:42:21:387 Nachm. 03/26/17 - $GLGSV,3,1,10,73,55,313,24,79,09,116,15,83,33,178,12,71,11,272,22*67

5:42:21:394 Nachm. 03/26/17 - $GLGSV,3,2,10,74,,,,82,66,092,,80,66,098,,65,05,008,*50

5:42:21:396 Nachm. 03/26/17 - $GLGSV,3,3,10,81,26,033,,72,18,323,*67

5:42:21:396 Nachm. 03/26/17 - $GPGGA,154218.0,5208.408481,N,01138.450501,E,1,07,1.3,58.3,M,45.0,M,,*6D

5:42:21:396 Nachm. 03/26/17 - $GNGNS,154218.0,5208.408481,N,01138.450501,E,AA,08,1.3,58.3,45.0,,*56

5:42:21:397 Nachm. 03/26/17 - $GPVTG,104.1,T,103.7,M,0.0,N,0.0,K,A*22

5:42:21:397 Nachm. 03/26/17 - $GPRMC,154218.0,A,5208.408481,N,01138.450501,E,0.0,104.1,260317,0.4,E,A*0F

5:42:21:397 Nachm. 03/26/17 - $GPGSA,A,2,12,14,24,25,29,31,32,,,,,,1.6,1.3,0.9*30

5:42:21:398 Nachm. 03/26/17 - $GNGSA,A,2,12,14,24,25,29,31,32,,,,,,1.6,1.3,0.9*2E

5:42:21:398 Nachm. 03/26/17 - $GNGSA,A,2,73,,,,,,,,,,,,1.6,1.3,0.9*25

5:42:22:385 Nachm. 03/26/17 - $GPGSV,3,1,11,12,67,068,14,14,31,296,12,24,35,149,20,25,61,277,27*72

5:42:22:385 Nachm. 03/26/17 - $GPGSV,3,2,11,29,25,206,18,31,15,307,18,32,33,267,17,02,31,105,*72

5:42:22:385 Nachm. 03/26/17 - $GPGSV,3,3,11,03,02,355,,06,26,057,,19,10,043,*45

5:42:22:386 Nachm. 03/26/17 - $GLGSV,3,1,10,73,55,313,24,79,09,116,15,83,33,178,12,71,11,272,21*64

5:42:22:390 Nachm. 03/26/17 - $GLGSV,3,2,10,74,,,,82,66,092,,80,66,098,,65,05,008,*50

5:42:22:390 Nachm. 03/26/17 - $GLGSV,3,3,10,81,26,033,,72,18,323,*67

5:42:22:390 Nachm. 03/26/17 - $GPGGA,154219.0,5208.408579,N,01138.450458,E,1,07,1.3,58.5,M,45.0,M,,*61

5:42:22:392 Nachm. 03/26/17 - $GNGNS,154219.0,5208.408579,N,01138.450458,E,AA,08,1.3,58.5,45.0,,*5A

5:42:22:392 Nachm. 03/26/17 - $GPVTG,104.1,T,103.7,M,0.0,N,0.0,K,A*22

5:42:22:394 Nachm. 03/26/17 - $GPRMC,154219.0,A,5208.408579,N,01138.450458,E,0.0,104.1,260317,0.4,E,A*05

5:42:22:394 Nachm. 03/26/17 - $GPGSA,A,2,12,14,24,25,29,31,32,,,,,,1.6,1.3,0.9*30

5:42:22:394 Nachm. 03/26/17 - $GNGSA,A,2,12,14,24,25,29,31,32,,,,,,1.6,1.3,0.9*2E

5:42:22:394 Nachm. 03/26/17 - $GNGSA,A,2,73,,,,,,,,,,,,1.6,1.3,0.9*25

5:42:23:385 Nachm. 03/26/17 - $GPGSV,3,1,11,12,67,068,14,14,31,296,17,24,35,149,18,25,61,277,27*7C

5:42:23:385 Nachm. 03/26/17 - $GPGSV,3,2,11,29,25,206,18,31,15,307,18,32,33,267,17,02,31,105,*72

5:42:23:385 Nachm. 03/26/17 - $GPGSV,3,3,11,03,02,355,,06,26,057,,19,10,043,*45

5:42:23:388 Nachm. 03/26/17 - $GLGSV,3,1,10,73,55,313,22,79,09,116,15,83,33,178,15,71,11,272,19*6E

5:42:23:391 Nachm. 03/26/17 - $GLGSV,3,2,10,74,,,,82,66,092,,80,66,098,,65,05,008,*50

5:42:23:391 Nachm. 03/26/17 - $GLGSV,3,3,10,81,26,033,,72,18,323,*67

5:42:23:391 Nachm. 03/26/17 - $GPGGA,154220.0,5208.408553,N,01138.450457,E,1,07,1.3,58.5,M,45.0,M,,*6C

5:42:23:392 Nachm. 03/26/17 - $GNGNS,154220.0,5208.408553,N,01138.450457,E,AA,08,1.3,58.5,45.0,,*57

5:42:23:392 Nachm. 03/26/17 - $GPVTG,104.1,T,103.7,M,0.0,N,0.0,K,A*22

5:42:23:392 Nachm. 03/26/17 - $GPRMC,154220.0,A,5208.408553,N,01138.450457,E,0.0,104.1,260317,0.4,E,A*08

5:42:23:393 Nachm. 03/26/17 - $GPGSA,A,2,12,14,24,25,29,31,32,,,,,,1.6,1.3,0.9*30

5:42:23:393 Nachm. 03/26/17 - $GNGSA,A,2,12,14,24,25,29,31,32,,,,,,1.6,1.3,0.9*2E

5:42:23:394 Nachm. 03/26/17 - $GNGSA,A,2,73,,,,,,,,,,,,1.6,1.3,0.9*25

5:42:24:387 Nachm. 03/26/17 - $GPGSV,3,1,11,12,67,068,14,14,31,296,17,24,35,149,20,25,61,277,27*77

5:42:24:388 Nachm. 03/26/17 - $GPGSV,3,2,11,29,25,206,18,31,15,307,15,32,33,267,17,02,31,105,*7F

5:42:24:390 Nachm. 03/26/17 - $GPGSV,3,3,11,03,02,355,,06,26,057,,19,10,043,*45

5:42:24:391 Nachm. 03/26/17 - $GLGSV,3,1,10,73,55,313,24,79,09,116,15,83,33,178,18,71,11,272,18*64

5:42:24:400 Nachm. 03/26/17 - $GLGSV,3,2,10,74,,,,82,66,092,,80,66,098,,65,05,008,*50

5:42:24:402 Nachm. 03/26/17 - $GLGSV,3,3,10,81,26,033,,72,18,323,*67

5:42:24:403 Nachm. 03/26/17 - $GPGGA,154221.0,5208.408572,N,01138.450453,E,1,07,1.3,58.6,M,45.0,M,,*69

5:42:24:405 Nachm. 03/26/17 - $GNGNS,154221.0,5208.408572,N,01138.450453,E,AA,08,1.3,58.6,45.0,,*52

5:42:24:406 Nachm. 03/26/17 - $GPVTG,104.1,T,103.7,M,0.0,N,0.0,K,A*22

5:42:24:408 Nachm. 03/26/17 - $GPRMC,154221.0,A,5208.408572,N,01138.450453,E,0.0,104.1,260317,0.4,E,A*0E

5:42:24:411 Nachm. 03/26/17 - $GPGSA,A,2,12,14,24,25,29,31,32,,,,,,1.6,1.3,0.9*30

5:42:24:413 Nachm. 03/26/17 - $GNGSA,A,2,12,14,24,25,29,31,32,,,,,,1.6,1.3,0.9*2E

5:42:24:414 Nachm. 03/26/17 - $GNGSA,A,2,73,,,,,,,,,,,,1.6,1.3,0.9*25

5:42:25:385 Nachm. 03/26/17 - $GPGSV,3,1,11,12,67,068,14,14,31,296,17,24,35,149,19,25,61,277,26*7C

5:42:25:386 Nachm. 03/26/17 - $GPGSV,3,2,11,29,25,206,18,31,15,307,15,32,33,267,15,02,31,105,*7D

5:42:25:388 Nachm. 03/26/17 - $GPGSV,3,3,11,03,02,355,,06,26,057,,19,10,043,*45

5:42:25:388 Nachm. 03/26/17 - $GLGSV,3,1,10,73,55,313,26,79,09,116,15,83,33,178,18,71,11,272,18*66

5:42:25:390 Nachm. 03/26/17 - $GLGSV,3,2,10,74,,,,82,66,092,,80,66,098,,65,05,008,*50

5:42:25:390 Nachm. 03/26/17 - $GLGSV,3,3,10,81,26,033,,72,18,323,*67

5:42:25:390 Nachm. 03/26/17 - $GPGGA,154222.0,5208.408587,N,01138.450443,E,1,07,1.3,58.6,M,45.0,M,,*61

5:42:25:390 Nachm. 03/26/17 - $GNGNS,154222.0,5208.408587,N,01138.450443,E,AA,08,1.3,58.6,45.0,,*5A

5:42:25:390 Nachm. 03/26/17 - $GPVTG,104.1,T,103.7,M,0.0,N,0.0,K,A*22

5:42:25:390 Nachm. 03/26/17 - $GPRMC,154222.0,A,5208.408587,N,01138.450443,E,0.0,104.1,260317,0.4,E,A*06

5:42:25:391 Nachm. 03/26/17 - $GPGSA,A,2,12,14,24,25,29,31,32,,,,,,1.6,1.3,0.9*30

5:42:25:391 Nachm. 03/26/17 - $GNGSA,A,2,12,14,24,25,29,31,32,,,,,,1.6,1.3,0.9*2E

5:42:25:391 Nachm. 03/26/17 - $GNGSA,A,2,73,,,,,,,,,,,,1.6,1.3,0.9*25

5:42:26:386 Nachm. 03/26/17 - $GPGSV,3,1,11,12,67,068,14,14,31,296,17,24,35,149,18,25,61,277,26*7D

5:42:26:387 Nachm. 03/26/17 - $GPGSV,3,2,11,29,25,206,18,31,15,307,18,32,33,267,15,02,31,105,*70

5:42:26:388 Nachm. 03/26/17 - $GPGSV,3,3,11,03,02,355,,06,26,057,,19,10,043,*45

5:42:26:401 Nachm. 03/26/17 - $GLGSV,3,1,10,73,55,313,25,79,09,116,15,83,33,178,18,71,11,272,15*68

5:42:26:407 Nachm. 03/26/17 - $GLGSV,3,2,10,74,,,,82,66,092,,80,66,098,,65,05,008,*50

5:42:26:409 Nachm. 03/26/17 - $GLGSV,3,3,10,81,26,033,,72,18,323,*67

5:42:26:410 Nachm. 03/26/17 - $GPGGA,154223.0,5208.408586,N,01138.450444,E,1,06,1.7,58.6,M,45.0,M,,*63

5:42:26:410 Nachm. 03/26/17 - $GNGNS,154223.0,5208.408586,N,01138.450444,E,AA,07,1.7,58.6,45.0,,*56

5:42:26:411 Nachm. 03/26/17 - $GPVTG,104.1,T,103.7,M,0.0,N,0.0,K,A*22

5:42:26:411 Nachm. 03/26/17 - $GPRMC,154223.0,A,5208.408586,N,01138.450444,E,0.0,104.1,260317,0.4,E,A*01

5:42:26:412 Nachm. 03/26/17 - $GPGSA,A,2,14,24,25,29,31,32,,,,,,,1.9,1.7,0.9*38

5:42:26:413 Nachm. 03/26/17 - $GNGSA,A,2,14,24,25,29,31,32,,,,,,,1.9,1.7,0.9*26

5:42:26:413 Nachm. 03/26/17 - $GNGSA,A,2,73,,,,,,,,,,,,1.9,1.7,0.9*2E

5:42:27:385 Nachm. 03/26/17 - $GPGSV,3,1,11,12,67,068,14,14,31,296,15,24,35,149,18,25,61,277,24*7D

5:42:27:386 Nachm. 03/26/17 - $GPGSV,3,2,11,29,25,206,17,31,15,307,18,32,33,267,18,02,31,105,*72

5:42:27:387 Nachm. 03/26/17 - $GPGSV,3,3,11,03,02,355,,06,26,057,,19,10,043,*45

5:42:27:391 Nachm. 03/26/17 - $GLGSV,3,1,10,73,55,313,23,79,09,116,15,83,33,178,18,71,11,272,19*62

5:42:27:405 Nachm. 03/26/17 - $GLGSV,3,2,10,74,,,,82,66,092,,80,66,098,,65,05,008,*50

5:42:27:406 Nachm. 03/26/17 - $GLGSV,3,3,10,81,26,033,,72,18,323,*67

5:42:27:406 Nachm. 03/26/17 - $GPGGA,154224.0,5208.408593,N,01138.450447,E,1,06,1.7,58.6,M,45.0,M,,*63

5:42:27:406 Nachm. 03/26/17 - $GNGNS,154224.0,5208.408593,N,01138.450447,E,AA,07,1.7,58.6,45.0,,*56

5:42:27:407 Nachm. 03/26/17 - $GPVTG,104.1,T,103.7,M,0.0,N,0.0,K,A*22

5:42:27:407 Nachm. 03/26/17 - $GPRMC,154224.0,A,5208.408593,N,01138.450447,E,0.0,104.1,260317,0.4,E,A*01

5:42:27:408 Nachm. 03/26/17 - $GPGSA,A,2,14,24,25,29,31,32,,,,,,,1.9,1.7,0.9*38

5:42:27:408 Nachm. 03/26/17 - $GNGSA,A,2,14,24,25,29,31,32,,,,,,,1.9,1.7,0.9*26

5:42:27:409 Nachm. 03/26/17 - $GNGSA,A,2,73,,,,,,,,,,,,1.9,1.7,0.9*2E

5:42:28:385 Nachm. 03/26/17 - $GPGSV,3,1,11,12,67,068,14,14,31,296,15,24,35,149,19,25,61,277,24*7C

5:42:28:388 Nachm. 03/26/17 - $GPGSV,3,2,11,29,25,206,19,31,15,307,18,32,33,267,19,02,31,105,*7D

5:42:28:394 Nachm. 03/26/17 - $GPGSV,3,3,11,03,02,355,,06,26,057,,19,10,043,*45

5:42:28:396 Nachm. 03/26/17 - $GLGSV,3,1,10,73,55,313,19,79,09,116,15,83,33,178,15,71,11,272,21*6D

5:42:28:409 Nachm. 03/26/17 - $GLGSV,3,2,10,74,,,,82,66,092,,80,66,098,,65,05,008,*50

5:42:28:411 Nachm. 03/26/17 - $GLGSV,3,3,10,81,26,033,,72,18,323,*67

5:42:28:414 Nachm. 03/26/17 - $GPGGA,154225.0,5208.408599,N,01138.450449,E,1,06,1.7,58.6,M,45.0,M,,*66

5:42:28:416 Nachm. 03/26/17 - $GNGNS,154225.0,5208.408599,N,01138.450449,E,AA,07,1.7,58.6,45.0,,*53

5:42:28:418 Nachm. 03/26/17 - $GPVTG,104.1,T,103.7,M,0.0,N,0.0,K,A*22

5:42:28:420 Nachm. 03/26/17 - $GPRMC,154225.0,A,5208.408599,N,01138.450449,E,0.0,104.1,260317,0.4,E,A*04

5:42:28:420 Nachm. 03/26/17 - $GPGSA,A,2,14,24,25,29,31,32,,,,,,,1.9,1.7,0.9*38

5:42:28:421 Nachm. 03/26/17 - $GNGSA,A,2,14,24,25,29,31,32,,,,,,,1.9,1.7,0.9*26

5:42:28:422 Nachm. 03/26/17 - $GNGSA,A,2,73,,,,,,,,,,,,1.9,1.7,0.9*2E

5:42:29:386 Nachm. 03/26/17 - $GPGSV,3,1,11,12,67,068,14,14,31,296,16,24,35,149,18,25,61,277,16*7F

5:42:29:387 Nachm. 03/26/17 - $GPGSV,3,2,11,29,25,206,20,31,15,307,18,32,33,267,19,02,31,105,*77

5:42:29:387 Nachm. 03/26/17 - $GPGSV,3,3,11,03,02,355,,06,26,057,,19,10,043,*45

5:42:29:387 Nachm. 03/26/17 - $GLGSV,3,1,10,73,55,313,19,79,09,116,15,83,33,178,15,81,26,033,10*63

5:42:29:391 Nachm. 03/26/17 - $GLGSV,3,2,10,71,11,272,20,74,,,,82,66,092,,80,66,098,*5D

5:42:29:394 Nachm. 03/26/17 - $GLGSV,3,3,10,65,05,008,,72,18,323,*64

5:42:29:394 Nachm. 03/26/17 - $GPGGA,154226.0,5208.408598,N,01138.450453,E,1,06,1.7,58.6,M,45.0,M,,*6F

5:42:29:394 Nachm. 03/26/17 - $GNGNS,154226.0,5208.408598,N,01138.450453,E,AA,07,1.7,58.6,45.0,,*5A

5:42:29:394 Nachm. 03/26/17 - $GPVTG,104.1,T,103.7,M,0.0,N,0.0,K,A*22

5:42:29:395 Nachm. 03/26/17 - $GPRMC,154226.0,A,5208.408598,N,01138.450453,E,0.0,104.1,260317,0.4,E,A*0D

5:42:29:395 Nachm. 03/26/17 - $GPGSA,A,2,14,24,25,29,31,32,,,,,,,1.9,1.7,0.9*38

5:42:29:395 Nachm. 03/26/17 - $GNGSA,A,2,14,24,25,29,31,32,,,,,,,1.9,1.7,0.9*26

5:42:29:395 Nachm. 03/26/17 - $GNGSA,A,2,73,,,,,,,,,,,,1.9,1.7,0.9*2E

5:42:30:386 Nachm. 03/26/17 - $GPGSV,3,1,11,12,67,068,14,14,31,296,17,24,35,149,18,25,61,277,21*7A

5:42:30:387 Nachm. 03/26/17 - $GPGSV,3,2,11,29,25,206,20,31,15,307,18,32,33,267,19,02,31,105,*77

5:42:30:388 Nachm. 03/26/17 - $GPGSV,3,3,11,03,02,355,,06,26,057,,19,10,043,*45

5:42:30:400 Nachm. 03/26/17 - $GLGSV,3,1,10,73,55,313,19,79,09,116,15,83,33,178,15,81,26,033,10*63

5:42:30:407 Nachm. 03/26/17 - $GLGSV,3,2,10,71,11,272,17,74,,,,82,66,092,,80,66,098,*59

5:42:30:410 Nachm. 03/26/17 - $GLGSV,3,3,10,65,05,008,,72,18,323,*64

5:42:30:412 Nachm. 03/26/17 - $GPGGA,154227.0,5208.408598,N,01138.450453,E,1,06,1.7,58.6,M,45.0,M,,*6E

5:42:30:417 Nachm. 03/26/17 - $GNGNS,154227.0,5208.408598,N,01138.450453,E,AA,07,1.7,58.6,45.0,,*5B

5:42:30:418 Nachm. 03/26/17 - $GPVTG,104.1,T,103.7,M,0.0,N,0.0,K,A*22

5:42:30:418 Nachm. 03/26/17 - $GPRMC,154227.0,A,5208.408598,N,01138.450453,E,0.0,104.1,260317,0.4,E,A*0C

5:42:30:420 Nachm. 03/26/17 - $GPGSA,A,2,14,24,25,29,31,32,,,,,,,1.9,1.7,0.9*38

5:42:30:421 Nachm. 03/26/17 - $GNGSA,A,2,14,24,25,29,31,32,,,,,,,1.9,1.7,0.9*26

5:42:30:422 Nachm. 03/26/17 - $GNGSA,A,2,73,,,,,,,,,,,,1.9,1.7,0.9*2E

5:42:31:387 Nachm. 03/26/17 - $GPGSV,3,1,11,12,67,068,14,14,31,296,17,24,35,149,19,25,61,277,19*70

5:42:31:388 Nachm. 03/26/17 - $GPGSV,3,2,11,29,25,206,17,31,15,307,18,32,33,267,17,02,31,105,*7D

5:42:31:391 Nachm. 03/26/17 - $GPGSV,3,3,11,03,02,355,,06,26,057,,19,10,043,*45

5:42:31:393 Nachm. 03/26/17 - $GLGSV,3,1,10,73,55,313,15,79,09,116,15,83,33,178,15,81,26,033,10*6F

5:42:31:401 Nachm. 03/26/17 - $GLGSV,3,2,10,71,11,272,18,74,,,,82,66,092,,80,66,098,*56

5:42:31:410 Nachm. 03/26/17 - $GLGSV,3,3,10,65,05,008,,72,18,323,*64

5:42:31:412 Nachm. 03/26/17 - $GPGGA,154228.0,5208.408601,N,01138.450454,E,1,06,1.7,58.6,M,45.0,M,,*65

5:42:31:413 Nachm. 03/26/17 - $GNGNS,154228.0,5208.408601,N,01138.450454,E,AA,07,1.7,58.6,45.0,,*50

5:42:31:415 Nachm. 03/26/17 - $GPVTG,104.1,T,103.7,M,0.0,N,0.0,K,A*22

5:42:31:416 Nachm. 03/26/17 - $GPRMC,154228.0,A,5208.408601,N,01138.450454,E,0.0,104.1,260317,0.4,E,A*07

5:42:31:418 Nachm. 03/26/17 - $GPGSA,A,2,14,24,25,29,31,32,,,,,,,1.9,1.7,0.9*38

5:42:31:420 Nachm. 03/26/17 - $GNGSA,A,2,14,24,25,29,31,32,,,,,,,1.9,1.7,0.9*26

5:42:31:420 Nachm. 03/26/17 - $GNGSA,A,2,73,,,,,,,,,,,,1.9,1.7,0.9*2E

5:42:32:385 Nachm. 03/26/17 - $GPGSV,3,1,11,12,67,068,14,14,31,296,15,24,35,149,19,25,61,277,19*72

5:42:32:385 Nachm. 03/26/17 - $GPGSV,3,2,11,29,25,206,17,31,15,307,18,32,33,267,19,02,31,105,*73

5:42:32:386 Nachm. 03/26/17 - $GPGSV,3,3,11,03,02,355,,06,26,057,,19,10,043,*45

5:42:32:386 Nachm. 03/26/17 - $GLGSV,3,1,10,73,55,313,18,79,09,116,15,83,33,178,15,81,26,033,16*64

5:42:32:396 Nachm. 03/26/17 - $GLGSV,3,2,10,71,11,272,19,74,,,,82,66,092,,80,66,098,*57

5:42:32:400 Nachm. 03/26/17 - $GLGSV,3,3,10,65,05,008,,72,18,323,*64

5:42:32:401 Nachm. 03/26/17 - $GPGGA,154229.0,5208.408602,N,01138.450453,E,1,06,1.7,58.6,M,45.0,M,,*60

5:42:32:401 Nachm. 03/26/17 - $GNGNS,154229.0,5208.408602,N,01138.450453,E,AA,07,1.7,58.6,45.0,,*55

5:42:32:401 Nachm. 03/26/17 - $GPVTG,104.1,T,103.7,M,0.0,N,0.0,K,A*22

5:42:32:402 Nachm. 03/26/17 - $GPRMC,154229.0,A,5208.408602,N,01138.450453,E,0.0,104.1,260317,0.4,E,A*02

5:42:32:403 Nachm. 03/26/17 - $GPGSA,A,2,14,24,25,29,31,32,,,,,,,1.9,1.7,0.9*38

5:42:32:403 Nachm. 03/26/17 - $GNGSA,A,2,14,24,25,29,31,32,,,,,,,1.9,1.7,0.9*26

5:42:32:403 Nachm. 03/26/17 - $GNGSA,A,2,73,,,,,,,,,,,,1.9,1.7,0.9*2E

5:42:33:387 Nachm. 03/26/17 - $GPGSV,3,1,11,12,67,068,14,14,31,296,16,24,35,149,16,25,61,277,14*73

5:42:33:388 Nachm. 03/26/17 - $GPGSV,3,2,11,29,25,206,19,31,15,307,18,32,33,267,21,02,31,105,*76

5:42:33:389 Nachm. 03/26/17 - $GPGSV,3,3,11,03,02,355,,06,26,057,,19,10,043,*45

5:42:33:394 Nachm. 03/26/17 - $GLGSV,3,1,10,73,55,313,19,79,09,116,15,83,33,178,15,81,26,033,16*65

5:42:33:412 Nachm. 03/26/17 - $GLGSV,3,2,10,71,11,272,19,74,,,,82,66,092,,80,66,098,*57

5:42:33:418 Nachm. 03/26/17 - $GLGSV,3,3,10,65,05,008,,72,18,323,*64

5:42:33:419 Nachm. 03/26/17 - $GPGGA,154230.0,5208.408598,N,01138.450458,E,1,05,1.8,58.6,M,45.0,M,,*6F

5:42:33:420 Nachm. 03/26/17 - $GNGNS,154230.0,5208.408598,N,01138.450458,E,AA,06,1.8,58.6,45.0,,*58

5:42:33:420 Nachm. 03/26/17 - $GPVTG,104.1,T,103.7,M,0.0,N,0.0,K,A*22

5:42:33:421 Nachm. 03/26/17 - $GPRMC,154230.0,A,5208.408598,N,01138.450458,E,0.0,104.1,260317,0.4,E,A*01

5:42:33:422 Nachm. 03/26/17 - $GPGSA,A,2,14,24,25,29,32,,,,,,,,2.0,1.8,1.0*37

5:42:33:422 Nachm. 03/26/17 - $GNGSA,A,2,14,24,25,29,32,,,,,,,,2.0,1.8,1.0*29

5:42:33:423 Nachm. 03/26/17 - $GNGSA,A,2,73,,,,,,,,,,,,2.0,1.8,1.0*23

5:42:34:387 Nachm. 03/26/17 - $GPGSV,3,1,11,12,67,068,14,14,31,296,18,24,35,149,16,25,61,277,18*71

5:42:34:388 Nachm. 03/26/17 - $GPGSV,3,2,11,29,25,206,20,31,15,307,18,32,33,267,22,02,31,105,*7F

5:42:34:388 Nachm. 03/26/17 - $GPGSV,3,3,11,03,02,355,,06,26,057,,19,10,043,*45

5:42:34:389 Nachm. 03/26/17 - $GLGSV,3,1,10,73,55,313,20,83,33,178,15,81,26,033,16,71,11,272,18*62

5:42:34:407 Nachm. 03/26/17 - $GLGSV,3,2,10,74,,,,82,66,092,,80,66,098,,,09,116,*51

5:42:34:411 Nachm. 03/26/17 - $GLGSV,3,3,10,65,05,008,,72,18,323,*64

5:42:34:412 Nachm. 03/26/17 - $GPGGA,154231.0,5208.408598,N,01138.450465,E,1,05,1.8,58.6,M,45.0,M,,*60

5:42:34:412 Nachm. 03/26/17 - $GNGNS,154231.0,5208.408598,N,01138.450465,E,AA,06,1.8,58.6,45.0,,*57

5:42:34:413 Nachm. 03/26/17 - $GPVTG,104.1,T,103.7,M,0.0,N,0.0,K,A*22

5:42:34:419 Nachm. 03/26/17 - $GPRMC,154231.0,A,5208.408598,N,01138.450465,E,0.0,104.1,260317,0.4,E,A*0E

5:42:34:420 Nachm. 03/26/17 - $GPGSA,A,2,14,24,25,29,32,,,,,,,,2.0,1.8,1.0*37

5:42:34:420 Nachm. 03/26/17 - $GNGSA,A,2,14,24,25,29,32,,,,,,,,2.0,1.8,1.0*29

5:42:34:420 Nachm. 03/26/17 - $GNGSA,A,2,73,,,,,,,,,,,,2.0,1.8,1.0*23

5:42:35:385 Nachm. 03/26/17 - $GPGSV,3,1,11,12,67,068,14,14,31,296,18,24,35,149,16,25,61,277,18*71

5:42:35:386 Nachm. 03/26/17 - $GPGSV,3,2,11,29,25,206,20,31,15,307,18,32,33,267,20,02,31,105,*7D

5:42:35:387 Nachm. 03/26/17 - $GPGSV,3,3,11,03,02,355,,06,26,057,,19,10,043,*45

5:42:35:392 Nachm. 03/26/17 - $GLGSV,3,1,10,73,55,313,21,83,33,178,15,81,26,033,16,71,11,272,18*63

5:42:35:394 Nachm. 03/26/17 - $GLGSV,3,2,10,74,,,,82,66,092,,80,66,098,,79,09,116,*5F

5:42:35:396 Nachm. 03/26/17 - $GLGSV,3,3,10,65,05,008,,72,18,323,*64

5:42:35:398 Nachm. 03/26/17 - $GPGGA,154232.0,5208.408600,N,01138.450466,E,1,05,1.8,58.6,M,45.0,M,,*62

5:42:35:399 Nachm. 03/26/17 - $GNGNS,154232.0,5208.408600,N,01138.450466,E,AA,06,1.8,58.6,45.0,,*55

5:42:35:406 Nachm. 03/26/17 - $GPVTG,104.1,T,103.7,M,0.0,N,0.0,K,A*22

5:42:35:407 Nachm. 03/26/17 - $GPRMC,154232.0,A,5208.408600,N,01138.450466,E,0.0,104.1,260317,0.4,E,A*0C

5:42:35:407 Nachm. 03/26/17 - $GPGSA,A,2,14,24,25,29,32,,,,,,,,2.0,1.8,1.0*37

5:42:35:408 Nachm. 03/26/17 - $GNGSA,A,2,14,24,25,29,32,,,,,,,,2.0,1.8,1.0*29

5:42:35:408 Nachm. 03/26/17 - $GNGSA,A,2,73,,,,,,,,,,,,2.0,1.8,1.0*23

5:42:36:387 Nachm. 03/26/17 - $GPGSV,3,1,11,12,67,068,14,14,31,296,18,24,35,149,17,25,61,277,18*70

5:42:36:388 Nachm. 03/26/17 - $GPGSV,3,2,11,29,25,206,20,31,15,307,18,32,33,267,21,02,31,105,*7C

5:42:36:388 Nachm. 03/26/17 - $GPGSV,3,3,11,03,02,355,,06,26,057,,19,10,043,*45

5:42:36:405 Nachm. 03/26/17 - $GLGSV,3,1,10,73,55,313,24,83,33,178,15,81,26,033,16,71,11,272,18*66

5:42:36:407 Nachm. 03/26/17 - $GLGSV,3,2,10,74,,,,82,66,092,,80,66,098,,79,09,116,*5F

5:42:36:408 Nachm. 03/26/17 - $GLGSV,3,3,10,65,05,008,,72,18,323,*64

5:42:36:408 Nachm. 03/26/17 - $GPGGA,154233.0,5208.408599,N,01138.450470,E,1,05,1.8,58.6,M,45.0,M,,*67

5:42:36:408 Nachm. 03/26/17 - $GNGNS,154233.0,5208.408599,N,01138.450470,E,AA,06,1.8,58.6,45.0,,*50

5:42:36:409 Nachm. 03/26/17 - $GPVTG,104.1,T,103.7,M,0.0,N,0.0,K,A*22

5:42:36:409 Nachm. 03/26/17 - $GPRMC,154233.0,A,5208.408599,N,01138.450470,E,0.0,104.1,260317,0.4,E,A*09

5:42:36:410 Nachm. 03/26/17 - $GPGSA,A,2,14,24,25,29,32,,,,,,,,2.0,1.8,1.0*37

5:42:36:410 Nachm. 03/26/17 - $GNGSA,A,2,14,24,25,29,32,,,,,,,,2.0,1.8,1.0*29

5:42:36:411 Nachm. 03/26/17 - $GNGSA,A,2,73,,,,,,,,,,,,2.0,1.8,1.0*23

5:42:37:384 Nachm. 03/26/17 - $GPGSV,3,1,11,12,67,068,14,14,31,296,18,24,35,149,17,25,61,277,16*7E

5:42:37:385 Nachm. 03/26/17 - $GPGSV,3,2,11,29,25,206,20,31,15,307,18,32,33,267,21,02,31,105,*7C

5:42:37:386 Nachm. 03/26/17 - $GPGSV,3,3,11,03,02,355,,06,26,057,,19,10,043,*45

5:42:37:386 Nachm. 03/26/17 - $GLGSV,3,1,10,73,55,313,22,83,33,178,15,81,26,033,18,71,11,272,18*6E

5:42:37:389 Nachm. 03/26/17 - $GLGSV,3,2,10,74,,,,82,66,092,,80,66,098,,79,09,116,*5F

5:42:37:390 Nachm. 03/26/17 - $GLGSV,3,3,10,65,05,008,,72,18,323,*64

5:42:37:391 Nachm. 03/26/17 - $GPGGA,154234.0,5208.408595,N,01138.450470,E,1,05,1.8,58.6,M,45.0,M,,*6C

5:42:37:393 Nachm. 03/26/17 - $GNGNS,154234.0,5208.408595,N,01138.450470,E,AA,06,1.8,58.6,45.0,,*5B

5:42:37:393 Nachm. 03/26/17 - $GPVTG,104.1,T,103.7,M,0.0,N,0.0,K,A*22

5:42:37:393 Nachm. 03/26/17 - $GPRMC,154234.0,A,5208.408595,N,01138.450470,E,0.0,104.1,260317,0.4,E,A*02

5:42:37:394 Nachm. 03/26/17 - $GPGSA,A,2,14,24,25,29,32,,,,,,,,2.0,1.8,1.0*37

5:42:37:394 Nachm. 03/26/17 - $GNGSA,A,2,14,24,25,29,32,,,,,,,,2.0,1.8,1.0*29

5:42:37:394 Nachm. 03/26/17 - $GNGSA,A,2,73,,,,,,,,,,,,2.0,1.8,1.0*23

5:42:38:387 Nachm. 03/26/17 - $GPGSV,3,1,11,14,31,296,18,24,35,149,17,25,61,277,20,29,25,206,18*73

5:42:38:388 Nachm. 03/26/17 - $GPGSV,3,2,11,31,15,307,18,32,33,267,21,02,31,105,,03,02,355,*74

5:42:38:399 Nachm. 03/26/17 - $GPGSV,3,3,11,06,26,057,,12,67,068,,19,10,043,*4B

5:42:38:400 Nachm. 03/26/17 - $GLGSV,3,1,10,82,66,092,12,73,55,313,20,83,33,178,15,81,26,033,18*66

5:42:38:407 Nachm. 03/26/17 - $GLGSV,3,2,10,71,11,272,18,74,,,,80,66,098,,79,09,116,*56

5:42:38:410 Nachm. 03/26/17 - $GLGSV,3,3,10,65,05,008,,72,18,323,*64

5:42:38:412 Nachm. 03/26/17 - $GPGGA,154235.0,5208.408598,N,01138.450469,E,1,05,1.8,58.6,M,45.0,M,,*68

5:42:38:413 Nachm. 03/26/17 - $GNGNS,154235.0,5208.408598,N,01138.450469,E,AA,06,1.8,58.6,45.0,,*5F

5:42:38:414 Nachm. 03/26/17 - $GPVTG,104.1,T,103.7,M,0.0,N,0.0,K,A*22

5:42:38:416 Nachm. 03/26/17 - $GPRMC,154235.0,A,5208.408598,N,01138.450469,E,0.0,104.1,260317,0.4,E,A*06

5:42:38:417 Nachm. 03/26/17 - $GPGSA,A,2,14,24,25,29,32,,,,,,,,2.0,1.8,1.0*37

5:42:38:418 Nachm. 03/26/17 - $GNGSA,A,2,14,24,25,29,32,,,,,,,,2.0,1.8,1.0*29

5:42:38:419 Nachm. 03/26/17 - $GNGSA,A,2,73,,,,,,,,,,,,2.0,1.8,1.0*23

5:42:39:387 Nachm. 03/26/17 - $GPGSV,3,1,11,14,31,296,18,24,35,149,17,25,61,277,17,29,25,206,18*77

5:42:39:387 Nachm. 03/26/17 - $GPGSV,3,2,11,31,15,307,18,32,33,267,22,02,31,105,,03,02,355,*77

5:42:39:388 Nachm. 03/26/17 - $GPGSV,3,3,11,06,26,057,,12,67,068,,19,10,043,*4B

5:42:39:392 Nachm. 03/26/17 - $GLGSV,3,1,10,82,66,092,12,73,55,313,22,83,33,178,15,81,26,033,17*6B

5:42:39:393 Nachm. 03/26/17 - $GLGSV,3,2,10,71,11,272,12,74,,,,80,66,098,,79,09,116,*5C

5:42:39:404 Nachm. 03/26/17 - $GLGSV,3,3,10,65,05,008,,72,18,323,*64

5:42:39:406 Nachm. 03/26/17 - $GPGGA,154236.0,5208.408592,N,01138.450470,E,1,05,1.8,58.5,M,45.0,M,,*6A

5:42:39:407 Nachm. 03/26/17 - $GNGNS,154236.0,5208.408592,N,01138.450470,E,AA,06,1.8,58.5,45.0,,*5D

5:42:39:409 Nachm. 03/26/17 - $GPVTG,104.1,T,103.7,M,0.0,N,0.0,K,A*22

5:42:39:410 Nachm. 03/26/17 - $GPRMC,154236.0,A,5208.408592,N,01138.450470,E,0.0,104.1,260317,0.4,E,A*07

5:42:39:411 Nachm. 03/26/17 - $GPGSA,A,2,14,24,25,29,32,,,,,,,,2.0,1.8,1.0*37

5:42:39:412 Nachm. 03/26/17 - $GNGSA,A,2,14,24,25,29,32,,,,,,,,2.0,1.8,1.0*29

5:42:39:413 Nachm. 03/26/17 - $GNGSA,A,2,73,,,,,,,,,,,,2.0,1.8,1.0*23

5:42:40:387 Nachm. 03/26/17 - $GPGSV,3,1,11,14,31,296,13,24,35,149,16,25,61,277,17,29,25,206,17*72

5:42:40:388 Nachm. 03/26/17 - $GPGSV,3,2,11,31,15,307,18,32,33,267,23,02,31,105,,03,02,355,*76

5:42:40:392 Nachm. 03/26/17 - $GPGSV,3,3,11,06,26,057,,12,67,068,,19,10,043,*4B

5:42:40:393 Nachm. 03/26/17 - $GLGSV,3,1,10,82,66,092,12,73,55,313,22,83,33,178,10,81,26,033,17*6E

5:42:40:406 Nachm. 03/26/17 - $GLGSV,3,2,10,71,11,272,17,74,,,,80,66,098,,79,09,116,*59

5:42:40:419 Nachm. 03/26/17 - $GLGSV,3,3,10,65,05,008,,72,18,323,*64

5:42:40:419 Nachm. 03/26/17 - $GPGGA,154237.0,5208.408594,N,01138.450470,E,1,05,1.8,58.5,M,45.0,M,,*6D

5:42:40:420 Nachm. 03/26/17 - $GNGNS,154237.0,5208.408594,N,01138.450470,E,AA,06,1.8,58.5,45.0,,*5A

5:42:40:420 Nachm. 03/26/17 - $GPVTG,104.1,T,103.7,M,0.0,N,0.0,K,A*22

5:42:40:420 Nachm. 03/26/17 - $GPRMC,154237.0,A,5208.408594,N,01138.450470,E,0.0,104.1,260317,0.4,E,A*00

5:42:40:421 Nachm. 03/26/17 - $GPGSA,A,2,14,24,25,29,32,,,,,,,,2.0,1.8,1.0*37

5:42:40:422 Nachm. 03/26/17 - $GNGSA,A,2,14,24,25,29,32,,,,,,,,2.0,1.8,1.0*29

5:42:40:422 Nachm. 03/26/17 - $GNGSA,A,2,73,,,,,,,,,,,,2.0,1.8,1.0*23

5:42:41:386 Nachm. 03/26/17 - $GPGSV,3,1,11,14,31,296,13,24,35,149,17,25,61,277,15,29,25,206,17*71

5:42:41:387 Nachm. 03/26/17 - $GPGSV,3,2,11,31,15,307,18,32,33,267,21,02,31,105,,03,02,355,*74

5:42:41:389 Nachm. 03/26/17 - $GPGSV,3,3,11,06,26,057,,12,67,068,,19,10,043,*4B

5:42:41:394 Nachm. 03/26/17 - $GLGSV,3,1,10,82,66,092,12,73,55,313,21,83,33,178,10,81,26,033,18*62

5:42:41:401 Nachm. 03/26/17 - $GLGSV,3,2,10,71,11,272,17,74,,,,80,66,098,,79,09,116,*59

5:42:41:402 Nachm. 03/26/17 - $GLGSV,3,3,10,65,05,008,,72,18,323,*64

5:42:41:403 Nachm. 03/26/17 - $GPGGA,154238.0,5208.408596,N,01138.450470,E,1,05,1.8,58.6,M,45.0,M,,*63

5:42:41:404 Nachm. 03/26/17 - $GNGNS,154238.0,5208.408596,N,01138.450470,E,AA,06,1.8,58.6,45.0,,*54

5:42:41:405 Nachm. 03/26/17 - $GPVTG,104.1,T,103.7,M,0.0,N,0.0,K,A*22

5:42:41:406 Nachm. 03/26/17 - $GPRMC,154238.0,A,5208.408596,N,01138.450470,E,0.0,104.1,260317,0.4,E,A*0D

5:42:41:407 Nachm. 03/26/17 - $GPGSA,A,2,14,24,25,29,32,,,,,,,,2.0,1.8,1.0*37

5:42:41:408 Nachm. 03/26/17 - $GNGSA,A,2,14,24,25,29,32,,,,,,,,2.0,1.8,1.0*29

5:42:41:410 Nachm. 03/26/17 - $GNGSA,A,2,73,,,,,,,,,,,,2.0,1.8,1.0*23

5:42:42:387 Nachm. 03/26/17 - $GPGSV,3,1,11,14,31,296,13,24,35,149,17,25,61,277,15,29,25,206,17*71

5:42:42:390 Nachm. 03/26/17 - $GPGSV,3,2,11,31,15,307,18,32,33,267,22,02,31,105,,03,02,355,*77

5:42:42:392 Nachm. 03/26/17 - $GPGSV,3,3,11,06,26,057,,12,67,068,,19,10,043,*4B

5:42:42:395 Nachm. 03/26/17 - $GLGSV,3,1,10,82,66,092,12,73,55,313,20,83,33,178,10,81,26,033,18*63

5:42:42:404 Nachm. 03/26/17 - $GLGSV,3,2,10,71,11,272,17,74,,,,80,66,098,,79,09,116,*59

5:42:42:406 Nachm. 03/26/17 - $GLGSV,3,3,10,65,05,008,,72,18,323,*64

5:42:42:420 Nachm. 03/26/17 - $GPGGA,154239.0,5208.408598,N,01138.450471,E,1,05,1.8,58.6,M,45.0,M,,*6D

5:42:42:420 Nachm. 03/26/17 - $GNGNS,154239.0,5208.408598,N,01138.450471,E,AA,06,1.8,58.6,45.0,,*5A

5:42:42:421 Nachm. 03/26/17 - $GPVTG,104.1,T,103.7,M,0.0,N,0.0,K,A*22

5:42:42:422 Nachm. 03/26/17 - $GPRMC,154239.0,A,5208.408598,N,01138.450471,E,0.0,104.1,260317,0.4,E,A*03

5:42:42:423 Nachm. 03/26/17 - $GPGSA,A,2,14,24,25,29,32,,,,,,,,2.0,1.8,1.0*37

5:42:42:423 Nachm. 03/26/17 - $GNGSA,A,2,14,24,25,29,32,,,,,,,,2.0,1.8,1.0*29

5:42:42:424 Nachm. 03/26/17 - $GNGSA,A,2,73,,,,,,,,,,,,2.0,1.8,1.0*23

5:42:43:386 Nachm. 03/26/17 - $GPGSV,3,1,11,14,31,296,13,24,35,149,15,25,61,277,18,29,25,206,17*7E

5:42:43:389 Nachm. 03/26/17 - $GPGSV,3,2,11,31,15,307,18,32,33,267,22,02,31,105,,03,02,355,*77

5:42:43:391 Nachm. 03/26/17 - $GPGSV,3,3,11,06,26,057,,12,67,068,,19,10,043,*4B

5:42:43:392 Nachm. 03/26/17 - $GLGSV,3,1,10,82,66,092,12,73,55,313,19,83,33,178,10,81,26,033,19*68

5:42:43:395 Nachm. 03/26/17 - $GLGSV,3,2,10,71,11,272,17,74,,,,80,66,098,,79,09,116,*59

5:42:43:396 Nachm. 03/26/17 - $GLGSV,3,3,10,65,05,008,,72,18,323,*64

5:42:43:398 Nachm. 03/26/17 - $GPGGA,154240.0,5208.408597,N,01138.450472,E,1,05,1.8,58.6,M,45.0,M,,*6F

5:42:43:400 Nachm. 03/26/17 - $GNGNS,154240.0,5208.408597,N,01138.450472,E,AA,06,1.8,58.6,45.0,,*58

5:42:43:400 Nachm. 03/26/17 - $GPVTG,104.1,T,103.7,M,0.0,N,0.0,K,A*22

5:42:43:408 Nachm. 03/26/17 - $GPRMC,154240.0,A,5208.408597,N,01138.450472,E,0.0,104.1,260317,0.4,E,A*01

5:42:43:410 Nachm. 03/26/17 - $GPGSA,A,2,14,24,25,29,32,,,,,,,,2.0,1.8,1.0*37

5:42:43:411 Nachm. 03/26/17 - $GNGSA,A,2,14,24,25,29,32,,,,,,,,2.0,1.8,1.0*29

5:42:43:411 Nachm. 03/26/17 - $GNGSA,A,2,73,,,,,,,,,,,,2.0,1.8,1.0*23

5:42:44:386 Nachm. 03/26/17 - $GPGSV,3,1,11,14,31,296,13,24,35,149,15,25,61,277,20,29,25,206,17*75

5:42:44:387 Nachm. 03/26/17 - $GPGSV,3,2,11,31,15,307,18,32,33,267,21,02,31,105,,03,02,355,*74

5:42:44:388 Nachm. 03/26/17 - $GPGSV,3,3,11,06,26,057,,12,67,068,,19,10,043,*4B

5:42:44:388 Nachm. 03/26/17 - $GLGSV,3,1,10,82,66,092,12,73,55,313,17,83,33,178,10,81,26,033,19*66

5:42:44:390 Nachm. 03/26/17 - $GLGSV,3,2,10,71,11,272,14,74,,,,80,66,098,,79,09,116,*5A

5:42:44:391 Nachm. 03/26/17 - $GLGSV,3,3,10,65,05,008,,72,18,323,*64

5:42:44:391 Nachm. 03/26/17 - $GPGGA,154241.0,5208.408597,N,01138.450473,E,1,05,1.8,58.5,M,45.0,M,,*6C

5:42:44:391 Nachm. 03/26/17 - $GNGNS,154241.0,5208.408597,N,01138.450473,E,AA,06,1.8,58.5,45.0,,*5B

5:42:44:391 Nachm. 03/26/17 - $GPVTG,104.1,T,103.7,M,0.0,N,0.0,K,A*22

5:42:44:391 Nachm. 03/26/17 - $GPRMC,154241.0,A,5208.408597,N,01138.450473,E,0.0,104.1,260317,0.4,E,A*01

5:42:44:392 Nachm. 03/26/17 - $GPGSA,A,2,14,24,25,29,32,,,,,,,,2.0,1.8,1.0*37

5:42:44:398 Nachm. 03/26/17 - $GNGSA,A,2,14,24,25,29,32,,,,,,,,2.0,1.8,1.0*29

5:42:44:398 Nachm. 03/26/17 - $GNGSA,A,2,73,,,,,,,,,,,,2.0,1.8,1.0*23

5:42:45:386 Nachm. 03/26/17 - $GPGSV,3,1,11,14,31,296,13,24,35,149,15,25,61,277,21,29,25,206,15*76

5:42:45:386 Nachm. 03/26/17 - $GPGSV,3,2,11,31,15,307,18,32,33,267,20,02,31,105,,03,02,355,*75

5:42:45:387 Nachm. 03/26/17 - $GPGSV,3,3,11,06,26,057,,12,67,068,,19,10,043,*4B

5:42:45:387 Nachm. 03/26/17 - $GLGSV,3,1,10,82,66,092,12,73,55,313,18,83,33,178,10,81,26,033,17*67

5:42:45:394 Nachm. 03/26/17 - $GLGSV,3,2,10,71,11,272,18,74,,,,80,66,098,,79,09,116,*56

5:42:45:395 Nachm. 03/26/17 - $GLGSV,3,3,10,65,05,008,,72,18,323,*64

5:42:45:396 Nachm. 03/26/17 - $GPGGA,154242.0,5208.408597,N,01138.450474,E,1,05,1.8,58.5,M,45.0,M,,*68

5:42:45:396 Nachm. 03/26/17 - $GNGNS,154242.0,5208.408597,N,01138.450474,E,AA,06,1.8,58.5,45.0,,*5F

5:42:45:397 Nachm. 03/26/17 - $GPVTG,104.1,T,103.7,M,0.0,N,0.0,K,A*22

5:42:45:397 Nachm. 03/26/17 - $GPRMC,154242.0,A,5208.408597,N,01138.450474,E,0.0,104.1,260317,0.4,E,A*05

5:42:45:397 Nachm. 03/26/17 - $GPGSA,A,2,14,24,25,29,32,,,,,,,,2.0,1.8,1.0*37

5:42:45:398 Nachm. 03/26/17 - $GNGSA,A,2,14,24,25,29,32,,,,,,,,2.0,1.8,1.0*29

5:42:45:398 Nachm. 03/26/17 - $GNGSA,A,2,73,,,,,,,,,,,,2.0,1.8,1.0*23

5:42:46:385 Nachm. 03/26/17 - $GPGSV,3,1,11,14,31,296,13,24,35,149,15,25,61,277,19,29,25,206,19*71

5:42:46:385 Nachm. 03/26/17 - $GPGSV,3,2,11,31,15,307,18,32,33,267,20,02,31,105,,03,02,355,*75

5:42:46:385 Nachm. 03/26/17 - $GPGSV,3,3,11,06,26,057,,12,67,068,,19,10,043,*4B

5:42:46:387 Nachm. 03/26/17 - $GLGSV,3,1,10,82,66,092,12,73,55,313,17,83,33,178,10,81,26,033,17*68

5:42:46:393 Nachm. 03/26/17 - $GLGSV,3,2,10,71,11,272,20,74,,,,80,66,098,,79,09,116,*5D

5:42:46:393 Nachm. 03/26/17 - $GLGSV,3,3,10,65,05,008,,72,18,323,*64

5:42:46:394 Nachm. 03/26/17 - $GPGGA,154243.0,5208.408600,N,01138.450473,E,1,05,1.8,58.6,M,45.0,M,,*60

5:42:46:394 Nachm. 03/26/17 - $GNGNS,154243.0,5208.408600,N,01138.450473,E,AA,06,1.8,58.6,45.0,,*57

5:42:46:394 Nachm. 03/26/17 - $GPVTG,104.1,T,103.7,M,0.0,N,0.0,K,A*22

5:42:46:395 Nachm. 03/26/17 - $GPRMC,154243.0,A,5208.408600,N,01138.450473,E,0.0,104.1,260317,0.4,E,A*0E

5:42:46:396 Nachm. 03/26/17 - $GPGSA,A,2,14,24,25,29,32,,,,,,,,2.0,1.8,1.0*37

5:42:46:396 Nachm. 03/26/17 - $GNGSA,A,2,14,24,25,29,32,,,,,,,,2.0,1.8,1.0*29

5:42:46:396 Nachm. 03/26/17 - $GNGSA,A,2,73,,,,,,,,,,,,2.0,1.8,1.0*23


