6:01:29:383 Nachm. 03/26/17 - $GPGSV,3,1,11,12,59,077,13,14,31,286,20,25,70,286,21,31,23,307,18*7E

6:01:29:384 Nachm. 03/26/17 - $GPGSV,3,2,11,32,29,258,17,02,35,097,,03,01,347,,06,24,049,*7E

6:01:29:384 Nachm. 03/26/17 - $GPGSV,3,3,11,19,02,043,,24,27,150,,29,34,209,*44

6:01:29:384 Nachm. 03/26/17 - $GLGSV,3,1,10,74,08,306,20,82,63,066,10,73,66,320,28,65,09,000,24*67

6:01:29:386 Nachm. 03/26/17 - $GLGSV,3,2,10,83,45,178,8,81,18,030,8,72,16,313,24,80,57,112,*6F

6:01:29:386 Nachm. 03/26/17 - $GLGSV,3,3,10,79,00,122,,71,04,267,*6A

6:01:29:386 Nachm. 03/26/17 - $GPGGA,160126.0,5208.341380,N,01138.683245,E,1,03,3.8,51.0,M,45.0,M,,*64

6:01:29:386 Nachm. 03/26/17 - $GNGNS,160126.0,5208.341380,N,01138.683245,E,AA,05,3.8,51.0,45.0,,*56

6:01:29:386 Nachm. 03/26/17 - $GPVTG,211.0,T,210.6,M,0.0,N,0.0,K,A*24

6:01:29:386 Nachm. 03/26/17 - $GPRMC,160126.0,A,5208.341380,N,01138.683245,E,0.0,211.0,260317,0.4,E,A*07

6:01:29:387 Nachm. 03/26/17 - $GPGSA,A,2,14,25,31,,,,,,,,,,3.9,3.8,1.0*33

6:01:29:387 Nachm. 03/26/17 - $GNGSA,A,2,14,25,31,,,,,,,,,,3.9,3.8,1.0*2D

6:01:29:390 Nachm. 03/26/17 - $GNGSA,A,2,73,82,,,,,,,,,,,3.9,3.8,1.0*23

6:01:30:386 Nachm. 03/26/17 - $GPGSV,3,1,11,12,59,077,13,14,31,286,21,25,70,286,23,31,23,307,27*71

6:01:30:386 Nachm. 03/26/17 - $GPGSV,3,2,11,32,29,258,17,02,35,097,,03,01,347,,06,24,049,*7E

6:01:30:386 Nachm. 03/26/17 - $GPGSV,3,3,11,19,02,043,,24,27,150,,29,34,209,*44

6:01:30:386 Nachm. 03/26/17 - $GLGSV,3,1,10,74,08,306,18,82,63,066,10,73,66,320,25,65,09,000,26*63

6:01:30:386 Nachm. 03/26/17 - $GLGSV,3,2,10,83,45,178,8,81,18,030,8,72,16,313,12,80,57,112,*6A

6:01:30:387 Nachm. 03/26/17 - $GLGSV,3,3,10,79,00,122,,71,04,267,*6A

6:01:30:387 Nachm. 03/26/17 - $GPGGA,160127.0,5208.341941,N,01138.684030,E,1,03,3.8,51.2,M,45.0,M,,*67

6:01:30:393 Nachm. 03/26/17 - $GNGNS,160127.0,5208.341941,N,01138.684030,E,AA,05,3.8,51.2,45.0,,*55

6:01:30:396 Nachm. 03/26/17 - $GPVTG,211.0,T,210.6,M,0.0,N,0.0,K,A*24

6:01:30:397 Nachm. 03/26/17 - $GPRMC,160127.0,A,5208.341941,N,01138.684030,E,0.0,211.0,260317,0.4,E,A*06

6:01:30:398 Nachm. 03/26/17 - $GPGSA,A,2,14,25,31,,,,,,,,,,3.9,3.8,1.0*33

6:01:30:398 Nachm. 03/26/17 - $GNGSA,A,2,14,25,31,,,,,,,,,,3.9,3.8,1.0*2D

6:01:30:398 Nachm. 03/26/17 - $GNGSA,A,2,73,82,,,,,,,,,,,3.9,3.8,1.0*23

6:01:31:383 Nachm. 03/26/17 - $GPGSV,3,1,11,12,59,077,13,14,31,286,18,25,70,286,25,31,23,307,29*73

6:01:31:384 Nachm. 03/26/17 - $GPGSV,3,2,11,32,29,258,17,02,35,097,,03,01,347,,06,24,049,*7E

6:01:31:384 Nachm. 03/26/17 - $GPGSV,3,3,11,19,02,043,,24,27,150,,29,34,209,*44

6:01:31:388 Nachm. 03/26/17 - $GLGSV,3,1,10,74,08,306,16,82,63,066,10,73,66,320,27,65,09,000,24*6D

6:01:31:389 Nachm. 03/26/17 - $GLGSV,3,2,10,83,45,178,8,81,18,030,8,72,16,313,18,80,57,112,*60

6:01:31:394 Nachm. 03/26/17 - $GLGSV,3,3,10,79,00,122,,71,04,267,*6A

6:01:31:396 Nachm. 03/26/17 - $GPGGA,160128.0,5208.341790,N,01138.683397,E,1,03,3.8,51.3,M,45.0,M,,*62

6:01:31:396 Nachm. 03/26/17 - $GNGNS,160128.0,5208.341790,N,01138.683397,E,AA,05,3.8,51.3,45.0,,*50

6:01:31:396 Nachm. 03/26/17 - $GPVTG,211.0,T,210.6,M,0.0,N,0.0,K,A*24

6:01:31:397 Nachm. 03/26/17 - $GPRMC,160128.0,A,5208.341790,N,01138.683397,E,0.0,211.0,260317,0.4,E,A*02

6:01:31:397 Nachm. 03/26/17 - $GPGSA,A,2,14,25,31,,,,,,,,,,3.9,3.8,1.0*33

6:01:31:398 Nachm. 03/26/17 - $GNGSA,A,2,14,25,31,,,,,,,,,,3.9,3.8,1.0*2D

6:01:31:398 Nachm. 03/26/17 - $GNGSA,A,2,73,82,,,,,,,,,,,3.9,3.8,1.0*23

6:01:32:384 Nachm. 03/26/17 - $GPGSV,3,1,11,14,31,286,17,25,70,286,26,31,23,307,28,32,29,258,17*70

6:01:32:385 Nachm. 03/26/17 - $GPGSV,3,2,11,02,35,097,,03,01,347,,06,24,049,,12,59,077,*72

6:01:32:385 Nachm. 03/26/17 - $GPGSV,3,3,11,19,02,043,,24,27,150,,29,34,209,*44

6:01:32:386 Nachm. 03/26/17 - $GLGSV,3,1,10,74,08,306,16,82,63,066,10,73,66,320,26,65,09,000,25*6D

6:01:32:390 Nachm. 03/26/17 - $GLGSV,3,2,10,83,45,178,8,81,18,030,8,72,16,313,20,80,57,112,*6B

6:01:32:391 Nachm. 03/26/17 - $GLGSV,3,3,10,79,00,122,,71,04,267,*6A

6:01:32:392 Nachm. 03/26/17 - $GPGGA,160129.0,5208.341290,N,01138.683628,E,1,03,4.6,51.3,M,45.0,M,,*6E

6:01:32:392 Nachm. 03/26/17 - $GNGNS,160129.0,5208.341290,N,01138.683628,E,AA,04,4.6,51.3,45.0,,*5D

6:01:32:393 Nachm. 03/26/17 - $GPVTG,211.0,T,210.6,M,0.0,N,0.0,K,A*24

6:01:32:394 Nachm. 03/26/17 - $GPRMC,160129.0,A,5208.341290,N,01138.683628,E,0.0,211.0,260317,0.4,E,A*07

6:01:32:394 Nachm. 03/26/17 - $GPGSA,A,2,14,25,31,,,,,,,,,,4.7,4.6,1.0*33

6:01:32:395 Nachm. 03/26/17 - $GNGSA,A,2,14,25,31,,,,,,,,,,4.7,4.6,1.0*2D

6:01:32:396 Nachm. 03/26/17 - $GNGSA,A,2,73,,,,,,,,,,,,4.7,4.6,1.0*29

6:01:33:384 Nachm. 03/26/17 - $GPGSV,3,1,11,14,31,286,20,25,70,286,26,31,23,307,30,32,29,258,17*7D

6:01:33:384 Nachm. 03/26/17 - $GPGSV,3,2,11,02,35,097,,03,01,347,,06,24,049,,12,59,077,*72

6:01:33:384 Nachm. 03/26/17 - $GPGSV,3,3,11,19,02,043,,24,27,150,,29,34,209,*44

6:01:33:384 Nachm. 03/26/17 - $GLGSV,3,1,10,74,08,306,20,82,63,066,10,73,66,320,24,65,09,000,29*66

6:01:33:389 Nachm. 03/26/17 - $GLGSV,3,2,10,83,45,178,8,81,18,030,8,72,16,313,19,80,57,112,*61

6:01:33:389 Nachm. 03/26/17 - $GLGSV,3,3,10,79,00,122,,71,04,267,*6A

6:01:33:390 Nachm. 03/26/17 - $GPGGA,160130.0,5208.341508,N,01138.682615,E,1,03,4.6,51.4,M,45.0,M,,*68

6:01:33:390 Nachm. 03/26/17 - $GNGNS,160130.0,5208.341508,N,01138.682615,E,AA,04,4.6,51.4,45.0,,*5B

6:01:33:391 Nachm. 03/26/17 - $GPVTG,211.0,T,210.6,M,0.0,N,0.0,K,A*24

6:01:33:392 Nachm. 03/26/17 - $GPRMC,160130.0,A,5208.341508,N,01138.682615,E,0.0,211.0,260317,0.4,E,A*06

6:01:33:392 Nachm. 03/26/17 - $GPGSA,A,2,14,25,31,,,,,,,,,,4.7,4.6,1.0*33

6:01:33:393 Nachm. 03/26/17 - $GNGSA,A,2,14,25,31,,,,,,,,,,4.7,4.6,1.0*2D

6:01:33:393 Nachm. 03/26/17 - $GNGSA,A,2,73,,,,,,,,,,,,4.7,4.6,1.0*29

6:01:34:385 Nachm. 03/26/17 - $GPGSV,3,1,11,14,31,286,22,25,70,286,27,31,23,307,29,32,29,258,17*76

6:01:34:385 Nachm. 03/26/17 - $GPGSV,3,2,11,02,35,097,,03,01,347,,06,24,049,,12,59,077,*72

6:01:34:386 Nachm. 03/26/17 - $GPGSV,3,3,11,19,02,043,,24,27,150,,29,34,209,*44

6:01:34:386 Nachm. 03/26/17 - $GLGSV,3,1,10,74,08,306,22,82,63,066,10,73,66,320,22,65,09,000,29*62

6:01:34:388 Nachm. 03/26/17 - $GLGSV,3,2,10,83,45,178,8,81,18,030,8,72,16,313,17,80,57,112,*6F

6:01:34:388 Nachm. 03/26/17 - $GLGSV,3,3,10,79,00,122,,71,04,267,*6A

6:01:34:389 Nachm. 03/26/17 - $GPGGA,,,,,,0,,,,,,,,*66

6:01:34:389 Nachm. 03/26/17 - $GNGNS,,,,,,NN,,,,,,*53

6:01:34:389 Nachm. 03/26/17 - $GPVTG,,T,,M,,N,,K,N*2C

6:01:34:390 Nachm. 03/26/17 - $GPRMC,,V,,,,,,,,,,N*53

6:01:34:391 Nachm. 03/26/17 - $GPGSA,A,1,,,,,,,,,,,,,,,*1E

6:01:34:391 Nachm. 03/26/17 - $GNGSA,A,1,,,,,,,,,,,,,,,*00

6:01:35:385 Nachm. 03/26/17 - $GPGSV,3,1,11,14,31,286,18,25,70,286,27,31,23,307,31,32,29,258,17*76

6:01:35:385 Nachm. 03/26/17 - $GPGSV,3,2,11,02,35,097,,03,01,347,,06,24,049,,12,59,077,*72

6:01:35:386 Nachm. 03/26/17 - $GPGSV,3,3,11,19,02,043,,24,27,150,,29,34,209,*44

6:01:35:386 Nachm. 03/26/17 - $GLGSV,3,1,10,74,08,306,26,82,63,066,10,73,66,320,25,65,09,000,30*69

6:01:35:392 Nachm. 03/26/17 - $GLGSV,3,2,10,83,45,178,8,81,18,030,8,72,16,313,20,80,57,112,*6B

6:01:35:395 Nachm. 03/26/17 - $GLGSV,3,3,10,79,00,122,,71,04,267,*6A

6:01:35:395 Nachm. 03/26/17 - $GPGGA,,,,,,0,,,,,,,,*66

6:01:35:395 Nachm. 03/26/17 - $GNGNS,,,,,,NN,,,,,,*53

6:01:35:396 Nachm. 03/26/17 - $GPVTG,,T,,M,,N,,K,N*2C

6:01:35:396 Nachm. 03/26/17 - $GPRMC,,V,,,,,,,,,,N*53

6:01:35:396 Nachm. 03/26/17 - $GPGSA,A,1,,,,,,,,,,,,,,,*1E

6:01:35:396 Nachm. 03/26/17 - $GNGSA,A,1,,,,,,,,,,,,,,,*00

6:01:36:386 Nachm. 03/26/17 - $GPGSV,3,1,11,14,31,286,17,25,70,286,26,31,23,307,31,32,29,258,17*78

6:01:36:398 Nachm. 03/26/17 - $GPGSV,3,2,11,02,35,097,,03,01,347,,06,24,049,,12,59,077,*72

6:01:36:400 Nachm. 03/26/17 - $GPGSV,3,3,11,19,02,043,,24,27,150,,29,34,209,*44

6:01:36:400 Nachm. 03/26/17 - $GLGSV,3,1,10,74,08,306,26,82,63,066,10,73,66,320,24,65,09,000,31*69

6:01:36:406 Nachm. 03/26/17 - $GLGSV,3,2,10,81,18,030,8,72,16,313,19,80,57,112,,79,00,122,*52

6:01:36:409 Nachm. 03/26/17 - $GLGSV,3,3,10,,45,178,,71,04,267,*6A

6:01:36:409 Nachm. 03/26/17 - $GPGGA,,,,,,0,,,,,,,,*66

6:01:36:410 Nachm. 03/26/17 - $GNGNS,,,,,,NN,,,,,,*53

6:01:36:411 Nachm. 03/26/17 - $GPVTG,,T,,M,,N,,K,N*2C

6:01:36:411 Nachm. 03/26/17 - $GPRMC,,V,,,,,,,,,,N*53

6:01:36:412 Nachm. 03/26/17 - $GPGSA,A,1,,,,,,,,,,,,,,,*1E

6:01:36:413 Nachm. 03/26/17 - $GNGSA,A,1,,,,,,,,,,,,,,,*00

6:01:37:384 Nachm. 03/26/17 - $GPGSV,3,1,11,14,31,286,17,25,70,286,27,31,23,307,30,02,35,097,*71

6:01:37:393 Nachm. 03/26/17 - $GPGSV,3,2,11,03,01,347,,06,24,049,,12,59,077,,19,02,043,*75

6:01:37:395 Nachm. 03/26/17 - $GPGSV,3,3,11,24,27,150,,29,34,209,,32,29,258,*4C

6:01:37:408 Nachm. 03/26/17 - $GLGSV,3,1,10,74,08,306,23,82,63,066,11,73,66,320,26,65,09,000,29*66

6:01:37:411 Nachm. 03/26/17 - $GLGSV,3,2,10,81,18,030,8,72,16,313,21,80,57,112,,79,00,122,*59

6:01:37:411 Nachm. 03/26/17 - $GLGSV,3,3,10,83,45,178,,71,04,267,*61

6:01:37:413 Nachm. 03/26/17 - $GPGGA,,,,,,0,,,,,,,,*66

6:01:37:414 Nachm. 03/26/17 - $GNGNS,,,,,,NN,,,,,,*53

6:01:37:415 Nachm. 03/26/17 - $GPVTG,,T,,M,,N,,K,N*2C

6:01:37:418 Nachm. 03/26/17 - $GPRMC,,V,,,,,,,,,,N*53

6:01:37:418 Nachm. 03/26/17 - $GPGSA,A,1,,,,,,,,,,,,,,,*1E

6:01:37:419 Nachm. 03/26/17 - $GNGSA,A,1,,,,,,,,,,,,,,,*00

6:01:38:385 Nachm. 03/26/17 - $GPGSV,3,1,11,14,31,286,17,25,70,286,27,31,23,307,31,02,35,097,*70

6:01:38:386 Nachm. 03/26/17 - $GPGSV,3,2,11,03,01,347,,06,24,049,,12,59,077,,19,02,043,*75

6:01:38:386 Nachm. 03/26/17 - $GPGSV,3,3,11,24,27,150,,29,34,209,,32,29,258,*4C

6:01:38:386 Nachm. 03/26/17 - $GLGSV,3,1,10,74,08,306,24,82,63,066,11,73,66,320,25,65,09,000,29*62

6:01:38:395 Nachm. 03/26/17 - $GLGSV,3,2,10,81,18,030,8,72,16,313,22,80,57,112,,79,00,122,*5A

6:01:38:396 Nachm. 03/26/17 - $GLGSV,3,3,10,83,45,178,,71,04,267,*61

6:01:38:396 Nachm. 03/26/17 - $GPGGA,,,,,,0,,,,,,,,*66

6:01:38:396 Nachm. 03/26/17 - $GNGNS,,,,,,NN,,,,,,*53

6:01:38:397 Nachm. 03/26/17 - $GPVTG,,T,,M,,N,,K,N*2C

6:01:38:398 Nachm. 03/26/17 - $GPRMC,,V,,,,,,,,,,N*53

6:01:38:398 Nachm. 03/26/17 - $GPGSA,A,1,,,,,,,,,,,,,,,*1E

6:01:38:398 Nachm. 03/26/17 - $GNGSA,A,1,,,,,,,,,,,,,,,*00

6:01:39:383 Nachm. 03/26/17 - $GPGSV,3,1,11,14,31,286,17,25,70,286,26,31,23,307,30,02,35,097,*70

6:01:39:425 Nachm. 03/26/17 - $GPGSV,3,2,11,03,01,347,,06,24,049,,12,59,077,,19,02,043,*75

6:01:39:425 Nachm. 03/26/17 - $GPGSV,3,3,11,24,27,150,,29,34,209,,32,29,258,*4C

6:01:39:426 Nachm. 03/26/17 - $GLGSV,3,1,10,74,08,306,22,82,63,066,11,73,66,320,26,65,09,000,29*67

6:01:39:426 Nachm. 03/26/17 - $GLGSV,3,2,10,81,18,030,8,72,16,313,21,80,57,112,,79,00,122,*59

6:01:39:427 Nachm. 03/26/17 - $GLGSV,3,3,10,83,45,178,,71,04,267,*61

6:01:39:427 Nachm. 03/26/17 - $GPGGA,,,,,,0,,,,,,,,*66

6:01:39:427 Nachm. 03/26/17 - $GNGNS,,,,,,NN,,,,,,*53

6:01:39:430 Nachm. 03/26/17 - $GPVTG,,T,,M,,N,,K,N*2C

6:01:39:435 Nachm. 03/26/17 - $GPRMC,,V,,,,,,,,,,N*53

6:01:39:436 Nachm. 03/26/17 - $GPGSA,A,1,,,,,,,,,,,,,,,*1E

6:01:39:437 Nachm. 03/26/17 - $GNGSA,A,1,,,,,,,,,,,,,,,*00

6:01:40:384 Nachm. 03/26/17 - $GPGSV,3,1,11,14,31,286,17,25,70,286,26,31,23,307,30,02,36,097,*73

6:01:40:384 Nachm. 03/26/17 - $GPGSV,3,2,11,03,01,347,,06,24,049,,12,59,077,,19,02,043,*75

6:01:40:385 Nachm. 03/26/17 - $GPGSV,3,3,11,24,27,150,,29,34,209,,32,29,257,*43

6:01:40:394 Nachm. 03/26/17 - $GLGSV,3,1,10,74,08,306,21,82,63,066,11,73,66,320,26,65,09,000,28*65

6:01:40:405 Nachm. 03/26/17 - $GLGSV,3,2,10,81,18,030,8,72,16,313,19,80,57,112,,79,00,122,*52

6:01:40:406 Nachm. 03/26/17 - $GLGSV,3,3,10,83,45,178,,71,04,267,*61

6:01:40:407 Nachm. 03/26/17 - $GPGGA,,,,,,0,,,,,,,,*66

6:01:40:408 Nachm. 03/26/17 - $GNGNS,,,,,,NN,,,,,,*53

6:01:40:408 Nachm. 03/26/17 - $GPVTG,,T,,M,,N,,K,N*2C

6:01:40:408 Nachm. 03/26/17 - $GPRMC,,V,,,,,,,,,,N*53

6:01:40:409 Nachm. 03/26/17 - $GPGSA,A,1,,,,,,,,,,,,,,,*1E

6:01:40:409 Nachm. 03/26/17 - $GNGSA,A,1,,,,,,,,,,,,,,,*00

6:01:41:385 Nachm. 03/26/17 - $GPGSV,3,1,11,14,31,286,17,25,70,286,26,31,23,307,29,02,36,097,*7B

6:01:41:394 Nachm. 03/26/17 - $GPGSV,3,2,11,03,01,347,,06,24,049,,12,59,077,,19,02,043,*75

6:01:41:396 Nachm. 03/26/17 - $GPGSV,3,3,11,24,27,150,,29,34,209,,32,29,257,*43

6:01:41:399 Nachm. 03/26/17 - $GLGSV,3,1,10,74,08,306,20,82,63,066,11,73,66,320,25,65,09,000,28*67

6:01:41:401 Nachm. 03/26/17 - $GLGSV,3,2,10,81,18,030,8,72,16,313,20,80,57,112,,79,00,122,*58

6:01:41:402 Nachm. 03/26/17 - $GLGSV,3,3,10,83,45,178,,71,04,267,*61

6:01:41:411 Nachm. 03/26/17 - $GPGGA,160138.0,5208.340852,N,01138.680723,E,1,03,2.1,51.9,M,45.0,M,,*69

6:01:41:412 Nachm. 03/26/17 - $GNGNS,160138.0,5208.340852,N,01138.680723,E,AA,06,2.1,51.9,45.0,,*58

6:01:41:413 Nachm. 03/26/17 - $GPVTG,211.0,T,210.6,M,0.0,N,0.0,K,A*24

6:01:41:413 Nachm. 03/26/17 - $GPRMC,160138.0,A,5208.340852,N,01138.680723,E,0.0,211.0,260317,0.4,E,A*0B

6:01:41:417 Nachm. 03/26/17 - $GPGSA,A,2,14,25,31,,,,,,,,,,2.3,2.1,1.0*30

6:01:41:417 Nachm. 03/26/17 - $GNGSA,A,2,14,25,31,,,,,,,,,,2.3,2.1,1.0*2E

6:01:41:417 Nachm. 03/26/17 - $GNGSA,A,2,65,73,82,,,,,,,,,,2.3,2.1,1.0*23

6:01:42:383 Nachm. 03/26/17 - $GPGSV,3,1,11,14,31,286,17,25,70,286,26,31,23,307,30,02,36,097,*73

6:01:42:384 Nachm. 03/26/17 - $GPGSV,3,2,11,03,01,347,,06,24,049,,12,59,077,,19,02,043,*75

6:01:42:385 Nachm. 03/26/17 - $GPGSV,3,3,11,24,27,150,,29,34,209,,32,29,257,*43

6:01:42:385 Nachm. 03/26/17 - $GLGSV,3,1,10,74,08,306,20,82,63,066,11,73,66,320,25,65,09,000,28*67

6:01:42:386 Nachm. 03/26/17 - $GLGSV,3,2,10,81,18,030,8,72,16,313,19,80,57,112,,79,00,122,*52

6:01:42:386 Nachm. 03/26/17 - $GLGSV,3,3,10,83,45,178,,71,04,267,*61

6:01:42:389 Nachm. 03/26/17 - $GPGGA,160139.0,5208.340878,N,01138.680796,E,1,03,2.1,51.9,M,45.0,M,,*6E

6:01:42:394 Nachm. 03/26/17 - $GNGNS,160139.0,5208.340878,N,01138.680796,E,AA,06,2.1,51.9,45.0,,*5F

6:01:42:394 Nachm. 03/26/17 - $GPVTG,211.0,T,210.6,M,0.0,N,0.0,K,A*24

6:01:42:395 Nachm. 03/26/17 - $GPRMC,160139.0,A,5208.340878,N,01138.680796,E,0.0,211.0,260317,0.4,E,A*0C

6:01:42:396 Nachm. 03/26/17 - $GPGSA,A,2,14,25,31,,,,,,,,,,2.3,2.1,1.0*30

6:01:42:396 Nachm. 03/26/17 - $GNGSA,A,2,14,25,31,,,,,,,,,,2.3,2.1,1.0*2E

6:01:42:396 Nachm. 03/26/17 - $GNGSA,A,2,65,73,82,,,,,,,,,,2.3,2.1,1.0*23

6:01:43:384 Nachm. 03/26/17 - $GPGSV,3,1,11,14,31,286,17,25,70,286,26,31,23,307,29,02,36,097,*7B

6:01:43:388 Nachm. 03/26/17 - $GPGSV,3,2,11,03,01,347,,06,24,049,,12,59,077,,19,02,043,*75

6:01:43:390 Nachm. 03/26/17 - $GPGSV,3,3,11,24,27,150,,29,34,209,,32,29,257,*43

6:01:43:392 Nachm. 03/26/17 - $GLGSV,3,1,10,74,08,306,21,82,63,066,11,73,66,320,25,65,09,000,28*66

6:01:43:395 Nachm. 03/26/17 - $GLGSV,3,2,10,72,16,313,19,80,57,112,,79,00,122,,83,45,178,*6D

6:01:43:403 Nachm. 03/26/17 - $GLGSV,3,3,10,,18,030,,71,04,267,*6F

6:01:43:417 Nachm. 03/26/17 - $GPGGA,160140.0,5208.341042,N,01138.681267,E,1,02,2.3,51.6,M,45.0,M,,*66

6:01:43:425 Nachm. 03/26/17 - $GNGNS,160140.0,5208.341042,N,01138.681267,E,AA,05,2.3,51.6,45.0,,*55

6:01:43:426 Nachm. 03/26/17 - $GPVTG,211.0,T,210.6,M,0.0,N,0.0,K,A*24

6:01:43:427 Nachm. 03/26/17 - $GPRMC,160140.0,A,5208.341042,N,01138.681267,E,0.0,211.0,260317,0.4,E,A*08

6:01:43:427 Nachm. 03/26/17 - $GPGSA,A,2,25,31,,,,,,,,,,,2.5,2.3,1.0*31

6:01:43:427 Nachm. 03/26/17 - $GNGSA,A,2,25,31,,,,,,,,,,,2.5,2.3,1.0*2F

6:01:43:428 Nachm. 03/26/17 - $GNGSA,A,2,65,73,82,,,,,,,,,,2.5,2.3,1.0*27

6:01:44:384 Nachm. 03/26/17 - $GPGSV,3,1,11,14,31,286,17,25,70,286,27,31,23,307,29,02,36,097,*7A

6:01:44:385 Nachm. 03/26/17 - $GPGSV,3,2,11,03,01,347,,06,24,049,,12,59,077,,19,02,043,*75

6:01:44:386 Nachm. 03/26/17 - $GPGSV,3,3,11,24,27,150,,29,34,209,,32,29,257,*43

6:01:44:386 Nachm. 03/26/17 - $GLGSV,3,1,10,74,08,306,19,82,63,066,11,73,66,320,25,65,09,000,28*6D

6:01:44:387 Nachm. 03/26/17 - $GLGSV,3,2,10,72,16,313,21,80,57,112,,79,00,122,,83,45,178,*66

6:01:44:392 Nachm. 03/26/17 - $GLGSV,3,3,10,81,18,030,,71,04,267,*66

6:01:44:403 Nachm. 03/26/17 - $GPGGA,160141.0,5208.341177,N,01138.681638,E,1,02,3.0,51.4,M,45.0,M,,*6E

6:01:44:403 Nachm. 03/26/17 - $GNGNS,160141.0,5208.341177,N,01138.681638,E,AA,04,3.0,51.4,45.0,,*5C

6:01:44:404 Nachm. 03/26/17 - $GPVTG,211.0,T,210.6,M,0.0,N,0.0,K,A*24

6:01:44:404 Nachm. 03/26/17 - $GPRMC,160141.0,A,5208.341177,N,01138.681638,E,0.0,211.0,260317,0.4,E,A*00

6:01:44:404 Nachm. 03/26/17 - $GPGSA,A,2,25,31,,,,,,,,,,,3.2,3.0,1.0*35

6:01:44:404 Nachm. 03/26/17 - $GNGSA,A,2,25,31,,,,,,,,,,,3.2,3.0,1.0*2B

6:01:44:406 Nachm. 03/26/17 - $GNGSA,A,2,65,73,,,,,,,,,,,3.2,3.0,1.0*29

6:01:45:384 Nachm. 03/26/17 - $GPGSV,3,1,11,14,31,286,17,25,70,286,26,31,23,307,29,02,36,097,*7B

6:01:45:386 Nachm. 03/26/17 - $GPGSV,3,2,11,03,01,347,,06,24,049,,12,59,077,,19,02,043,*75

6:01:45:387 Nachm. 03/26/17 - $GPGSV,3,3,11,24,27,150,,29,34,209,,32,29,257,*43

6:01:45:397 Nachm. 03/26/17 - $GLGSV,3,1,10,74,08,306,20,82,63,066,11,73,66,320,25,65,09,000,28*67

6:01:45:400 Nachm. 03/26/17 - $GLGSV,3,2,10,72,16,313,19,80,57,112,,79,00,122,,83,45,178,*6D

6:01:45:401 Nachm. 03/26/17 - $GLGSV,3,3,10,81,18,030,,71,04,267,*66

6:01:45:401 Nachm. 03/26/17 - $GPGGA,160142.0,5208.341050,N,01138.681271,E,1,02,3.0,51.7,M,45.0,M,,*63

6:01:45:402 Nachm. 03/26/17 - $GNGNS,160142.0,5208.341050,N,01138.681271,E,AA,04,3.0,51.7,45.0,,*51

6:01:45:402 Nachm. 03/26/17 - $GPVTG,211.0,T,210.6,M,0.0,N,0.0,K,A*24

6:01:45:402 Nachm. 03/26/17 - $GPRMC,160142.0,A,5208.341050,N,01138.681271,E,0.0,211.0,260317,0.4,E,A*0E

6:01:45:403 Nachm. 03/26/17 - $GPGSA,A,2,25,31,,,,,,,,,,,3.2,3.0,1.0*35

6:01:45:404 Nachm. 03/26/17 - $GNGSA,A,2,25,31,,,,,,,,,,,3.2,3.0,1.0*2B

6:01:45:404 Nachm. 03/26/17 - $GNGSA,A,2,65,73,,,,,,,,,,,3.2,3.0,1.0*29

6:01:46:384 Nachm. 03/26/17 - $GPGSV,3,1,11,14,31,286,17,25,70,286,26,31,23,307,30,02,36,097,*73

6:01:46:385 Nachm. 03/26/17 - $GPGSV,3,2,11,03,01,347,,06,24,049,,12,59,077,,19,02,043,*75

6:01:46:388 Nachm. 03/26/17 - $GPGSV,3,3,11,24,27,150,,29,34,209,,32,29,257,*43

6:01:46:391 Nachm. 03/26/17 - $GLGSV,3,1,10,74,08,306,22,82,63,066,11,73,66,320,25,65,09,000,29*64

6:01:46:392 Nachm. 03/26/17 - $GLGSV,3,2,10,72,16,313,20,80,57,112,,79,00,122,,83,45,178,*67

6:01:46:392 Nachm. 03/26/17 - $GLGSV,3,3,10,81,18,030,,71,04,267,*66

6:01:46:396 Nachm. 03/26/17 - $GPGGA,160143.0,5208.340784,N,01138.680494,E,1,02,3.0,52.1,M,45.0,M,,*64

6:01:46:397 Nachm. 03/26/17 - $GNGNS,160143.0,5208.340784,N,01138.680494,E,AA,04,3.0,52.1,45.0,,*56

6:01:46:397 Nachm. 03/26/17 - $GPVTG,211.0,T,210.6,M,0.0,N,0.0,K,A*24

6:01:46:397 Nachm. 03/26/17 - $GPRMC,160143.0,A,5208.340784,N,01138.680494,E,0.0,211.0,260317,0.4,E,A*0C

6:01:46:397 Nachm. 03/26/17 - $GPGSA,A,2,25,31,,,,,,,,,,,3.2,3.0,1.0*35

6:01:46:397 Nachm. 03/26/17 - $GNGSA,A,2,25,31,,,,,,,,,,,3.2,3.0,1.0*2B

6:01:46:398 Nachm. 03/26/17 - $GNGSA,A,2,65,73,,,,,,,,,,,3.2,3.0,1.0*29

6:01:47:385 Nachm. 03/26/17 - $GPGSV,3,1,11,14,31,286,17,25,70,286,26,31,23,307,30,02,36,097,*73

6:01:47:385 Nachm. 03/26/17 - $GPGSV,3,2,11,03,01,347,,06,24,049,,12,59,077,,19,02,043,*75

6:01:47:388 Nachm. 03/26/17 - $GPGSV,3,3,11,24,27,150,,29,34,209,,32,29,257,*43

6:01:47:398 Nachm. 03/26/17 - $GLGSV,3,1,10,74,08,306,21,82,63,066,11,73,66,320,24,65,09,000,29*66

6:01:47:399 Nachm. 03/26/17 - $GLGSV,3,2,10,72,16,313,21,80,57,112,,79,00,122,,83,45,178,*66

6:01:47:400 Nachm. 03/26/17 - $GLGSV,3,3,10,81,18,030,,71,04,267,*66

6:01:47:400 Nachm. 03/26/17 - $GPGGA,160144.0,5208.340735,N,01138.680351,E,1,02,3.0,52.1,M,45.0,M,,*67

6:01:47:401 Nachm. 03/26/17 - $GNGNS,160144.0,5208.340735,N,01138.680351,E,AA,04,3.0,52.1,45.0,,*55

6:01:47:401 Nachm. 03/26/17 - $GPVTG,211.0,T,210.6,M,0.0,N,0.0,K,A*24

6:01:47:402 Nachm. 03/26/17 - $GPRMC,160144.0,A,5208.340735,N,01138.680351,E,0.0,211.0,260317,0.4,E,A*0F

6:01:47:403 Nachm. 03/26/17 - $GPGSA,A,2,25,31,,,,,,,,,,,3.2,3.0,1.0*35

6:01:47:404 Nachm. 03/26/17 - $GNGSA,A,2,25,31,,,,,,,,,,,3.2,3.0,1.0*2B

6:01:47:404 Nachm. 03/26/17 - $GNGSA,A,2,65,73,,,,,,,,,,,3.2,3.0,1.0*29

6:01:48:384 Nachm. 03/26/17 - $GPGSV,3,1,11,14,31,286,17,25,70,286,26,31,23,307,31,02,36,097,*72

6:01:48:389 Nachm. 03/26/17 - $GPGSV,3,2,11,03,01,347,,06,24,049,,12,59,077,,19,02,043,*75

6:01:48:390 Nachm. 03/26/17 - $GPGSV,3,3,11,24,27,150,,29,34,209,,32,29,257,*43

6:01:48:401 Nachm. 03/26/17 - $GLGSV,3,1,10,74,08,306,23,82,63,066,11,73,66,320,24,65,09,000,29*64

6:01:48:405 Nachm. 03/26/17 - $GLGSV,3,2,10,72,16,313,20,80,57,112,,79,00,122,,83,45,178,*67

6:01:48:405 Nachm. 03/26/17 - $GLGSV,3,3,10,81,18,030,,71,04,267,*66

6:01:48:410 Nachm. 03/26/17 - $GPGGA,160145.0,5208.340621,N,01138.680015,E,1,02,3.0,52.3,M,45.0,M,,*63

6:01:48:411 Nachm. 03/26/17 - $GNGNS,160145.0,5208.340621,N,01138.680015,E,AA,04,3.0,52.3,45.0,,*51

6:01:48:411 Nachm. 03/26/17 - $GPVTG,211.0,T,210.6,M,0.0,N,0.0,K,A*24

6:01:48:411 Nachm. 03/26/17 - $GPRMC,160145.0,A,5208.340621,N,01138.680015,E,0.0,211.0,260317,0.4,E,A*09

6:01:48:411 Nachm. 03/26/17 - $GPGSA,A,2,25,31,,,,,,,,,,,3.2,3.0,1.0*35

6:01:48:412 Nachm. 03/26/17 - $GNGSA,A,2,25,31,,,,,,,,,,,3.2,3.0,1.0*2B

6:01:48:412 Nachm. 03/26/17 - $GNGSA,A,2,65,73,,,,,,,,,,,3.2,3.0,1.0*29

6:01:49:384 Nachm. 03/26/17 - $GPGSV,3,1,11,14,31,286,18,25,70,286,24,31,23,307,30,02,36,097,*7E

6:01:49:385 Nachm. 03/26/17 - $GPGSV,3,2,11,03,01,347,,06,24,049,,12,59,077,,19,02,043,*75

6:01:49:389 Nachm. 03/26/17 - $GPGSV,3,3,11,24,27,150,,29,34,209,,32,29,257,*43

6:01:49:399 Nachm. 03/26/17 - $GLGSV,3,1,10,74,08,306,24,82,63,066,10,73,66,320,21,65,09,000,31*6E

6:01:49:406 Nachm. 03/26/17 - $GLGSV,3,2,10,72,16,313,21,80,57,112,,79,00,122,,83,45,178,*66

6:01:49:408 Nachm. 03/26/17 - $GLGSV,3,3,10,81,18,030,,71,04,267,*66

6:01:49:410 Nachm. 03/26/17 - $GPGGA,160146.0,5208.340550,N,01138.679693,E,1,03,2.1,52.5,M,45.0,M,,*6C

6:01:49:412 Nachm. 03/26/17 - $GNGNS,160146.0,5208.340550,N,01138.679693,E,AA,06,2.1,52.5,45.0,,*5D

6:01:49:413 Nachm. 03/26/17 - $GPVTG,211.0,T,210.6,M,0.0,N,0.0,K,A*24

6:01:49:413 Nachm. 03/26/17 - $GPRMC,160146.0,A,5208.340550,N,01138.679693,E,0.0,211.0,260317,0.4,E,A*01

6:01:49:414 Nachm. 03/26/17 - $GPGSA,A,2,14,25,31,,,,,,,,,,2.3,2.1,1.0*30

6:01:49:415 Nachm. 03/26/17 - $GNGSA,A,2,14,25,31,,,,,,,,,,2.3,2.1,1.0*2E

6:01:49:416 Nachm. 03/26/17 - $GNGSA,A,2,65,73,82,,,,,,,,,,2.3,2.1,1.0*23

6:01:50:385 Nachm. 03/26/17 - $GPGSV,3,1,11,14,31,286,20,25,70,286,25,31,23,307,31,02,36,097,*75

6:01:50:385 Nachm. 03/26/17 - $GPGSV,3,2,11,03,01,347,,06,24,049,,12,59,077,,19,02,043,*75

6:01:50:386 Nachm. 03/26/17 - $GPGSV,3,3,11,24,27,150,,29,34,209,,32,29,257,*43

6:01:50:386 Nachm. 03/26/17 - $GLGSV,3,1,10,74,08,306,23,82,63,066,10,73,66,320,19,65,09,000,31*62

6:01:50:387 Nachm. 03/26/17 - $GLGSV,3,2,10,72,16,313,20,80,57,112,,79,00,122,,83,45,178,*67

6:01:50:387 Nachm. 03/26/17 - $GLGSV,3,3,10,81,18,030,,71,04,267,*66

6:01:50:388 Nachm. 03/26/17 - $GPGGA,160147.0,5208.340555,N,01138.679682,E,1,03,2.1,52.5,M,45.0,M,,*68

6:01:50:396 Nachm. 03/26/17 - $GNGNS,160147.0,5208.340555,N,01138.679682,E,AA,06,2.1,52.5,45.0,,*59

6:01:50:396 Nachm. 03/26/17 - $GPVTG,211.0,T,210.6,M,0.0,N,0.0,K,A*24

6:01:50:397 Nachm. 03/26/17 - $GPRMC,160147.0,A,5208.340555,N,01138.679682,E,0.0,211.0,260317,0.4,E,A*05

6:01:50:397 Nachm. 03/26/17 - $GPGSA,A,2,14,25,31,,,,,,,,,,2.3,2.1,1.0*30

6:01:50:397 Nachm. 03/26/17 - $GNGSA,A,2,14,25,31,,,,,,,,,,2.3,2.1,1.0*2E

6:01:50:398 Nachm. 03/26/17 - $GNGSA,A,2,65,73,82,,,,,,,,,,2.3,2.1,1.0*23

6:01:51:386 Nachm. 03/26/17 - $GPGSV,3,1,11,14,31,286,20,25,70,286,24,31,23,307,31,02,36,097,*74

6:01:51:387 Nachm. 03/26/17 - $GPGSV,3,2,11,03,01,347,,06,24,049,,12,58,077,,19,02,043,*74

6:01:51:390 Nachm. 03/26/17 - $GPGSV,3,3,11,24,27,150,,29,34,209,,32,29,257,*43

6:01:51:393 Nachm. 03/26/17 - $GLGSV,3,1,10,74,08,306,23,82,63,066,10,73,66,320,19,65,09,000,30*63

6:01:51:395 Nachm. 03/26/17 - $GLGSV,3,2,10,72,16,313,21,80,57,112,,79,00,122,,83,45,178,*66

6:01:51:397 Nachm. 03/26/17 - $GLGSV,3,3,10,81,17,030,,71,04,267,*69

6:01:51:402 Nachm. 03/26/17 - $GPGGA,160148.0,5208.340547,N,01138.679641,E,1,03,2.1,52.5,M,45.0,M,,*6B

6:01:51:403 Nachm. 03/26/17 - $GNGNS,160148.0,5208.340547,N,01138.679641,E,AA,06,2.1,52.5,45.0,,*5A

6:01:51:404 Nachm. 03/26/17 - $GPVTG,211.0,T,210.6,M,0.0,N,0.0,K,A*24

6:01:51:409 Nachm. 03/26/17 - $GPRMC,160148.0,A,5208.340547,N,01138.679641,E,0.0,211.0,260317,0.4,E,A*06

6:01:51:410 Nachm. 03/26/17 - $GPGSA,A,2,14,25,31,,,,,,,,,,2.3,2.1,1.0*30

6:01:51:411 Nachm. 03/26/17 - $GNGSA,A,2,14,25,31,,,,,,,,,,2.3,2.1,1.0*2E

6:01:51:412 Nachm. 03/26/17 - $GNGSA,A,2,65,73,82,,,,,,,,,,2.3,2.1,1.0*23

6:01:52:386 Nachm. 03/26/17 - $GPGSV,3,1,11,14,31,286,19,25,70,286,24,31,23,307,31,02,36,097,*7E

6:01:52:387 Nachm. 03/26/17 - $GPGSV,3,2,11,03,01,347,,06,24,049,,12,58,077,,19,02,043,*74

6:01:52:391 Nachm. 03/26/17 - $GPGSV,3,3,11,24,27,150,,29,34,209,,32,29,257,*43

6:01:52:402 Nachm. 03/26/17 - $GLGSV,3,1,10,74,08,306,23,82,63,066,14,73,66,320,19,65,09,000,30*67

6:01:52:411 Nachm. 03/26/17 - $GLGSV,3,2,10,72,16,313,21,80,57,112,,79,00,122,,83,45,178,*66

6:01:52:411 Nachm. 03/26/17 - $GLGSV,3,3,10,81,17,030,,71,04,267,*69

6:01:52:411 Nachm. 03/26/17 - $GPGGA,160149.0,5208.340697,N,01138.679743,E,1,03,2.1,52.5,M,45.0,M,,*67

6:01:52:411 Nachm. 03/26/17 - $GNGNS,160149.0,5208.340697,N,01138.679743,E,AA,06,2.1,52.5,45.0,,*56

6:01:52:412 Nachm. 03/26/17 - $GPVTG,211.0,T,210.6,M,0.0,N,0.0,K,A*24

6:01:52:412 Nachm. 03/26/17 - $GPRMC,160149.0,A,5208.340697,N,01138.679743,E,0.0,211.0,260317,0.4,E,A*0A

6:01:52:412 Nachm. 03/26/17 - $GPGSA,A,2,14,25,31,,,,,,,,,,2.3,2.1,1.0*30

6:01:52:412 Nachm. 03/26/17 - $GNGSA,A,2,14,25,31,,,,,,,,,,2.3,2.1,1.0*2E

6:01:52:412 Nachm. 03/26/17 - $GNGSA,A,2,65,73,82,,,,,,,,,,2.3,2.1,1.0*23

6:01:53:384 Nachm. 03/26/17 - $GPGSV,3,1,11,14,31,286,20,25,70,286,25,31,23,307,31,02,36,097,*75

6:01:53:384 Nachm. 03/26/17 - $GPGSV,3,2,11,03,01,347,,06,24,049,,12,58,077,,19,02,043,*74

6:01:53:385 Nachm. 03/26/17 - $GPGSV,3,3,11,24,27,150,,29,34,209,,32,29,257,*43

6:01:53:385 Nachm. 03/26/17 - $GLGSV,3,1,10,74,08,306,23,82,63,066,14,73,66,320,20,65,09,000,31*6C

6:01:53:386 Nachm. 03/26/17 - $GLGSV,3,2,10,72,16,313,21,80,57,112,,79,00,122,,83,45,178,*66

6:01:53:387 Nachm. 03/26/17 - $GLGSV,3,3,10,81,17,030,,71,04,267,*69

6:01:53:388 Nachm. 03/26/17 - $GPGGA,160150.0,5208.340725,N,01138.679819,E,1,03,2.1,52.4,M,45.0,M,,*66

6:01:53:389 Nachm. 03/26/17 - $GNGNS,160150.0,5208.340725,N,01138.679819,E,AA,06,2.1,52.4,45.0,,*57

6:01:53:389 Nachm. 03/26/17 - $GPVTG,211.0,T,210.6,M,0.0,N,0.0,K,A*24

6:01:53:389 Nachm. 03/26/17 - $GPRMC,160150.0,A,5208.340725,N,01138.679819,E,0.0,211.0,260317,0.4,E,A*0A

6:01:53:389 Nachm. 03/26/17 - $GPGSA,A,2,14,25,31,,,,,,,,,,2.3,2.1,1.0*30

6:01:53:389 Nachm. 03/26/17 - $GNGSA,A,2,14,25,31,,,,,,,,,,2.3,2.1,1.0*2E

6:01:53:389 Nachm. 03/26/17 - $GNGSA,A,2,65,73,82,,,,,,,,,,2.3,2.1,1.0*23

6:01:54:384 Nachm. 03/26/17 - $GPGSV,3,1,11,14,31,286,20,25,70,286,25,31,23,307,31,02,36,097,*75

6:01:54:386 Nachm. 03/26/17 - $GPGSV,3,2,11,03,01,347,,06,24,049,,12,58,077,,19,02,043,*74

6:01:54:388 Nachm. 03/26/17 - $GPGSV,3,3,11,24,27,150,,29,34,209,,32,29,257,*43

6:01:54:390 Nachm. 03/26/17 - $GLGSV,3,1,10,74,08,306,21,82,63,066,14,73,66,320,19,65,09,000,31*64

6:01:54:391 Nachm. 03/26/17 - $GLGSV,3,2,10,72,16,313,21,80,57,112,,79,00,122,,83,45,178,*66

6:01:54:402 Nachm. 03/26/17 - $GLGSV,3,3,10,81,17,030,,71,04,267,*69

6:01:54:406 Nachm. 03/26/17 - $GPGGA,160151.0,5208.340709,N,01138.679777,E,1,03,2.1,52.4,M,45.0,M,,*6E

6:01:54:406 Nachm. 03/26/17 - $GNGNS,160151.0,5208.340709,N,01138.679777,E,AA,06,2.1,52.4,45.0,,*5F

6:01:54:407 Nachm. 03/26/17 - $GPVTG,211.0,T,210.6,M,0.0,N,0.0,K,A*24

6:01:54:407 Nachm. 03/26/17 - $GPRMC,160151.0,A,5208.340709,N,01138.679777,E,0.0,211.0,260317,0.4,E,A*02

6:01:54:407 Nachm. 03/26/17 - $GPGSA,A,2,14,25,31,,,,,,,,,,2.3,2.1,1.0*30

6:01:54:407 Nachm. 03/26/17 - $GNGSA,A,2,14,25,31,,,,,,,,,,2.3,2.1,1.0*2E

6:01:54:407 Nachm. 03/26/17 - $GNGSA,A,2,65,73,82,,,,,,,,,,2.3,2.1,1.0*23

6:01:55:385 Nachm. 03/26/17 - $GPGSV,3,1,11,14,31,286,20,25,70,286,25,31,23,307,31,02,36,097,*75

6:01:55:386 Nachm. 03/26/17 - $GPGSV,3,2,11,03,01,347,,06,24,049,,12,58,077,,19,02,043,*74

6:01:55:390 Nachm. 03/26/17 - $GPGSV,3,3,11,24,27,150,,29,34,209,,32,29,257,*43

6:01:55:392 Nachm. 03/26/17 - $GLGSV,3,1,10,74,08,306,22,82,63,066,14,73,66,320,19,65,09,000,31*67

6:01:55:393 Nachm. 03/26/17 - $GLGSV,3,2,10,72,16,313,21,80,57,112,,79,00,122,,83,45,178,*66

6:01:55:397 Nachm. 03/26/17 - $GLGSV,3,3,10,81,17,030,,71,04,267,*69

6:01:55:397 Nachm. 03/26/17 - $GPGGA,160152.0,5208.340742,N,01138.679859,E,1,03,2.1,52.4,M,45.0,M,,*61

6:01:55:397 Nachm. 03/26/17 - $GNGNS,160152.0,5208.340742,N,01138.679859,E,AA,06,2.1,52.4,45.0,,*50

6:01:55:397 Nachm. 03/26/17 - $GPVTG,211.0,T,210.6,M,0.0,N,0.0,K,A*24

6:01:55:397 Nachm. 03/26/17 - $GPRMC,160152.0,A,5208.340742,N,01138.679859,E,0.0,211.0,260317,0.4,E,A*0D

6:01:55:398 Nachm. 03/26/17 - $GPGSA,A,2,14,25,31,,,,,,,,,,2.3,2.1,1.0*30

6:01:55:398 Nachm. 03/26/17 - $GNGSA,A,2,14,25,31,,,,,,,,,,2.3,2.1,1.0*2E

6:01:55:398 Nachm. 03/26/17 - $GNGSA,A,2,65,73,82,,,,,,,,,,2.3,2.1,1.0*23

6:01:56:385 Nachm. 03/26/17 - $GPGSV,3,1,11,14,31,286,17,25,70,286,24,31,23,307,31,02,36,097,*70

6:01:56:386 Nachm. 03/26/17 - $GPGSV,3,2,11,03,01,347,,06,24,049,,12,58,077,,19,02,043,*74

6:01:56:387 Nachm. 03/26/17 - $GPGSV,3,3,11,24,27,150,,29,34,209,,32,29,257,*43

6:01:56:389 Nachm. 03/26/17 - $GLGSV,3,1,10,74,08,306,24,82,63,066,14,73,66,320,21,65,09,000,32*69

6:01:56:390 Nachm. 03/26/17 - $GLGSV,3,2,10,72,16,313,22,80,57,112,,79,00,122,,83,45,178,*65

6:01:56:390 Nachm. 03/26/17 - $GLGSV,3,3,10,81,17,030,,71,04,267,*69

6:01:56:398 Nachm. 03/26/17 - $GPGGA,160153.0,5208.340724,N,01138.679814,E,1,03,2.1,52.4,M,45.0,M,,*69

6:01:56:402 Nachm. 03/26/17 - $GNGNS,160153.0,5208.340724,N,01138.679814,E,AA,06,2.1,52.4,45.0,,*58

6:01:56:407 Nachm. 03/26/17 - $GPVTG,211.0,T,210.6,M,0.0,N,0.0,K,A*24

6:01:56:407 Nachm. 03/26/17 - $GPRMC,160153.0,A,5208.340724,N,01138.679814,E,0.0,211.0,260317,0.4,E,A*05

6:01:56:408 Nachm. 03/26/17 - $GPGSA,A,2,14,25,31,,,,,,,,,,2.3,2.1,1.0*30

6:01:56:408 Nachm. 03/26/17 - $GNGSA,A,2,14,25,31,,,,,,,,,,2.3,2.1,1.0*2E

6:01:56:409 Nachm. 03/26/17 - $GNGSA,A,2,65,73,82,,,,,,,,,,2.3,2.1,1.0*23

6:01:57:384 Nachm. 03/26/17 - $GPGSV,3,1,11,14,31,286,16,25,70,286,23,31,23,307,30,02,36,097,*77

6:01:57:386 Nachm. 03/26/17 - $GPGSV,3,2,11,03,01,347,,06,24,049,,12,58,077,,19,02,043,*74

6:01:57:388 Nachm. 03/26/17 - $GPGSV,3,3,11,24,27,150,,29,34,209,,32,29,257,*43

6:01:57:390 Nachm. 03/26/17 - $GLGSV,3,1,10,74,08,306,24,82,63,066,14,73,66,320,19,65,09,000,31*61

6:01:57:391 Nachm. 03/26/17 - $GLGSV,3,2,10,72,16,313,21,80,57,112,,79,00,122,,83,45,178,*66

6:01:57:393 Nachm. 03/26/17 - $GLGSV,3,3,10,81,17,030,,71,04,267,*69

6:01:57:404 Nachm. 03/26/17 - $GPGGA,160154.0,5208.340709,N,01138.679767,E,1,03,2.1,52.4,M,45.0,M,,*6A

6:01:57:407 Nachm. 03/26/17 - $GNGNS,160154.0,5208.340709,N,01138.679767,E,AA,06,2.1,52.4,45.0,,*5B

6:01:57:408 Nachm. 03/26/17 - $GPVTG,211.0,T,210.6,M,0.0,N,0.0,K,A*24

6:01:57:408 Nachm. 03/26/17 - $GPRMC,160154.0,A,5208.340709,N,01138.679767,E,0.0,211.0,260317,0.4,E,A*06

6:01:57:409 Nachm. 03/26/17 - $GPGSA,A,2,14,25,31,,,,,,,,,,2.3,2.1,1.0*30

6:01:57:409 Nachm. 03/26/17 - $GNGSA,A,2,14,25,31,,,,,,,,,,2.3,2.1,1.0*2E

6:01:57:409 Nachm. 03/26/17 - $GNGSA,A,2,65,73,82,,,,,,,,,,2.3,2.1,1.0*23

6:01:58:385 Nachm. 03/26/17 - $GPGSV,3,1,11,14,31,286,17,25,70,286,23,31,23,307,30,02,36,097,*76

6:01:58:387 Nachm. 03/26/17 - $GPGSV,3,2,11,03,01,347,,06,24,049,,12,58,077,,19,02,043,*74

6:01:58:388 Nachm. 03/26/17 - $GPGSV,3,3,11,24,27,150,,29,34,209,,32,29,257,*43

6:01:58:389 Nachm. 03/26/17 - $GLGSV,3,1,10,74,08,306,23,82,63,066,14,73,66,320,21,65,09,000,31*6D

6:01:58:389 Nachm. 03/26/17 - $GLGSV,3,2,10,72,16,313,19,80,57,112,,79,00,122,,83,45,178,*6D

6:01:58:390 Nachm. 03/26/17 - $GLGSV,3,3,10,81,17,030,,71,04,267,*69

6:01:58:407 Nachm. 03/26/17 - $GPGGA,160155.0,5208.340683,N,01138.679681,E,1,03,2.1,52.5,M,45.0,M,,*60

6:01:58:408 Nachm. 03/26/17 - $GNGNS,160155.0,5208.340683,N,01138.679681,E,AA,06,2.1,52.5,45.0,,*51

6:01:58:408 Nachm. 03/26/17 - $GPVTG,211.0,T,210.6,M,0.0,N,0.0,K,A*24

6:01:58:408 Nachm. 03/26/17 - $GPRMC,160155.0,A,5208.340683,N,01138.679681,E,0.0,211.0,260317,0.4,E,A*0D

6:01:58:409 Nachm. 03/26/17 - $GPGSA,A,2,14,25,31,,,,,,,,,,2.3,2.1,1.0*30

6:01:58:409 Nachm. 03/26/17 - $GNGSA,A,2,14,25,31,,,,,,,,,,2.3,2.1,1.0*2E

6:01:58:409 Nachm. 03/26/17 - $GNGSA,A,2,65,73,82,,,,,,,,,,2.3,2.1,1.0*23

6:01:59:384 Nachm. 03/26/17 - $GPGSV,3,1,11,14,31,286,19,25,70,286,24,31,23,307,31,02,36,097,*7E

6:01:59:387 Nachm. 03/26/17 - $GPGSV,3,2,11,03,01,347,,06,24,049,,12,58,077,,19,02,043,*74

6:01:59:394 Nachm. 03/26/17 - $GPGSV,3,3,11,24,27,150,,29,34,209,,32,29,257,*43

6:01:59:394 Nachm. 03/26/17 - $GLGSV,3,1,10,74,08,306,22,82,63,066,14,73,66,320,20,65,09,000,31*6D

6:01:59:397 Nachm. 03/26/17 - $GLGSV,3,2,10,72,16,313,20,80,57,112,,79,00,122,,83,45,178,*67

6:01:59:397 Nachm. 03/26/17 - $GLGSV,3,3,10,81,17,030,,71,04,267,*69

6:01:59:397 Nachm. 03/26/17 - $GPGGA,160156.0,5208.340668,N,01138.679635,E,1,03,2.7,52.5,M,45.0,M,,*6F

6:01:59:398 Nachm. 03/26/17 - $GNGNS,160156.0,5208.340668,N,01138.679635,E,AA,05,2.7,52.5,45.0,,*5D

6:01:59:398 Nachm. 03/26/17 - $GPVTG,211.0,T,210.6,M,0.0,N,0.0,K,A*24

6:01:59:398 Nachm. 03/26/17 - $GPRMC,160156.0,A,5208.340668,N,01138.679635,E,0.0,211.0,260317,0.4,E,A*04

6:01:59:398 Nachm. 03/26/17 - $GPGSA,A,2,14,25,31,,,,,,,,,,2.9,2.7,1.0*3C

6:01:59:398 Nachm. 03/26/17 - $GNGSA,A,2,14,25,31,,,,,,,,,,2.9,2.7,1.0*22

6:01:59:399 Nachm. 03/26/17 - $GNGSA,A,2,65,73,,,,,,,,,,,2.9,2.7,1.0*25

6:02:00:384 Nachm. 03/26/17 - $GPGSV,3,1,11,14,31,286,19,25,70,286,24,31,23,307,30,02,36,097,*7F

6:02:00:385 Nachm. 03/26/17 - $GPGSV,3,2,11,03,01,347,,06,24,049,,12,58,077,,19,02,043,*74

6:02:00:385 Nachm. 03/26/17 - $GPGSV,3,3,11,24,27,150,,29,34,209,,32,29,257,*43

6:02:00:385 Nachm. 03/26/17 - $GLGSV,3,1,10,74,08,306,20,82,63,066,14,73,66,320,19,65,09,000,31*65

6:02:00:386 Nachm. 03/26/17 - $GLGSV,3,2,10,72,16,313,19,80,57,112,,79,00,122,,83,45,178,*6D

6:02:00:387 Nachm. 03/26/17 - $GLGSV,3,3,10,81,17,030,,71,04,267,*69

6:02:00:389 Nachm. 03/26/17 - $GPGGA,160157.0,5208.340692,N,01138.679703,E,1,03,2.7,52.5,M,45.0,M,,*6F

6:02:00:389 Nachm. 03/26/17 - $GNGNS,160157.0,5208.340692,N,01138.679703,E,AA,05,2.7,52.5,45.0,,*5D

6:02:00:389 Nachm. 03/26/17 - $GPVTG,211.0,T,210.6,M,0.0,N,0.0,K,A*24

6:02:00:389 Nachm. 03/26/17 - $GPRMC,160157.0,A,5208.340692,N,01138.679703,E,0.0,211.0,260317,0.4,E,A*04

6:02:00:390 Nachm. 03/26/17 - $GPGSA,A,2,14,25,31,,,,,,,,,,2.9,2.7,1.0*3C

6:02:00:390 Nachm. 03/26/17 - $GNGSA,A,2,14,25,31,,,,,,,,,,2.9,2.7,1.0*22

6:02:00:390 Nachm. 03/26/17 - $GNGSA,A,2,65,73,,,,,,,,,,,2.9,2.7,1.0*25

6:02:01:384 Nachm. 03/26/17 - $GPGSV,3,1,11,14,31,286,16,25,70,286,24,31,23,307,30,02,36,097,*70

6:02:01:386 Nachm. 03/26/17 - $GPGSV,3,2,11,03,01,347,,06,24,049,,12,58,077,,19,02,043,*74

6:02:01:388 Nachm. 03/26/17 - $GPGSV,3,3,11,24,27,150,,29,34,209,,32,29,257,*43

6:02:01:399 Nachm. 03/26/17 - $GLGSV,3,1,10,74,08,306,21,82,63,066,14,73,66,320,20,65,09,000,31*6E

6:02:01:400 Nachm. 03/26/17 - $GLGSV,3,2,10,72,16,313,21,80,57,112,,79,00,122,,83,45,178,*66

6:02:01:401 Nachm. 03/26/17 - $GLGSV,3,3,10,81,17,030,,71,04,267,*69

6:02:01:411 Nachm. 03/26/17 - $GPGGA,160158.0,5208.340695,N,01138.679721,E,1,03,2.7,52.5,M,45.0,M,,*67

6:02:01:412 Nachm. 03/26/17 - $GNGNS,160158.0,5208.340695,N,01138.679721,E,AA,05,2.7,52.5,45.0,,*55

6:02:01:412 Nachm. 03/26/17 - $GPVTG,211.0,T,210.6,M,0.0,N,0.0,K,A*24

6:02:01:413 Nachm. 03/26/17 - $GPRMC,160158.0,A,5208.340695,N,01138.679721,E,0.0,211.0,260317,0.4,E,A*0C

6:02:01:413 Nachm. 03/26/17 - $GPGSA,A,2,14,25,31,,,,,,,,,,2.9,2.7,1.0*3C

6:02:01:413 Nachm. 03/26/17 - $GNGSA,A,2,14,25,31,,,,,,,,,,2.9,2.7,1.0*22

6:02:01:414 Nachm. 03/26/17 - $GNGSA,A,2,65,73,,,,,,,,,,,2.9,2.7,1.0*25

6:02:02:386 Nachm. 03/26/17 - $GPGSV,3,1,11,14,31,286,16,25,70,286,24,31,23,307,29,02,36,097,*78

6:02:02:388 Nachm. 03/26/17 - $GPGSV,3,2,11,03,01,347,,06,24,049,,12,58,077,,19,02,043,*74

6:02:02:389 Nachm. 03/26/17 - $GPGSV,3,3,11,24,27,150,,29,34,209,,32,29,257,*43

6:02:02:389 Nachm. 03/26/17 - $GLGSV,3,1,10,74,08,306,19,82,63,066,14,73,66,320,22,65,09,000,31*67

6:02:02:395 Nachm. 03/26/17 - $GLGSV,3,2,10,72,16,313,21,80,57,112,,79,00,122,,83,45,178,*66

6:02:02:407 Nachm. 03/26/17 - $GLGSV,3,3,10,81,17,030,,71,04,267,*69

6:02:02:407 Nachm. 03/26/17 - $GPGGA,160159.0,5208.340700,N,01138.679752,E,1,03,2.7,52.5,M,45.0,M,,*6F

6:02:02:408 Nachm. 03/26/17 - $GNGNS,160159.0,5208.340700,N,01138.679752,E,AA,05,2.7,52.5,45.0,,*5D

6:02:02:408 Nachm. 03/26/17 - $GPVTG,211.0,T,210.6,M,0.0,N,0.0,K,A*24

6:02:02:408 Nachm. 03/26/17 - $GPRMC,160159.0,A,5208.340700,N,01138.679752,E,0.0,211.0,260317,0.4,E,A*04

6:02:02:408 Nachm. 03/26/17 - $GPGSA,A,2,14,25,31,,,,,,,,,,2.9,2.7,1.0*3C

6:02:02:408 Nachm. 03/26/17 - $GNGSA,A,2,14,25,31,,,,,,,,,,2.9,2.7,1.0*22

6:02:02:408 Nachm. 03/26/17 - $GNGSA,A,2,65,73,,,,,,,,,,,2.9,2.7,1.0*25

6:02:03:385 Nachm. 03/26/17 - $GPGSV,3,1,11,14,31,286,16,25,70,286,24,31,23,307,29,02,36,097,*78

6:02:03:386 Nachm. 03/26/17 - $GPGSV,3,2,11,03,01,347,,06,24,049,,12,58,077,,19,02,043,*74

6:02:03:388 Nachm. 03/26/17 - $GPGSV,3,3,11,24,27,150,,29,34,209,,32,29,257,*43

6:02:03:388 Nachm. 03/26/17 - $GLGSV,3,1,10,74,08,306,19,82,63,066,14,73,66,320,19,65,09,000,31*6F

6:02:03:388 Nachm. 03/26/17 - $GLGSV,3,2,10,72,16,313,20,80,57,112,,79,00,122,,83,45,178,*67

6:02:03:389 Nachm. 03/26/17 - $GLGSV,3,3,10,81,17,030,,71,04,267,*69

6:02:03:392 Nachm. 03/26/17 - $GPGGA,160200.0,5208.340686,N,01138.679712,E,1,03,2.7,52.5,M,45.0,M,,*6B

6:02:03:398 Nachm. 03/26/17 - $GNGNS,160200.0,5208.340686,N,01138.679712,E,AA,05,2.7,52.5,45.0,,*59

6:02:03:398 Nachm. 03/26/17 - $GPVTG,211.0,T,210.6,M,0.0,N,0.0,K,A*24

6:02:03:399 Nachm. 03/26/17 - $GPRMC,160200.0,A,5208.340686,N,01138.679712,E,0.0,211.0,260317,0.4,E,A*00

6:02:03:401 Nachm. 03/26/17 - $GPGSA,A,2,14,25,31,,,,,,,,,,2.9,2.7,1.0*3C

6:02:03:402 Nachm. 03/26/17 - $GNGSA,A,2,14,25,31,,,,,,,,,,2.9,2.7,1.0*22

6:02:03:403 Nachm. 03/26/17 - $GNGSA,A,2,65,73,,,,,,,,,,,2.9,2.7,1.0*25

6:02:04:385 Nachm. 03/26/17 - $GPGSV,3,1,11,14,31,286,15,25,70,286,25,29,34,209,15,31,23,307,27*7E

6:02:04:396 Nachm. 03/26/17 - $GPGSV,3,2,11,02,36,097,,03,01,347,,06,24,049,,12,58,077,*70

6:02:04:398 Nachm. 03/26/17 - $GPGSV,3,3,11,19,02,043,,24,27,150,,32,29,257,*49

6:02:04:399 Nachm. 03/26/17 - $GLGSV,3,1,10,74,08,306,19,82,63,066,14,73,66,320,22,65,09,000,31*67

6:02:04:400 Nachm. 03/26/17 - $GLGSV,3,2,10,72,16,313,17,80,57,112,,79,00,122,,83,45,178,*63

6:02:04:401 Nachm. 03/26/17 - $GLGSV,3,3,10,81,17,030,,71,04,267,*69

6:02:04:413 Nachm. 03/26/17 - $GPGGA,160201.0,5208.340709,N,01138.679702,E,1,04,2.0,52.5,M,45.0,M,,*6D

6:02:04:413 Nachm. 03/26/17 - $GNGNS,160201.0,5208.340709,N,01138.679702,E,AA,06,2.0,52.5,45.0,,*5B

6:02:04:413 Nachm. 03/26/17 - $GPVTG,211.0,T,210.6,M,0.0,N,0.0,K,A*24

6:02:04:413 Nachm. 03/26/17 - $GPRMC,160201.0,A,5208.340709,N,01138.679702,E,0.0,211.0,260317,0.4,E,A*06

6:02:04:414 Nachm. 03/26/17 - $GPGSA,A,2,14,25,29,31,,,,,,,,,2.2,2.0,0.9*33

6:02:04:414 Nachm. 03/26/17 - $GNGSA,A,2,14,25,29,31,,,,,,,,,2.2,2.0,0.9*2D

6:02:04:414 Nachm. 03/26/17 - $GNGSA,A,2,65,73,,,,,,,,,,,2.2,2.0,0.9*21


