5:46:05:385 Nachm. 03/26/17 - $GPGSV,3,1,11,02,32,105,23,06,26,057,13,12,66,070,28,24,35,149,30*7E

5:46:05:386 Nachm. 03/26/17 - $GPGSV,3,2,11,25,62,278,18,29,26,208,19,03,02,354,,14,31,296,*7B

5:46:05:387 Nachm. 03/26/17 - $GPGSV,3,3,11,19,09,043,,31,16,307,,32,33,267,*4C

5:46:05:392 Nachm. 03/26/17 - $GLGSV,3,1,10,82,66,087,22,73,57,314,13,80,64,101,23,79,07,118,12*68

5:46:05:396 Nachm. 03/26/17 - $GLGSV,3,2,10,65,06,007,22,83,35,178,27,74,02,303,,81,25,032,*6F

5:46:05:397 Nachm. 03/26/17 - $GLGSV,3,3,10,71,10,271,,72,18,320,*6A

5:46:05:398 Nachm. 03/26/17 - $GPGGA,154602.0,5208.444029,N,01138.448354,E,1,05,1.4,67.6,M,45.0,M,,*6F

5:46:05:400 Nachm. 03/26/17 - $GNGNS,154602.0,5208.444029,N,01138.448354,E,AA,07,1.4,67.6,45.0,,*59

5:46:05:400 Nachm. 03/26/17 - $GPVTG,11.3,T,10.8,M,0.0,N,0.0,K,A*29

5:46:05:400 Nachm. 03/26/17 - $GPRMC,154602.0,A,5208.444029,N,01138.448354,E,0.0,11.3,260317,0.4,E,A*36

5:46:05:401 Nachm. 03/26/17 - $GPGSA,A,2,02,12,24,25,29,,,,,,,,1.7,1.4,1.0*3A

5:46:05:401 Nachm. 03/26/17 - $GNGSA,A,2,02,12,24,25,29,,,,,,,,1.7,1.4,1.0*24

5:46:05:401 Nachm. 03/26/17 - $GNGSA,A,2,73,82,,,,,,,,,,,1.7,1.4,1.0*21

5:46:06:384 Nachm. 03/26/17 - $GPGSV,3,1,11,02,32,105,23,06,26,057,13,12,66,070,24,24,35,149,23*70

5:46:06:392 Nachm. 03/26/17 - $GPGSV,3,2,11,25,62,278,21,29,26,208,16,03,02,354,,14,31,296,*7E

5:46:06:392 Nachm. 03/26/17 - $GPGSV,3,3,11,19,09,043,,31,16,307,,32,33,267,*4C

5:46:06:395 Nachm. 03/26/17 - $GLGSV,3,1,10,82,66,087,24,73,57,314,13,80,64,101,19,79,07,118,12*67

5:46:06:397 Nachm. 03/26/17 - $GLGSV,3,2,10,65,06,007,22,83,35,178,22,74,02,303,,81,25,032,*6A

5:46:06:398 Nachm. 03/26/17 - $GLGSV,3,3,10,71,10,271,,72,18,320,*6A

5:46:06:399 Nachm. 03/26/17 - $GPGGA,154603.0,5208.444043,N,01138.448600,E,1,06,1.2,67.6,M,45.0,M,,*63

5:46:06:401 Nachm. 03/26/17 - $GNGNS,154603.0,5208.444043,N,01138.448600,E,AA,08,1.2,67.6,45.0,,*59

5:46:06:411 Nachm. 03/26/17 - $GPVTG,11.3,T,10.8,M,0.9,N,1.7,K,A*26

5:46:06:412 Nachm. 03/26/17 - $GPRMC,154603.0,A,5208.444043,N,01138.448600,E,0.9,11.3,260317,0.4,E,A*36

5:46:06:413 Nachm. 03/26/17 - $GPGSA,A,2,02,06,12,24,25,29,,,,,,,1.5,1.2,0.9*30

5:46:06:413 Nachm. 03/26/17 - $GNGSA,A,2,02,06,12,24,25,29,,,,,,,1.5,1.2,0.9*2E

5:46:06:414 Nachm. 03/26/17 - $GNGSA,A,2,73,82,,,,,,,,,,,1.5,1.2,0.9*2D

5:46:07:386 Nachm. 03/26/17 - $GPGSV,3,1,11,02,32,104,28,06,26,056,13,12,65,071,25,24,34,149,26*7C

5:46:07:387 Nachm. 03/26/17 - $GPGSV,3,2,11,25,63,278,24,29,27,208,16,03,02,354,,14,31,295,*78

5:46:07:390 Nachm. 03/26/17 - $GPGSV,3,3,11,19,08,043,,31,17,307,,32,33,265,*4E

5:46:07:396 Nachm. 03/26/17 - $GLGSV,3,1,10,82,66,087,26,73,57,314,13,80,64,101,18,79,07,118,12*64

5:46:07:402 Nachm. 03/26/17 - $GLGSV,3,2,10,65,06,007,25,83,35,178,22,74,02,303,,81,25,032,*6D

5:46:07:403 Nachm. 03/26/17 - $GLGSV,3,3,10,71,10,271,,72,18,320,*6A

5:46:07:404 Nachm. 03/26/17 - $GPGGA,154604.0,5208.444433,N,01138.447864,E,1,06,1.2,68.2,M,45.0,M,,*6F

5:46:07:404 Nachm. 03/26/17 - $GNGNS,154604.0,5208.444433,N,01138.447864,E,AA,08,1.2,68.2,45.0,,*55

5:46:07:404 Nachm. 03/26/17 - $GPVTG,11.3,T,10.8,M,0.5,N,0.9,K,A*25

5:46:07:405 Nachm. 03/26/17 - $GPRMC,154604.0,A,5208.444433,N,01138.447864,E,0.5,11.3,260317,0.4,E,A*3D

5:46:07:406 Nachm. 03/26/17 - $GPGSA,A,2,02,06,12,24,25,29,,,,,,,1.5,1.2,0.9*30

5:46:07:406 Nachm. 03/26/17 - $GNGSA,A,2,02,06,12,24,25,29,,,,,,,1.5,1.2,0.9*2E

5:46:07:407 Nachm. 03/26/17 - $GNGSA,A,2,73,82,,,,,,,,,,,1.5,1.2,0.9*2D

5:46:08:384 Nachm. 03/26/17 - $GPGSV,3,1,11,02,32,104,28,06,26,056,13,12,65,071,20,24,34,149,24*7B

5:46:08:386 Nachm. 03/26/17 - $GPGSV,3,2,11,25,63,278,24,29,27,208,16,03,02,354,,14,31,295,*78

5:46:08:386 Nachm. 03/26/17 - $GPGSV,3,3,11,19,08,043,,31,17,307,,32,33,265,*4E

5:46:08:387 Nachm. 03/26/17 - $GLGSV,3,1,10,82,66,087,26,73,57,314,13,80,64,101,18,79,07,118,12*64

5:46:08:387 Nachm. 03/26/17 - $GLGSV,3,2,10,65,06,007,23,83,35,178,23,74,02,303,,81,25,032,*6A

5:46:08:388 Nachm. 03/26/17 - $GLGSV,3,3,10,71,10,271,,72,18,320,*6A

5:46:08:394 Nachm. 03/26/17 - $GPGGA,154605.0,5208.445041,N,01138.449502,E,1,06,1.2,70.9,M,45.0,M,,*6F

5:46:08:402 Nachm. 03/26/17 - $GNGNS,154605.0,5208.445041,N,01138.449502,E,AA,08,1.2,70.9,45.0,,*55

5:46:08:402 Nachm. 03/26/17 - $GPVTG,11.3,T,10.8,M,0.6,N,1.1,K,A*2F

5:46:08:403 Nachm. 03/26/17 - $GPRMC,154605.0,A,5208.445041,N,01138.449502,E,0.6,11.3,260317,0.4,E,A*3C

5:46:08:404 Nachm. 03/26/17 - $GPGSA,A,2,02,06,12,24,25,29,,,,,,,1.5,1.2,0.9*30

5:46:08:404 Nachm. 03/26/17 - $GNGSA,A,2,02,06,12,24,25,29,,,,,,,1.5,1.2,0.9*2E

5:46:08:405 Nachm. 03/26/17 - $GNGSA,A,2,73,82,,,,,,,,,,,1.5,1.2,0.9*2D

5:46:09:385 Nachm. 03/26/17 - $GPGSV,3,1,11,02,32,104,28,06,26,056,13,12,65,071,24,24,34,149,25*7E

5:46:09:386 Nachm. 03/26/17 - $GPGSV,3,2,11,25,63,278,25,29,27,208,16,03,02,354,,14,31,295,*79

5:46:09:387 Nachm. 03/26/17 - $GPGSV,3,3,11,19,08,043,,31,17,307,,32,33,265,*4E

5:46:09:392 Nachm. 03/26/17 - $GLGSV,3,1,10,82,66,087,27,73,57,314,13,80,64,101,19,79,07,118,12*64

5:46:09:392 Nachm. 03/26/17 - $GLGSV,3,2,10,65,06,007,24,83,35,178,21,74,02,303,,81,25,032,*6F

5:46:09:393 Nachm. 03/26/17 - $GLGSV,3,3,10,71,10,271,,72,18,320,*6A

5:46:09:394 Nachm. 03/26/17 - $GPGGA,154606.0,5208.447261,N,01138.447064,E,1,06,1.2,69.4,M,45.0,M,,*60

5:46:09:407 Nachm. 03/26/17 - $GNGNS,154606.0,5208.447261,N,01138.447064,E,AA,08,1.2,69.4,45.0,,*5A

5:46:09:407 Nachm. 03/26/17 - $GPVTG,11.3,T,10.8,M,0.8,N,1.6,K,A*26

5:46:09:407 Nachm. 03/26/17 - $GPRMC,154606.0,A,5208.447261,N,01138.447064,E,0.8,11.3,260317,0.4,E,A*38

5:46:09:408 Nachm. 03/26/17 - $GPGSA,A,2,02,06,12,24,25,29,,,,,,,1.5,1.2,0.9*30

5:46:09:408 Nachm. 03/26/17 - $GNGSA,A,2,02,06,12,24,25,29,,,,,,,1.5,1.2,0.9*2E

5:46:09:408 Nachm. 03/26/17 - $GNGSA,A,2,73,82,,,,,,,,,,,1.5,1.2,0.9*2D

5:46:10:386 Nachm. 03/26/17 - $GPGSV,3,1,11,02,32,104,29,06,26,056,13,12,65,071,23,24,34,149,25*78

5:46:10:387 Nachm. 03/26/17 - $GPGSV,3,2,11,25,63,278,24,29,27,208,16,03,02,354,,14,31,295,*78

5:46:10:388 Nachm. 03/26/17 - $GPGSV,3,3,11,19,08,043,,31,17,307,,32,33,265,*4E

5:46:10:390 Nachm. 03/26/17 - $GLGSV,3,1,10,82,66,087,26,73,57,314,13,80,64,101,21,65,06,007,24*68

5:46:10:391 Nachm. 03/26/17 - $GLGSV,3,2,10,83,35,178,23,74,02,303,,,07,118,,81,25,032,*66

5:46:10:391 Nachm. 03/26/17 - $GLGSV,3,3,10,71,10,271,,72,18,320,*6A

5:46:10:392 Nachm. 03/26/17 - $GPGGA,154607.0,5208.448432,N,01138.447910,E,1,06,1.2,70.0,M,45.0,M,,*68

5:46:10:392 Nachm. 03/26/17 - $GNGNS,154607.0,5208.448432,N,01138.447910,E,AA,08,1.2,70.0,45.0,,*52

5:46:10:394 Nachm. 03/26/17 - $GPVTG,11.3,T,10.8,M,1.1,N,2.1,K,A*2A

5:46:10:395 Nachm. 03/26/17 - $GPRMC,154607.0,A,5208.448432,N,01138.447910,E,1.1,11.3,260317,0.4,E,A*34

5:46:10:395 Nachm. 03/26/17 - $GPGSA,A,2,02,06,12,24,25,29,,,,,,,1.5,1.2,0.9*30

5:46:10:395 Nachm. 03/26/17 - $GNGSA,A,2,02,06,12,24,25,29,,,,,,,1.5,1.2,0.9*2E

5:46:10:395 Nachm. 03/26/17 - $GNGSA,A,2,73,82,,,,,,,,,,,1.5,1.2,0.9*2D

5:46:11:385 Nachm. 03/26/17 - $GPGSV,3,1,11,02,32,104,28,06,26,056,13,12,65,071,24,24,34,149,27*7C

5:46:11:386 Nachm. 03/26/17 - $GPGSV,3,2,11,25,63,278,25,29,27,208,16,03,02,354,,14,31,295,*79

5:46:11:387 Nachm. 03/26/17 - $GPGSV,3,3,11,19,08,043,,31,17,307,,32,33,265,*4E

5:46:11:401 Nachm. 03/26/17 - $GLGSV,3,1,10,82,66,087,26,73,57,314,13,80,64,101,21,65,06,007,22*6E

5:46:11:405 Nachm. 03/26/17 - $GLGSV,3,2,10,83,35,178,24,74,02,303,,79,07,118,,81,25,032,*6F

5:46:11:406 Nachm. 03/26/17 - $GLGSV,3,3,10,71,10,271,,72,18,320,*6A

5:46:11:406 Nachm. 03/26/17 - $GPGGA,154608.0,5208.447414,N,01138.447443,E,1,06,1.2,72.0,M,45.0,M,,*65

5:46:11:407 Nachm. 03/26/17 - $GNGNS,154608.0,5208.447414,N,01138.447443,E,AA,08,1.2,72.0,45.0,,*5F

5:46:11:407 Nachm. 03/26/17 - $GPVTG,11.3,T,10.8,M,0.4,N,0.8,K,A*25

5:46:11:408 Nachm. 03/26/17 - $GPRMC,154608.0,A,5208.447414,N,01138.447443,E,0.4,11.3,260317,0.4,E,A*3F

5:46:11:408 Nachm. 03/26/17 - $GPGSA,A,2,02,06,12,24,25,29,,,,,,,1.5,1.2,0.9*30

5:46:11:409 Nachm. 03/26/17 - $GNGSA,A,2,02,06,12,24,25,29,,,,,,,1.5,1.2,0.9*2E

5:46:11:409 Nachm. 03/26/17 - $GNGSA,A,2,73,82,,,,,,,,,,,1.5,1.2,0.9*2D

5:46:12:386 Nachm. 03/26/17 - $GPGSV,3,1,11,02,32,104,28,06,26,056,13,12,65,071,24,24,34,149,27*7C

5:46:12:388 Nachm. 03/26/17 - $GPGSV,3,2,11,25,63,278,24,29,27,208,16,03,02,354,,14,31,295,*78

5:46:12:398 Nachm. 03/26/17 - $GPGSV,3,3,11,19,08,043,,31,17,307,,32,33,265,*4E

5:46:12:401 Nachm. 03/26/17 - $GLGSV,3,1,10,82,66,087,27,73,57,314,13,80,64,101,21,65,06,007,22*6F

5:46:12:403 Nachm. 03/26/17 - $GLGSV,3,2,10,83,35,178,25,74,02,303,,79,07,118,,81,25,032,*6E

5:46:12:404 Nachm. 03/26/17 - $GLGSV,3,3,10,71,10,271,,72,18,320,*6A

5:46:12:405 Nachm. 03/26/17 - $GPGGA,154609.0,5208.448180,N,01138.448553,E,1,06,1.3,71.9,M,45.0,M,,*67

5:46:12:405 Nachm. 03/26/17 - $GNGNS,154609.0,5208.448180,N,01138.448553,E,AA,07,1.3,71.9,45.0,,*52

5:46:12:406 Nachm. 03/26/17 - $GPVTG,11.3,T,10.8,M,0.0,N,0.0,K,A*29

5:46:12:406 Nachm. 03/26/17 - $GPRMC,154609.0,A,5208.448180,N,01138.448553,E,0.0,11.3,260317,0.4,E,A*32

5:46:12:406 Nachm. 03/26/17 - $GPGSA,A,2,02,06,12,24,25,29,,,,,,,1.6,1.3,0.9*32

5:46:12:407 Nachm. 03/26/17 - $GNGSA,A,2,02,06,12,24,25,29,,,,,,,1.6,1.3,0.9*2C

5:46:12:407 Nachm. 03/26/17 - $GNGSA,A,2,82,,,,,,,,,,,,1.6,1.3,0.9*2B

5:46:13:385 Nachm. 03/26/17 - $GPGSV,3,1,11,02,32,104,29,06,26,056,13,12,65,071,24,24,34,149,27*7D

5:46:13:390 Nachm. 03/26/17 - $GPGSV,3,2,11,25,63,278,24,29,27,208,16,03,02,354,,14,31,295,*78

5:46:13:391 Nachm. 03/26/17 - $GPGSV,3,3,11,19,08,043,,31,17,307,,32,33,265,*4E

5:46:13:391 Nachm. 03/26/17 - $GLGSV,3,1,10,82,66,087,27,73,57,314,13,80,64,101,20,65,06,007,24*68

5:46:13:392 Nachm. 03/26/17 - $GLGSV,3,2,10,83,35,178,22,74,02,303,,79,07,118,,81,25,032,*69

5:46:13:393 Nachm. 03/26/17 - $GLGSV,3,3,10,71,10,271,,72,18,320,*6A

5:46:13:393 Nachm. 03/26/17 - $GPGGA,154610.0,5208.449750,N,01138.447485,E,1,04,2.0,73.2,M,45.0,M,,*6B

5:46:13:399 Nachm. 03/26/17 - $GNGNS,154610.0,5208.449750,N,01138.447485,E,AA,05,2.0,73.2,45.0,,*5E

5:46:13:405 Nachm. 03/26/17 - $GPVTG,11.3,T,10.8,M,0.9,N,1.6,K,A*27

5:46:13:405 Nachm. 03/26/17 - $GPRMC,154610.0,A,5208.449750,N,01138.447485,E,0.9,11.3,260317,0.4,E,A*3C

5:46:13:405 Nachm. 03/26/17 - $GPGSA,A,2,02,12,24,25,,,,,,,,,2.3,2.0,1.0*31

5:46:13:405 Nachm. 03/26/17 - $GNGSA,A,2,02,12,24,25,,,,,,,,,2.3,2.0,1.0*2F

5:46:13:406 Nachm. 03/26/17 - $GNGSA,A,2,82,,,,,,,,,,,,2.3,2.0,1.0*25

5:46:14:386 Nachm. 03/26/17 - $GPGSV,3,1,11,02,32,104,29,06,26,056,13,12,65,071,24,24,34,149,26*7C

5:46:14:387 Nachm. 03/26/17 - $GPGSV,3,2,11,25,63,278,24,29,27,208,16,03,02,354,,14,31,295,*78

5:46:14:388 Nachm. 03/26/17 - $GPGSV,3,3,11,19,08,043,,31,17,307,,32,33,265,*4E

5:46:14:393 Nachm. 03/26/17 - $GLGSV,3,1,10,82,66,087,29,73,57,314,13,80,64,101,21,65,06,007,23*60

5:46:14:394 Nachm. 03/26/17 - $GLGSV,3,2,10,83,35,178,22,74,02,303,,79,07,118,,81,25,032,*69

5:46:14:395 Nachm. 03/26/17 - $GLGSV,3,3,10,71,10,271,,72,18,320,*6A

5:46:14:397 Nachm. 03/26/17 - $GPGGA,154611.0,5208.449959,N,01138.445791,E,1,04,2.0,72.8,M,45.0,M,,*62

5:46:14:397 Nachm. 03/26/17 - $GNGNS,154611.0,5208.449959,N,01138.445791,E,AA,05,2.0,72.8,45.0,,*57

5:46:14:402 Nachm. 03/26/17 - $GPVTG,11.3,T,10.8,M,0.9,N,1.7,K,A*26

5:46:14:403 Nachm. 03/26/17 - $GPRMC,154611.0,A,5208.449959,N,01138.445791,E,0.9,11.3,260317,0.4,E,A*3E

5:46:14:404 Nachm. 03/26/17 - $GPGSA,A,2,02,12,24,25,,,,,,,,,2.3,2.0,1.0*31

5:46:14:404 Nachm. 03/26/17 - $GNGSA,A,2,02,12,24,25,,,,,,,,,2.3,2.0,1.0*2F

5:46:14:405 Nachm. 03/26/17 - $GNGSA,A,2,82,,,,,,,,,,,,2.3,2.0,1.0*25

5:46:15:386 Nachm. 03/26/17 - $GPGSV,3,1,11,02,32,104,28,06,26,056,12,12,65,071,21,24,34,149,23*7C

5:46:15:387 Nachm. 03/26/17 - $GPGSV,3,2,11,25,63,278,23,29,27,208,16,03,02,354,,14,31,295,*7F

5:46:15:387 Nachm. 03/26/17 - $GPGSV,3,3,11,19,08,043,,31,17,307,,32,33,265,*4E

5:46:15:394 Nachm. 03/26/17 - $GLGSV,3,1,10,82,66,087,27,73,57,314,13,80,64,101,18,65,06,007,23*64

5:46:15:412 Nachm. 03/26/17 - $GLGSV,3,2,10,83,35,178,22,74,02,303,,79,07,118,,81,25,032,*69

5:46:15:413 Nachm. 03/26/17 - $GLGSV,3,3,10,71,10,271,,72,18,320,*6A

5:46:15:413 Nachm. 03/26/17 - $GPGGA,154612.0,5208.450984,N,01138.445032,E,1,05,1.6,72.1,M,45.0,M,,*6A

5:46:15:414 Nachm. 03/26/17 - $GNGNS,154612.0,5208.450984,N,01138.445032,E,AA,06,1.6,72.1,45.0,,*5D

5:46:15:414 Nachm. 03/26/17 - $GPVTG,11.3,T,10.8,M,1.0,N,1.9,K,A*20

5:46:15:415 Nachm. 03/26/17 - $GPRMC,154612.0,A,5208.450984,N,01138.445032,E,1.0,11.3,260317,0.4,E,A*33

5:46:15:415 Nachm. 03/26/17 - $GPGSA,A,2,02,06,12,24,25,,,,,,,,1.8,1.6,1.0*3A

5:46:15:416 Nachm. 03/26/17 - $GNGSA,A,2,02,06,12,24,25,,,,,,,,1.8,1.6,1.0*24

5:46:15:416 Nachm. 03/26/17 - $GNGSA,A,2,82,,,,,,,,,,,,1.8,1.6,1.0*28

5:46:16:384 Nachm. 03/26/17 - $GPGSV,3,1,11,02,32,104,29,06,26,056,12,12,65,071,20,24,34,149,24*7B

5:46:16:385 Nachm. 03/26/17 - $GPGSV,3,2,11,25,63,278,22,29,27,208,16,03,02,354,,14,31,295,*7E

5:46:16:386 Nachm. 03/26/17 - $GPGSV,3,3,11,19,08,043,,31,17,307,,32,33,265,*4E

5:46:16:396 Nachm. 03/26/17 - $GLGSV,3,1,10,82,66,087,28,73,57,314,13,80,64,101,20,65,06,007,23*60

5:46:16:397 Nachm. 03/26/17 - $GLGSV,3,2,10,83,35,178,21,74,02,303,,79,07,118,,81,25,032,*6A

5:46:16:398 Nachm. 03/26/17 - $GLGSV,3,3,10,71,10,271,,72,18,320,*6A

5:46:16:398 Nachm. 03/26/17 - $GPGGA,154613.0,5208.451657,N,01138.445900,E,1,05,1.6,71.1,M,45.0,M,,*60

5:46:16:404 Nachm. 03/26/17 - $GNGNS,154613.0,5208.451657,N,01138.445900,E,AA,06,1.6,71.1,45.0,,*57

5:46:16:405 Nachm. 03/26/17 - $GPVTG,11.3,T,10.8,M,0.9,N,1.7,K,A*26

5:46:16:405 Nachm. 03/26/17 - $GPRMC,154613.0,A,5208.451657,N,01138.445900,E,0.9,11.3,260317,0.4,E,A*32

5:46:16:405 Nachm. 03/26/17 - $GPGSA,A,2,02,06,12,24,25,,,,,,,,1.8,1.6,1.0*3A

5:46:16:406 Nachm. 03/26/17 - $GNGSA,A,2,02,06,12,24,25,,,,,,,,1.8,1.6,1.0*24

5:46:16:406 Nachm. 03/26/17 - $GNGSA,A,2,82,,,,,,,,,,,,1.8,1.6,1.0*28

5:46:17:385 Nachm. 03/26/17 - $GPGSV,3,1,11,02,32,104,29,06,26,056,12,12,65,071,25,24,34,149,25*7F

5:46:17:387 Nachm. 03/26/17 - $GPGSV,3,2,11,25,63,278,20,29,27,208,16,03,02,354,,14,31,295,*7C

5:46:17:391 Nachm. 03/26/17 - $GPGSV,3,3,11,19,08,043,,31,17,307,,32,33,265,*4E

5:46:17:393 Nachm. 03/26/17 - $GLGSV,3,1,10,82,66,087,29,73,57,314,13,80,64,101,21,65,06,007,23*60

5:46:17:395 Nachm. 03/26/17 - $GLGSV,3,2,10,83,35,178,23,74,02,303,,79,07,118,,81,25,032,*68

5:46:17:395 Nachm. 03/26/17 - $GLGSV,3,3,10,71,10,271,,72,18,320,*6A

5:46:17:395 Nachm. 03/26/17 - $GPGGA,154614.0,5208.454213,N,01138.444390,E,1,05,1.4,70.3,M,45.0,M,,*65

5:46:17:395 Nachm. 03/26/17 - $GNGNS,154614.0,5208.454213,N,01138.444390,E,AA,07,1.4,70.3,45.0,,*53

5:46:17:396 Nachm. 03/26/17 - $GPVTG,11.3,T,10.8,M,1.8,N,3.3,K,A*20

5:46:17:396 Nachm. 03/26/17 - $GPRMC,154614.0,A,5208.454213,N,01138.444390,E,1.8,11.3,260317,0.4,E,A*36

5:46:17:396 Nachm. 03/26/17 - $GPGSA,A,2,02,06,12,24,25,,,,,,,,1.7,1.4,0.9*3F

5:46:17:396 Nachm. 03/26/17 - $GNGSA,A,2,02,06,12,24,25,,,,,,,,1.7,1.4,0.9*21

5:46:17:396 Nachm. 03/26/17 - $GNGSA,A,2,73,82,,,,,,,,,,,1.7,1.4,0.9*29

5:46:18:386 Nachm. 03/26/17 - $GPGSV,3,1,11,02,32,104,30,06,26,056,15,12,65,071,25,24,34,149,26*73

5:46:18:387 Nachm. 03/26/17 - $GPGSV,3,2,11,25,63,278,21,29,27,208,11,03,02,354,,14,31,295,*7A

5:46:18:387 Nachm. 03/26/17 - $GPGSV,3,3,11,19,08,043,,31,17,307,,32,33,265,*4E

5:46:18:398 Nachm. 03/26/17 - $GLGSV,3,1,10,82,66,087,29,73,57,314,13,80,64,101,22,65,06,007,23*63

5:46:18:403 Nachm. 03/26/17 - $GLGSV,3,2,10,83,35,178,23,74,02,303,,79,07,118,,81,25,032,*68

5:46:18:404 Nachm. 03/26/17 - $GLGSV,3,3,10,71,10,271,,72,18,320,*6A

5:46:18:404 Nachm. 03/26/17 - $GPGGA,154615.0,5208.455985,N,01138.442503,E,1,06,1.2,71.6,M,45.0,M,,*6A

5:46:18:405 Nachm. 03/26/17 - $GNGNS,154615.0,5208.455985,N,01138.442503,E,AA,08,1.2,71.6,45.0,,*50

5:46:18:406 Nachm. 03/26/17 - $GPVTG,11.3,T,10.8,M,2.3,N,4.2,K,A*2E

5:46:18:407 Nachm. 03/26/17 - $GPRMC,154615.0,A,5208.455985,N,01138.442503,E,2.3,11.3,260317,0.4,E,A*30

5:46:18:407 Nachm. 03/26/17 - $GPGSA,A,2,02,06,12,24,25,29,,,,,,,1.5,1.2,0.9*30

5:46:18:408 Nachm. 03/26/17 - $GNGSA,A,2,02,06,12,24,25,29,,,,,,,1.5,1.2,0.9*2E

5:46:18:408 Nachm. 03/26/17 - $GNGSA,A,2,73,82,,,,,,,,,,,1.5,1.2,0.9*2D

5:46:19:384 Nachm. 03/26/17 - $GPGSV,3,1,11,02,32,104,28,06,26,056,19,12,65,071,20,24,34,149,27*72

5:46:19:385 Nachm. 03/26/17 - $GPGSV,3,2,11,25,63,278,19,29,27,208,11,03,02,354,,14,31,295,*71

5:46:19:386 Nachm. 03/26/17 - $GPGSV,3,3,11,19,08,043,,31,17,307,,32,33,265,*4E

5:46:19:387 Nachm. 03/26/17 - $GLGSV,3,1,10,82,66,087,26,73,57,314,13,80,64,101,20,65,06,007,20*6D

5:46:19:387 Nachm. 03/26/17 - $GLGSV,3,2,10,83,35,178,25,74,02,303,,79,07,118,,81,25,032,*6E

5:46:19:388 Nachm. 03/26/17 - $GLGSV,3,3,10,71,10,271,,72,18,320,*6A

5:46:19:389 Nachm. 03/26/17 - $GPGGA,154616.0,5208.456073,N,01138.440466,E,1,06,1.2,71.8,M,45.0,M,,*64

5:46:19:390 Nachm. 03/26/17 - $GNGNS,154616.0,5208.456073,N,01138.440466,E,AA,08,1.2,71.8,45.0,,*5E

5:46:19:398 Nachm. 03/26/17 - $GPVTG,11.3,T,10.8,M,1.8,N,3.3,K,A*20

5:46:19:401 Nachm. 03/26/17 - $GPRMC,154616.0,A,5208.456073,N,01138.440466,E,1.8,11.3,260317,0.4,E,A*38

5:46:19:403 Nachm. 03/26/17 - $GPGSA,A,2,02,06,12,24,25,29,,,,,,,1.5,1.2,0.9*30

5:46:19:404 Nachm. 03/26/17 - $GNGSA,A,2,02,06,12,24,25,29,,,,,,,1.5,1.2,0.9*2E

5:46:19:404 Nachm. 03/26/17 - $GNGSA,A,2,73,82,,,,,,,,,,,1.5,1.2,0.9*2D

5:46:20:385 Nachm. 03/26/17 - $GPGSV,3,1,11,02,32,104,27,06,26,056,19,12,65,071,25,24,34,149,30*7E

5:46:20:387 Nachm. 03/26/17 - $GPGSV,3,2,11,25,63,278,19,29,27,208,17,03,02,354,,14,31,295,*77

5:46:20:387 Nachm. 03/26/17 - $GPGSV,3,3,11,19,08,043,,31,17,307,,32,33,265,*4E

5:46:20:402 Nachm. 03/26/17 - $GLGSV,3,1,10,82,66,087,26,73,57,314,16,80,64,101,18,65,06,007,19*69

5:46:20:409 Nachm. 03/26/17 - $GLGSV,3,2,10,83,35,178,22,74,02,303,,79,07,118,,81,25,032,*69

5:46:20:420 Nachm. 03/26/17 - $GLGSV,3,3,10,71,10,271,,72,18,320,*6A

5:46:20:422 Nachm. 03/26/17 - $GPGGA,154617.0,5208.456587,N,01138.441587,E,1,06,1.2,70.7,M,45.0,M,,*6A

5:46:20:423 Nachm. 03/26/17 - $GNGNS,154617.0,5208.456587,N,01138.441587,E,AA,08,1.2,70.7,45.0,,*50

5:46:20:424 Nachm. 03/26/17 - $GPVTG,11.3,T,10.8,M,1.1,N,2.0,K,A*2B

5:46:20:425 Nachm. 03/26/17 - $GPRMC,154617.0,A,5208.456587,N,01138.441587,E,1.1,11.3,260317,0.4,E,A*31

5:46:20:426 Nachm. 03/26/17 - $GPGSA,A,2,02,06,12,24,25,29,,,,,,,1.5,1.2,0.9*30

5:46:20:426 Nachm. 03/26/17 - $GNGSA,A,2,02,06,12,24,25,29,,,,,,,1.5,1.2,0.9*2E

5:46:20:427 Nachm. 03/26/17 - $GNGSA,A,2,73,82,,,,,,,,,,,1.5,1.2,0.9*2D

5:46:21:385 Nachm. 03/26/17 - $GPGSV,3,1,11,02,32,104,26,06,26,056,19,12,65,071,27,24,34,149,31*7C

5:46:21:391 Nachm. 03/26/17 - $GPGSV,3,2,11,25,63,278,20,29,27,208,21,03,02,354,,14,31,295,*78

5:46:21:392 Nachm. 03/26/17 - $GPGSV,3,3,11,19,08,043,,31,17,307,,32,33,265,*4E

5:46:21:393 Nachm. 03/26/17 - $GLGSV,3,1,10,82,66,087,23,73,57,314,19,80,64,101,17,65,06,007,19*6C

5:46:21:394 Nachm. 03/26/17 - $GLGSV,3,2,10,83,35,178,21,74,02,303,,79,07,118,,81,25,032,*6A

5:46:21:406 Nachm. 03/26/17 - $GLGSV,3,3,10,71,10,271,,72,18,320,*6A

5:46:21:406 Nachm. 03/26/17 - $GPGGA,154618.0,5208.456668,N,01138.441856,E,1,06,1.2,71.8,M,45.0,M,,*68

5:46:21:408 Nachm. 03/26/17 - $GNGNS,154618.0,5208.456668,N,01138.441856,E,AA,08,1.2,71.8,45.0,,*52

5:46:21:408 Nachm. 03/26/17 - $GPVTG,11.3,T,10.8,M,0.5,N,1.0,K,A*2D

5:46:21:409 Nachm. 03/26/17 - $GPRMC,154618.0,A,5208.456668,N,01138.441856,E,0.5,11.3,260317,0.4,E,A*38

5:46:21:409 Nachm. 03/26/17 - $GPGSA,A,2,02,06,12,24,25,29,,,,,,,1.5,1.2,0.9*30

5:46:21:409 Nachm. 03/26/17 - $GNGSA,A,2,02,06,12,24,25,29,,,,,,,1.5,1.2,0.9*2E

5:46:21:409 Nachm. 03/26/17 - $GNGSA,A,2,73,82,,,,,,,,,,,1.5,1.2,0.9*2D

5:46:22:386 Nachm. 03/26/17 - $GPGSV,3,1,11,02,32,104,28,06,26,056,19,12,65,071,28,24,34,149,29*74

5:46:22:387 Nachm. 03/26/17 - $GPGSV,3,2,11,25,63,278,20,29,27,208,21,03,02,354,,14,31,295,*78

5:46:22:387 Nachm. 03/26/17 - $GPGSV,3,3,11,19,08,043,,31,17,307,,32,33,265,*4E

5:46:22:398 Nachm. 03/26/17 - $GLGSV,3,1,10,82,66,087,21,73,57,314,19,80,64,101,17,65,06,007,17*60

5:46:22:401 Nachm. 03/26/17 - $GLGSV,3,2,10,83,35,178,22,74,02,303,,79,07,118,,81,25,032,*69

5:46:22:402 Nachm. 03/26/17 - $GLGSV,3,3,10,71,10,271,,72,18,320,*6A

5:46:22:403 Nachm. 03/26/17 - $GPGGA,154619.0,5208.457848,N,01138.444192,E,1,06,1.2,76.8,M,45.0,M,,*67

5:46:22:404 Nachm. 03/26/17 - $GNGNS,154619.0,5208.457848,N,01138.444192,E,AA,08,1.2,76.8,45.0,,*5D

5:46:22:405 Nachm. 03/26/17 - $GPVTG,11.3,T,10.8,M,0.0,N,0.0,K,A*29

5:46:22:407 Nachm. 03/26/17 - $GPRMC,154619.0,A,5208.457848,N,01138.444192,E,0.0,11.3,260317,0.4,E,A*35

5:46:22:408 Nachm. 03/26/17 - $GPGSA,A,2,02,06,12,24,25,29,,,,,,,1.5,1.2,0.9*30

5:46:22:410 Nachm. 03/26/17 - $GNGSA,A,2,02,06,12,24,25,29,,,,,,,1.5,1.2,0.9*2E

5:46:22:410 Nachm. 03/26/17 - $GNGSA,A,2,73,82,,,,,,,,,,,1.5,1.2,0.9*2D

5:46:23:386 Nachm. 03/26/17 - $GPGSV,3,1,11,02,32,104,28,06,26,056,19,12,65,071,26,24,34,149,31*73

5:46:23:387 Nachm. 03/26/17 - $GPGSV,3,2,11,25,63,278,20,29,27,208,21,03,02,354,,14,31,295,*78

5:46:23:388 Nachm. 03/26/17 - $GPGSV,3,3,11,19,08,043,,31,17,307,,32,33,265,*4E

5:46:23:391 Nachm. 03/26/17 - $GLGSV,3,1,10,82,66,087,23,73,57,314,18,80,64,101,16,65,06,007,17*62

5:46:23:392 Nachm. 03/26/17 - $GLGSV,3,2,10,83,35,178,21,74,02,303,,79,07,118,,81,25,032,*6A

5:46:23:393 Nachm. 03/26/17 - $GLGSV,3,3,10,71,10,271,,72,18,320,*6A

5:46:23:394 Nachm. 03/26/17 - $GPGGA,154620.0,5208.458133,N,01138.444477,E,1,06,1.2,77.0,M,45.0,M,,*60

5:46:23:404 Nachm. 03/26/17 - $GNGNS,154620.0,5208.458133,N,01138.444477,E,AA,08,1.2,77.0,45.0,,*5A

5:46:23:405 Nachm. 03/26/17 - $GPVTG,11.3,T,10.8,M,0.0,N,0.0,K,A*29

5:46:23:405 Nachm. 03/26/17 - $GPRMC,154620.0,A,5208.458133,N,01138.444477,E,0.0,11.3,260317,0.4,E,A*3B

5:46:23:405 Nachm. 03/26/17 - $GPGSA,A,2,02,06,12,24,25,29,,,,,,,1.5,1.2,0.9*30

5:46:23:405 Nachm. 03/26/17 - $GNGSA,A,2,02,06,12,24,25,29,,,,,,,1.5,1.2,0.9*2E

5:46:23:406 Nachm. 03/26/17 - $GNGSA,A,2,73,82,,,,,,,,,,,1.5,1.2,0.9*2D

5:46:24:386 Nachm. 03/26/17 - $GPGSV,3,1,11,02,32,104,28,06,26,056,19,12,65,071,26,24,34,149,29*7A

5:46:24:388 Nachm. 03/26/17 - $GPGSV,3,2,11,25,63,278,20,29,27,208,19,03,02,354,,14,31,295,*73

5:46:24:388 Nachm. 03/26/17 - $GPGSV,3,3,11,19,08,043,,31,17,307,,32,33,265,*4E

5:46:24:409 Nachm. 03/26/17 - $GLGSV,3,1,10,82,66,087,23,73,57,314,19,80,64,101,18,65,06,007,18*62

5:46:24:410 Nachm. 03/26/17 - $GLGSV,3,2,10,83,35,178,20,74,02,303,,79,07,118,,81,25,032,*6B

5:46:24:410 Nachm. 03/26/17 - $GLGSV,3,3,10,71,10,271,,72,18,320,*6A

5:46:24:410 Nachm. 03/26/17 - $GPGGA,154621.0,5208.458389,N,01138.444184,E,1,06,1.2,77.9,M,45.0,M,,*62

5:46:24:410 Nachm. 03/26/17 - $GNGNS,154621.0,5208.458389,N,01138.444184,E,AA,08,1.2,77.9,45.0,,*58

5:46:24:411 Nachm. 03/26/17 - $GPVTG,11.3,T,10.8,M,0.0,N,0.0,K,A*29

5:46:24:411 Nachm. 03/26/17 - $GPRMC,154621.0,A,5208.458389,N,01138.444184,E,0.0,11.3,260317,0.4,E,A*30

5:46:24:411 Nachm. 03/26/17 - $GPGSA,A,2,02,06,12,24,25,29,,,,,,,1.5,1.2,0.9*30

5:46:24:411 Nachm. 03/26/17 - $GNGSA,A,2,02,06,12,24,25,29,,,,,,,1.5,1.2,0.9*2E

5:46:24:411 Nachm. 03/26/17 - $GNGSA,A,2,73,82,,,,,,,,,,,1.5,1.2,0.9*2D

5:46:25:385 Nachm. 03/26/17 - $GPGSV,3,1,11,02,32,104,28,06,26,056,19,12,65,071,27,24,34,149,29*7B

5:46:25:386 Nachm. 03/26/17 - $GPGSV,3,2,11,25,63,278,19,29,27,208,19,03,02,354,,14,31,295,*79

5:46:25:388 Nachm. 03/26/17 - $GPGSV,3,3,11,19,08,043,,31,17,307,,32,33,265,*4E

5:46:25:396 Nachm. 03/26/17 - $GLGSV,3,1,10,82,66,087,21,73,57,314,18,80,64,101,17,65,06,007,19*6F

5:46:25:401 Nachm. 03/26/17 - $GLGSV,3,2,10,83,35,178,22,74,02,303,,79,07,118,,81,25,032,*69

5:46:25:402 Nachm. 03/26/17 - $GLGSV,3,3,10,71,10,271,,72,18,320,*6A

5:46:25:408 Nachm. 03/26/17 - $GPGGA,154622.0,5208.458998,N,01138.444467,E,1,06,1.2,77.1,M,45.0,M,,*6B

5:46:25:410 Nachm. 03/26/17 - $GNGNS,154622.0,5208.458998,N,01138.444467,E,AA,08,1.2,77.1,45.0,,*51

5:46:25:410 Nachm. 03/26/17 - $GPVTG,11.3,T,10.8,M,0.0,N,0.0,K,A*29

5:46:25:411 Nachm. 03/26/17 - $GPRMC,154622.0,A,5208.458998,N,01138.444467,E,0.0,11.3,260317,0.4,E,A*31

5:46:25:412 Nachm. 03/26/17 - $GPGSA,A,2,02,06,12,24,25,29,,,,,,,1.5,1.2,0.9*30

5:46:25:412 Nachm. 03/26/17 - $GNGSA,A,2,02,06,12,24,25,29,,,,,,,1.5,1.2,0.9*2E

5:46:25:413 Nachm. 03/26/17 - $GNGSA,A,2,73,82,,,,,,,,,,,1.5,1.2,0.9*2D

5:46:26:386 Nachm. 03/26/17 - $GPGSV,3,1,11,02,32,104,29,06,26,056,19,12,65,071,27,24,34,149,29*7A

5:46:26:387 Nachm. 03/26/17 - $GPGSV,3,2,11,25,63,278,20,29,27,208,15,03,02,354,,14,31,295,*7F

5:46:26:392 Nachm. 03/26/17 - $GPGSV,3,3,11,19,08,043,,31,17,307,,32,33,265,*4E

5:46:26:401 Nachm. 03/26/17 - $GLGSV,3,1,10,82,66,087,22,73,57,314,19,80,64,101,17,65,06,007,20*67

5:46:26:404 Nachm. 03/26/17 - $GLGSV,3,2,10,83,35,178,22,74,02,303,,79,07,118,,81,25,032,*69

5:46:26:405 Nachm. 03/26/17 - $GLGSV,3,3,10,71,10,271,,72,18,320,*6A

5:46:26:414 Nachm. 03/26/17 - $GPGGA,154623.0,5208.458678,N,01138.444778,E,1,05,1.4,77.7,M,45.0,M,,*65

5:46:26:414 Nachm. 03/26/17 - $GNGNS,154623.0,5208.458678,N,01138.444778,E,AA,07,1.4,77.7,45.0,,*53

5:46:26:414 Nachm. 03/26/17 - $GPVTG,11.3,T,10.8,M,0.0,N,0.0,K,A*29

5:46:26:415 Nachm. 03/26/17 - $GPRMC,154623.0,A,5208.458678,N,01138.444778,E,0.0,11.3,260317,0.4,E,A*3C

5:46:26:416 Nachm. 03/26/17 - $GPGSA,A,2,02,12,24,25,29,,,,,,,,1.7,1.4,1.0*3A

5:46:26:416 Nachm. 03/26/17 - $GNGSA,A,2,02,12,24,25,29,,,,,,,,1.7,1.4,1.0*24

5:46:26:416 Nachm. 03/26/17 - $GNGSA,A,2,73,82,,,,,,,,,,,1.7,1.4,1.0*21

5:46:27:385 Nachm. 03/26/17 - $GPGSV,3,1,11,02,32,104,30,06,26,056,19,12,65,071,28,24,34,149,29*7D

5:46:27:386 Nachm. 03/26/17 - $GPGSV,3,2,11,25,63,278,19,29,27,208,15,03,02,354,,14,31,295,*75

5:46:27:390 Nachm. 03/26/17 - $GPGSV,3,3,11,19,08,043,,31,17,307,,32,33,265,*4E

5:46:27:395 Nachm. 03/26/17 - $GLGSV,3,1,10,82,66,087,24,73,57,314,19,80,64,101,16,65,06,007,20*60

5:46:27:396 Nachm. 03/26/17 - $GLGSV,3,2,10,83,35,178,22,74,02,303,,79,07,118,,81,25,032,*69

5:46:27:398 Nachm. 03/26/17 - $GLGSV,3,3,10,71,10,271,,72,18,320,*6A

5:46:27:400 Nachm. 03/26/17 - $GPGGA,154624.0,5208.459168,N,01138.443959,E,1,05,1.4,75.9,M,45.0,M,,*63

5:46:27:407 Nachm. 03/26/17 - $GNGNS,154624.0,5208.459168,N,01138.443959,E,AA,07,1.4,75.9,45.0,,*55

5:46:27:409 Nachm. 03/26/17 - $GPVTG,11.3,T,10.8,M,0.0,N,0.0,K,A*29

5:46:27:410 Nachm. 03/26/17 - $GPRMC,154624.0,A,5208.459168,N,01138.443959,E,0.0,11.3,260317,0.4,E,A*36

5:46:27:410 Nachm. 03/26/17 - $GPGSA,A,2,02,12,24,25,29,,,,,,,,1.7,1.4,1.0*3A

5:46:27:412 Nachm. 03/26/17 - $GNGSA,A,2,02,12,24,25,29,,,,,,,,1.7,1.4,1.0*24

5:46:27:412 Nachm. 03/26/17 - $GNGSA,A,2,73,82,,,,,,,,,,,1.7,1.4,1.0*21

5:46:28:386 Nachm. 03/26/17 - $GPGSV,3,1,11,02,32,104,29,06,26,056,19,12,65,071,28,24,34,149,28*74

5:46:28:387 Nachm. 03/26/17 - $GPGSV,3,2,11,25,63,278,20,29,27,208,15,03,02,354,,14,31,295,*7F

5:46:28:390 Nachm. 03/26/17 - $GPGSV,3,3,11,19,08,043,,31,17,307,,32,33,265,*4E

5:46:28:392 Nachm. 03/26/17 - $GLGSV,3,1,10,82,66,087,25,73,57,314,19,80,64,101,16,65,06,007,20*61

5:46:28:393 Nachm. 03/26/17 - $GLGSV,3,2,10,83,35,178,21,74,02,303,,79,07,118,,81,25,032,*6A

5:46:28:395 Nachm. 03/26/17 - $GLGSV,3,3,10,71,10,271,,72,18,320,*6A

5:46:28:396 Nachm. 03/26/17 - $GPGGA,154625.0,5208.459513,N,01138.444057,E,1,05,1.4,75.6,M,45.0,M,,*65

5:46:28:405 Nachm. 03/26/17 - $GNGNS,154625.0,5208.459513,N,01138.444057,E,AA,07,1.4,75.6,45.0,,*53

5:46:28:411 Nachm. 03/26/17 - $GPVTG,11.3,T,10.8,M,0.0,N,0.0,K,A*29

5:46:28:411 Nachm. 03/26/17 - $GPRMC,154625.0,A,5208.459513,N,01138.444057,E,0.0,11.3,260317,0.4,E,A*3F

5:46:28:412 Nachm. 03/26/17 - $GPGSA,A,2,02,12,24,25,29,,,,,,,,1.7,1.4,1.0*3A

5:46:28:412 Nachm. 03/26/17 - $GNGSA,A,2,02,12,24,25,29,,,,,,,,1.7,1.4,1.0*24

5:46:28:413 Nachm. 03/26/17 - $GNGSA,A,2,73,82,,,,,,,,,,,1.7,1.4,1.0*21

5:46:29:386 Nachm. 03/26/17 - $GPGSV,3,1,11,02,32,104,28,06,26,056,19,12,65,071,25,24,34,149,30*71

5:46:29:387 Nachm. 03/26/17 - $GPGSV,3,2,11,25,63,278,20,29,27,208,15,03,02,354,,14,31,295,*7F

5:46:29:388 Nachm. 03/26/17 - $GPGSV,3,3,11,19,08,043,,31,17,307,,32,33,265,*4E

5:46:29:394 Nachm. 03/26/17 - $GLGSV,3,1,10,82,66,087,16,73,57,314,20,80,64,101,16,65,06,007,18*60

5:46:29:395 Nachm. 03/26/17 - $GLGSV,3,2,10,83,35,178,19,74,02,303,,79,07,118,,81,25,032,*61

5:46:29:396 Nachm. 03/26/17 - $GLGSV,3,3,10,71,10,271,,72,18,320,*6A

5:46:29:398 Nachm. 03/26/17 - $GPGGA,154626.0,5208.459916,N,01138.443994,E,1,05,1.4,74.9,M,45.0,M,,*60

5:46:29:399 Nachm. 03/26/17 - $GNGNS,154626.0,5208.459916,N,01138.443994,E,AA,07,1.4,74.9,45.0,,*56

5:46:29:408 Nachm. 03/26/17 - $GPVTG,11.3,T,10.8,M,0.0,N,0.0,K,A*29

5:46:29:426 Nachm. 03/26/17 - $GPRMC,154626.0,A,5208.459916,N,01138.443994,E,0.0,11.3,260317,0.4,E,A*34

5:46:29:429 Nachm. 03/26/17 - $GPGSA,A,2,02,12,24,25,29,,,,,,,,1.7,1.4,1.0*3A

5:46:29:430 Nachm. 03/26/17 - $GNGSA,A,2,02,12,24,25,29,,,,,,,,1.7,1.4,1.0*24

5:46:29:431 Nachm. 03/26/17 - $GNGSA,A,2,73,82,,,,,,,,,,,1.7,1.4,1.0*21

5:46:30:386 Nachm. 03/26/17 - $GPGSV,3,1,11,02,32,104,28,06,26,056,19,12,65,071,23,24,34,149,29*7F

5:46:30:387 Nachm. 03/26/17 - $GPGSV,3,2,11,25,63,278,20,29,27,208,15,03,02,354,,14,31,295,*7F

5:46:30:387 Nachm. 03/26/17 - $GPGSV,3,3,11,19,08,043,,31,17,307,,32,33,265,*4E

5:46:30:400 Nachm. 03/26/17 - $GLGSV,3,1,10,82,66,087,16,73,57,314,20,80,64,101,16,65,06,007,18*60

5:46:30:401 Nachm. 03/26/17 - $GLGSV,3,2,10,83,35,178,20,74,02,303,,79,07,118,,81,25,032,*6B

5:46:30:403 Nachm. 03/26/17 - $GLGSV,3,3,10,71,10,271,,72,18,320,*6A

5:46:30:403 Nachm. 03/26/17 - $GPGGA,154627.0,5208.459709,N,01138.444224,E,1,05,1.4,75.2,M,45.0,M,,*6C

5:46:30:403 Nachm. 03/26/17 - $GNGNS,154627.0,5208.459709,N,01138.444224,E,AA,07,1.4,75.2,45.0,,*5A

5:46:30:403 Nachm. 03/26/17 - $GPVTG,11.3,T,10.8,M,0.0,N,0.0,K,A*29

5:46:30:404 Nachm. 03/26/17 - $GPRMC,154627.0,A,5208.459709,N,01138.444224,E,0.0,11.3,260317,0.4,E,A*32

5:46:30:404 Nachm. 03/26/17 - $GPGSA,A,2,02,12,24,25,29,,,,,,,,1.7,1.4,1.0*3A

5:46:30:404 Nachm. 03/26/17 - $GNGSA,A,2,02,12,24,25,29,,,,,,,,1.7,1.4,1.0*24

5:46:30:404 Nachm. 03/26/17 - $GNGSA,A,2,73,82,,,,,,,,,,,1.7,1.4,1.0*21

5:46:31:386 Nachm. 03/26/17 - $GPGSV,3,1,11,02,32,104,28,06,26,056,19,12,65,071,23,24,34,149,29*7F

5:46:31:386 Nachm. 03/26/17 - $GPGSV,3,2,11,25,63,278,21,29,27,208,14,03,02,354,,14,31,295,*7F

5:46:31:386 Nachm. 03/26/17 - $GPGSV,3,3,11,19,08,043,,31,17,307,,32,33,265,*4E

5:46:31:393 Nachm. 03/26/17 - $GLGSV,3,1,10,82,66,087,19,73,57,314,19,80,64,101,16,65,06,007,17*6A

5:46:31:394 Nachm. 03/26/17 - $GLGSV,3,2,10,83,35,178,19,74,02,303,,79,07,118,,81,25,032,*61

5:46:31:394 Nachm. 03/26/17 - $GLGSV,3,3,10,71,10,271,,72,18,320,*6A

5:46:31:397 Nachm. 03/26/17 - $GPGGA,154628.0,5208.460271,N,01138.444475,E,1,05,1.4,74.3,M,45.0,M,,*61

5:46:31:397 Nachm. 03/26/17 - $GNGNS,154628.0,5208.460271,N,01138.444475,E,AA,07,1.4,74.3,45.0,,*57

5:46:31:398 Nachm. 03/26/17 - $GPVTG,11.3,T,10.8,M,0.0,N,0.0,K,A*29

5:46:31:398 Nachm. 03/26/17 - $GPRMC,154628.0,A,5208.460271,N,01138.444475,E,0.0,11.3,260317,0.4,E,A*3F

5:46:31:398 Nachm. 03/26/17 - $GPGSA,A,2,02,12,24,25,29,,,,,,,,1.7,1.4,1.0*3A

5:46:31:399 Nachm. 03/26/17 - $GNGSA,A,2,02,12,24,25,29,,,,,,,,1.7,1.4,1.0*24

5:46:31:399 Nachm. 03/26/17 - $GNGSA,A,2,73,82,,,,,,,,,,,1.7,1.4,1.0*21

5:46:32:386 Nachm. 03/26/17 - $GPGSV,3,1,11,02,32,104,27,06,26,056,19,12,65,071,24,24,34,149,28*76

5:46:32:388 Nachm. 03/26/17 - $GPGSV,3,2,11,25,63,278,19,29,27,208,14,03,02,354,,14,31,295,*74

5:46:32:388 Nachm. 03/26/17 - $GPGSV,3,3,11,19,08,043,,31,17,307,,32,33,265,*4E

5:46:32:404 Nachm. 03/26/17 - $GLGSV,3,1,10,82,66,087,19,73,57,314,19,80,64,101,16,65,06,007,17*6A

5:46:32:410 Nachm. 03/26/17 - $GLGSV,3,2,10,83,35,178,18,74,02,303,,79,07,118,,81,25,032,*60

5:46:32:410 Nachm. 03/26/17 - $GLGSV,3,3,10,71,10,271,,72,18,320,*6A

5:46:32:410 Nachm. 03/26/17 - $GPGGA,154629.0,5208.460109,N,01138.444635,E,1,05,1.4,75.1,M,45.0,M,,*69

5:46:32:410 Nachm. 03/26/17 - $GNGNS,154629.0,5208.460109,N,01138.444635,E,AA,07,1.4,75.1,45.0,,*5F

5:46:32:411 Nachm. 03/26/17 - $GPVTG,11.3,T,10.8,M,0.0,N,0.0,K,A*29

5:46:32:411 Nachm. 03/26/17 - $GPRMC,154629.0,A,5208.460109,N,01138.444635,E,0.0,11.3,260317,0.4,E,A*34

5:46:32:411 Nachm. 03/26/17 - $GPGSA,A,2,02,12,24,25,29,,,,,,,,1.7,1.4,1.0*3A

5:46:32:411 Nachm. 03/26/17 - $GNGSA,A,2,02,12,24,25,29,,,,,,,,1.7,1.4,1.0*24

5:46:32:411 Nachm. 03/26/17 - $GNGSA,A,2,73,82,,,,,,,,,,,1.7,1.4,1.0*21

5:46:33:385 Nachm. 03/26/17 - $GPGSV,3,1,11,02,32,104,27,06,26,056,19,12,65,071,24,24,34,149,29*77

5:46:33:387 Nachm. 03/26/17 - $GPGSV,3,2,11,25,63,278,19,29,27,208,18,03,02,354,,14,31,295,*78

5:46:33:388 Nachm. 03/26/17 - $GPGSV,3,3,11,19,08,043,,31,17,307,,32,33,265,*4E

5:46:33:398 Nachm. 03/26/17 - $GLGSV,3,1,10,82,66,087,21,73,57,314,18,80,64,101,16,65,06,007,16*61

5:46:33:404 Nachm. 03/26/17 - $GLGSV,3,2,10,83,35,178,17,74,02,303,,79,07,118,,81,25,032,*6F

5:46:33:409 Nachm. 03/26/17 - $GLGSV,3,3,10,71,10,271,,72,18,320,*6A

5:46:33:410 Nachm. 03/26/17 - $GPGGA,154630.0,5208.460119,N,01138.444869,E,1,05,1.4,75.2,M,45.0,M,,*64

5:46:33:411 Nachm. 03/26/17 - $GNGNS,154630.0,5208.460119,N,01138.444869,E,AA,07,1.4,75.2,45.0,,*52

5:46:33:411 Nachm. 03/26/17 - $GPVTG,11.3,T,10.8,M,0.0,N,0.0,K,A*29

5:46:33:412 Nachm. 03/26/17 - $GPRMC,154630.0,A,5208.460119,N,01138.444869,E,0.0,11.3,260317,0.4,E,A*3A

5:46:33:412 Nachm. 03/26/17 - $GPGSA,A,2,02,12,24,25,29,,,,,,,,1.7,1.4,1.0*3A

5:46:33:412 Nachm. 03/26/17 - $GNGSA,A,2,02,12,24,25,29,,,,,,,,1.7,1.4,1.0*24

5:46:33:412 Nachm. 03/26/17 - $GNGSA,A,2,73,82,,,,,,,,,,,1.7,1.4,1.0*21

5:46:34:386 Nachm. 03/26/17 - $GPGSV,3,1,11,02,32,104,27,06,26,056,19,12,65,071,26,24,34,149,28*74

5:46:34:387 Nachm. 03/26/17 - $GPGSV,3,2,11,25,63,278,19,29,27,208,19,03,02,354,,14,31,295,*79

5:46:34:388 Nachm. 03/26/17 - $GPGSV,3,3,11,19,08,043,,31,17,307,,32,33,265,*4E

5:46:34:392 Nachm. 03/26/17 - $GLGSV,3,1,10,82,66,087,17,73,57,314,18,80,64,101,16,65,06,007,16*64

5:46:34:396 Nachm. 03/26/17 - $GLGSV,3,2,10,83,35,178,19,74,02,303,,79,07,118,,81,25,032,*61

5:46:34:398 Nachm. 03/26/17 - $GLGSV,3,3,10,71,10,271,,72,18,320,*6A

5:46:34:399 Nachm. 03/26/17 - $GPGGA,154631.0,5208.460122,N,01138.445123,E,1,05,1.4,75.4,M,45.0,M,,*6D

5:46:34:399 Nachm. 03/26/17 - $GNGNS,154631.0,5208.460122,N,01138.445123,E,AA,07,1.4,75.4,45.0,,*5B

5:46:34:399 Nachm. 03/26/17 - $GPVTG,11.3,T,10.8,M,0.0,N,0.0,K,A*29

5:46:34:400 Nachm. 03/26/17 - $GPRMC,154631.0,A,5208.460122,N,01138.445123,E,0.0,11.3,260317,0.4,E,A*35

5:46:34:400 Nachm. 03/26/17 - $GPGSA,A,2,02,12,24,25,29,,,,,,,,1.7,1.4,1.0*3A

5:46:34:400 Nachm. 03/26/17 - $GNGSA,A,2,02,12,24,25,29,,,,,,,,1.7,1.4,1.0*24

5:46:34:400 Nachm. 03/26/17 - $GNGSA,A,2,73,82,,,,,,,,,,,1.7,1.4,1.0*21

5:46:35:384 Nachm. 03/26/17 - $GPGSV,3,1,11,02,32,104,27,06,26,056,14,12,65,071,27,24,34,149,26*76

5:46:35:385 Nachm. 03/26/17 - $GPGSV,3,2,11,25,63,278,18,29,27,208,18,03,02,354,,14,31,295,*79

5:46:35:386 Nachm. 03/26/17 - $GPGSV,3,3,11,19,08,043,,31,17,307,,32,33,265,*4E

5:46:35:388 Nachm. 03/26/17 - $GLGSV,3,1,10,82,66,087,17,73,57,314,18,80,64,101,16,65,06,007,17*65

5:46:35:388 Nachm. 03/26/17 - $GLGSV,3,2,10,83,35,178,20,74,02,303,,79,07,118,,81,25,032,*6B

5:46:35:388 Nachm. 03/26/17 - $GLGSV,3,3,10,71,10,271,,72,18,320,*6A

5:46:35:394 Nachm. 03/26/17 - $GPGGA,154632.0,5208.460155,N,01138.445376,E,1,06,1.2,75.6,M,45.0,M,,*6B

5:46:35:395 Nachm. 03/26/17 - $GNGNS,154632.0,5208.460155,N,01138.445376,E,AA,08,1.2,75.6,45.0,,*51

5:46:35:396 Nachm. 03/26/17 - $GPVTG,11.3,T,10.8,M,0.0,N,0.0,K,A*29

5:46:35:396 Nachm. 03/26/17 - $GPRMC,154632.0,A,5208.460155,N,01138.445376,E,0.0,11.3,260317,0.4,E,A*34

5:46:35:396 Nachm. 03/26/17 - $GPGSA,A,2,02,06,12,24,25,29,,,,,,,1.5,1.2,0.9*30

5:46:35:396 Nachm. 03/26/17 - $GNGSA,A,2,02,06,12,24,25,29,,,,,,,1.5,1.2,0.9*2E

5:46:35:396 Nachm. 03/26/17 - $GNGSA,A,2,73,82,,,,,,,,,,,1.5,1.2,0.9*2D

5:46:36:384 Nachm. 03/26/17 - $GPGSV,3,1,11,02,32,104,29,06,26,056,17,12,65,071,27,24,34,149,26*7B

5:46:36:386 Nachm. 03/26/17 - $GPGSV,3,2,11,25,63,278,19,29,27,208,21,03,02,354,,14,31,295,*72

5:46:36:387 Nachm. 03/26/17 - $GPGSV,3,3,11,19,08,043,,31,17,307,,32,33,265,*4E

5:46:36:398 Nachm. 03/26/17 - $GLGSV,3,1,10,82,66,087,18,73,57,314,20,80,64,101,10,65,06,007,18*68

5:46:36:400 Nachm. 03/26/17 - $GLGSV,3,2,10,83,35,178,23,74,02,303,,79,07,118,,81,25,032,*68

5:46:36:402 Nachm. 03/26/17 - $GLGSV,3,3,10,71,10,271,,72,18,320,*6A

5:46:36:403 Nachm. 03/26/17 - $GPGGA,154633.0,5208.460078,N,01138.445685,E,1,06,1.2,76.3,M,45.0,M,,*6B

5:46:36:405 Nachm. 03/26/17 - $GNGNS,154633.0,5208.460078,N,01138.445685,E,AA,08,1.2,76.3,45.0,,*51

5:46:36:408 Nachm. 03/26/17 - $GPVTG,11.3,T,10.8,M,0.0,N,0.0,K,A*29

5:46:36:409 Nachm. 03/26/17 - $GPRMC,154633.0,A,5208.460078,N,01138.445685,E,0.0,11.3,260317,0.4,E,A*32

5:46:36:410 Nachm. 03/26/17 - $GPGSA,A,2,02,06,12,24,25,29,,,,,,,1.5,1.2,0.9*30

5:46:36:410 Nachm. 03/26/17 - $GNGSA,A,2,02,06,12,24,25,29,,,,,,,1.5,1.2,0.9*2E

5:46:36:410 Nachm. 03/26/17 - $GNGSA,A,2,73,82,,,,,,,,,,,1.5,1.2,0.9*2D

5:46:37:385 Nachm. 03/26/17 - $GPGSV,3,1,11,02,32,104,29,06,26,056,17,12,65,071,27,24,34,149,27*7A

5:46:37:386 Nachm. 03/26/17 - $GPGSV,3,2,11,25,63,278,19,29,27,208,20,03,02,354,,14,31,295,*73

5:46:37:386 Nachm. 03/26/17 - $GPGSV,3,3,11,19,08,043,,31,17,307,,32,33,265,*4E

5:46:37:397 Nachm. 03/26/17 - $GLGSV,3,1,10,82,66,087,18,73,57,314,20,80,64,101,10,65,06,007,18*68

5:46:37:409 Nachm. 03/26/17 - $GLGSV,3,2,10,83,35,178,24,74,02,303,,79,07,118,,81,25,032,*6F

5:46:37:410 Nachm. 03/26/17 - $GLGSV,3,3,10,71,10,271,,72,18,320,*6A

5:46:37:410 Nachm. 03/26/17 - $GPGGA,154634.0,5208.459909,N,01138.445497,E,1,06,1.2,76.5,M,45.0,M,,*6E

5:46:37:410 Nachm. 03/26/17 - $GNGNS,154634.0,5208.459909,N,01138.445497,E,AA,08,1.2,76.5,45.0,,*54

5:46:37:410 Nachm. 03/26/17 - $GPVTG,11.3,T,10.8,M,0.0,N,0.0,K,A*29

5:46:37:410 Nachm. 03/26/17 - $GPRMC,154634.0,A,5208.459909,N,01138.445497,E,0.0,11.3,260317,0.4,E,A*31

5:46:37:411 Nachm. 03/26/17 - $GPGSA,A,2,02,06,12,24,25,29,,,,,,,1.5,1.2,0.9*30

5:46:37:411 Nachm. 03/26/17 - $GNGSA,A,2,02,06,12,24,25,29,,,,,,,1.5,1.2,0.9*2E

5:46:37:411 Nachm. 03/26/17 - $GNGSA,A,2,73,82,,,,,,,,,,,1.5,1.2,0.9*2D

5:46:38:386 Nachm. 03/26/17 - $GPGSV,3,1,11,02,32,104,28,06,26,056,17,12,65,071,26,24,34,149,24*79

5:46:38:386 Nachm. 03/26/17 - $GPGSV,3,2,11,25,63,278,18,29,27,208,20,03,02,354,,14,31,295,*72

5:46:38:386 Nachm. 03/26/17 - $GPGSV,3,3,11,19,08,043,,31,17,307,,32,33,265,*4E

5:46:38:392 Nachm. 03/26/17 - $GLGSV,3,1,10,82,66,087,18,73,57,314,18,80,64,101,10,65,06,007,18*63

5:46:38:399 Nachm. 03/26/17 - $GLGSV,3,2,10,83,35,178,22,74,02,303,,79,07,118,,81,25,032,*69

5:46:38:399 Nachm. 03/26/17 - $GLGSV,3,3,10,71,10,271,,72,18,320,*6A

5:46:38:399 Nachm. 03/26/17 - $GPGGA,154635.0,5208.459769,N,01138.445479,E,1,06,1.2,76.9,M,45.0,M,,*6B

5:46:38:400 Nachm. 03/26/17 - $GNGNS,154635.0,5208.459769,N,01138.445479,E,AA,08,1.2,76.9,45.0,,*51

5:46:38:400 Nachm. 03/26/17 - $GPVTG,11.3,T,10.8,M,0.0,N,0.0,K,A*29

5:46:38:400 Nachm. 03/26/17 - $GPRMC,154635.0,A,5208.459769,N,01138.445479,E,0.0,11.3,260317,0.4,E,A*38

5:46:38:400 Nachm. 03/26/17 - $GPGSA,A,2,02,06,12,24,25,29,,,,,,,1.5,1.2,0.9*30

5:46:38:400 Nachm. 03/26/17 - $GNGSA,A,2,02,06,12,24,25,29,,,,,,,1.5,1.2,0.9*2E

5:46:38:400 Nachm. 03/26/17 - $GNGSA,A,2,73,82,,,,,,,,,,,1.5,1.2,0.9*2D

5:46:39:386 Nachm. 03/26/17 - $GPGSV,3,1,11,02,32,104,28,06,26,056,18,12,65,071,26,24,34,149,25*77

5:46:39:387 Nachm. 03/26/17 - $GPGSV,3,2,11,25,63,278,19,29,27,208,21,03,02,354,,14,31,295,*72

5:46:39:391 Nachm. 03/26/17 - $GPGSV,3,3,11,19,08,043,,31,17,307,,32,33,265,*4E

5:46:39:393 Nachm. 03/26/17 - $GLGSV,3,1,10,82,66,087,17,73,57,314,18,80,64,101,13,65,06,007,17*60

5:46:39:394 Nachm. 03/26/17 - $GLGSV,3,2,10,83,35,178,23,74,02,303,,79,07,118,,81,25,032,*68

5:46:39:395 Nachm. 03/26/17 - $GLGSV,3,3,10,71,10,271,,72,18,320,*6A

5:46:39:397 Nachm. 03/26/17 - $GPGGA,154636.0,5208.459748,N,01138.445550,E,1,06,1.2,77.0,M,45.0,M,,*69

5:46:39:398 Nachm. 03/26/17 - $GNGNS,154636.0,5208.459748,N,01138.445550,E,AA,08,1.2,77.0,45.0,,*53

5:46:39:407 Nachm. 03/26/17 - $GPVTG,11.3,T,10.8,M,0.0,N,0.0,K,A*29

5:46:39:411 Nachm. 03/26/17 - $GPRMC,154636.0,A,5208.459748,N,01138.445550,E,0.0,11.3,260317,0.4,E,A*32

5:46:39:414 Nachm. 03/26/17 - $GPGSA,A,2,02,06,12,24,25,29,,,,,,,1.5,1.2,0.9*30

5:46:39:414 Nachm. 03/26/17 - $GNGSA,A,2,02,06,12,24,25,29,,,,,,,1.5,1.2,0.9*2E

5:46:39:415 Nachm. 03/26/17 - $GNGSA,A,2,73,82,,,,,,,,,,,1.5,1.2,0.9*2D

5:46:40:386 Nachm. 03/26/17 - $GPGSV,3,1,11,02,32,104,28,06,26,056,19,12,65,071,27,24,34,149,26*74

5:46:40:388 Nachm. 03/26/17 - $GPGSV,3,2,11,25,63,278,19,29,27,208,22,03,02,354,,14,31,295,*71

5:46:40:391 Nachm. 03/26/17 - $GPGSV,3,3,11,19,08,043,,31,17,307,,32,33,265,*4E

5:46:40:401 Nachm. 03/26/17 - $GLGSV,3,1,10,82,66,087,18,73,57,314,16,80,64,101,13,65,06,007,17*61

5:46:40:406 Nachm. 03/26/17 - $GLGSV,3,2,10,83,35,178,24,74,02,303,,79,07,118,,81,25,032,*6F

5:46:40:411 Nachm. 03/26/17 - $GLGSV,3,3,10,71,10,271,,72,18,320,*6A

5:46:40:412 Nachm. 03/26/17 - $GPGGA,154637.0,5208.459727,N,01138.445658,E,1,06,1.2,77.2,M,45.0,M,,*68

5:46:40:412 Nachm. 03/26/17 - $GNGNS,154637.0,5208.459727,N,01138.445658,E,AA,08,1.2,77.2,45.0,,*52

5:46:40:413 Nachm. 03/26/17 - $GPVTG,11.3,T,10.8,M,0.0,N,0.0,K,A*29

5:46:40:413 Nachm. 03/26/17 - $GPRMC,154637.0,A,5208.459727,N,01138.445658,E,0.0,11.3,260317,0.4,E,A*31

5:46:40:413 Nachm. 03/26/17 - $GPGSA,A,2,02,06,12,24,25,29,,,,,,,1.5,1.2,0.9*30

5:46:40:414 Nachm. 03/26/17 - $GNGSA,A,2,02,06,12,24,25,29,,,,,,,1.5,1.2,0.9*2E

5:46:40:416 Nachm. 03/26/17 - $GNGSA,A,2,73,82,,,,,,,,,,,1.5,1.2,0.9*2D

5:46:41:387 Nachm. 03/26/17 - $GPGSV,3,1,11,02,32,104,29,06,26,056,20,12,65,071,26,24,34,149,27*7F

5:46:41:387 Nachm. 03/26/17 - $GPGSV,3,2,11,25,63,278,17,29,27,208,22,03,02,354,,14,31,295,*7F

5:46:41:388 Nachm. 03/26/17 - $GPGSV,3,3,11,19,08,043,,31,17,307,,32,33,265,*4E

5:46:41:396 Nachm. 03/26/17 - $GLGSV,3,1,10,82,66,087,17,73,57,314,18,80,64,101,14,65,06,007,16*66

5:46:41:399 Nachm. 03/26/17 - $GLGSV,3,2,10,83,35,178,26,74,02,303,,79,07,118,,81,25,032,*6D

5:46:41:400 Nachm. 03/26/17 - $GLGSV,3,3,10,71,10,271,,72,18,320,*6A

5:46:41:402 Nachm. 03/26/17 - $GPGGA,154638.0,5208.459690,N,01138.445726,E,1,06,1.2,77.4,M,45.0,M,,*64

5:46:41:403 Nachm. 03/26/17 - $GNGNS,154638.0,5208.459690,N,01138.445726,E,AA,08,1.2,77.4,45.0,,*5E

5:46:41:414 Nachm. 03/26/17 - $GPVTG,11.3,T,10.8,M,0.0,N,0.0,K,A*29

5:46:41:415 Nachm. 03/26/17 - $GPRMC,154638.0,A,5208.459690,N,01138.445726,E,0.0,11.3,260317,0.4,E,A*3B

5:46:41:415 Nachm. 03/26/17 - $GPGSA,A,2,02,06,12,24,25,29,,,,,,,1.5,1.2,0.9*30

5:46:41:416 Nachm. 03/26/17 - $GNGSA,A,2,02,06,12,24,25,29,,,,,,,1.5,1.2,0.9*2E

5:46:41:416 Nachm. 03/26/17 - $GNGSA,A,2,73,82,,,,,,,,,,,1.5,1.2,0.9*2D

5:46:42:385 Nachm. 03/26/17 - $GPGSV,3,1,11,02,32,104,29,06,26,056,19,12,65,071,23,24,34,149,27*70

5:46:42:385 Nachm. 03/26/17 - $GPGSV,3,2,11,25,63,278,18,29,27,208,21,03,02,354,,14,31,295,*73

5:46:42:386 Nachm. 03/26/17 - $GPGSV,3,3,11,19,08,043,,31,17,307,,32,33,265,*4E

5:46:42:391 Nachm. 03/26/17 - $GLGSV,3,1,10,82,66,087,26,73,57,314,18,80,64,101,14,65,06,007,16*64

5:46:42:400 Nachm. 03/26/17 - $GLGSV,3,2,10,83,35,178,25,74,02,303,,79,07,118,,81,25,032,*6E

5:46:42:400 Nachm. 03/26/17 - $GLGSV,3,3,10,71,10,271,,72,18,320,*6A

5:46:42:405 Nachm. 03/26/17 - $GPGGA,154639.0,5208.459616,N,01138.445813,E,1,06,1.2,77.7,M,45.0,M,,*61

5:46:42:405 Nachm. 03/26/17 - $GNGNS,154639.0,5208.459616,N,01138.445813,E,AA,08,1.2,77.7,45.0,,*5B

5:46:42:406 Nachm. 03/26/17 - $GPVTG,11.3,T,10.8,M,0.0,N,0.0,K,A*29

5:46:42:406 Nachm. 03/26/17 - $GPRMC,154639.0,A,5208.459616,N,01138.445813,E,0.0,11.3,260317,0.4,E,A*3D

5:46:42:406 Nachm. 03/26/17 - $GPGSA,A,2,02,06,12,24,25,29,,,,,,,1.5,1.2,0.9*30

5:46:42:407 Nachm. 03/26/17 - $GNGSA,A,2,02,06,12,24,25,29,,,,,,,1.5,1.2,0.9*2E

5:46:42:407 Nachm. 03/26/17 - $GNGSA,A,2,73,82,,,,,,,,,,,1.5,1.2,0.9*2D

5:46:43:385 Nachm. 03/26/17 - $GPGSV,3,1,11,02,32,104,27,06,26,056,21,12,65,071,16,24,34,149,27*73

5:46:43:386 Nachm. 03/26/17 - $GPGSV,3,2,11,25,63,278,23,29,27,208,19,03,02,354,,14,31,295,*70

5:46:43:386 Nachm. 03/26/17 - $GPGSV,3,3,11,19,08,043,,31,17,307,,32,33,265,*4E

5:46:43:394 Nachm. 03/26/17 - $GLGSV,3,1,10,82,66,087,17,73,57,314,20,80,64,101,14,65,06,007,17*6C

5:46:43:394 Nachm. 03/26/17 - $GLGSV,3,2,10,83,35,178,22,74,02,303,,79,07,118,,81,25,032,*69

5:46:43:395 Nachm. 03/26/17 - $GLGSV,3,3,10,71,10,271,,72,18,320,*6A

5:46:43:395 Nachm. 03/26/17 - $GPGGA,154640.0,5208.459581,N,01138.445841,E,1,06,1.2,77.8,M,45.0,M,,*6A

5:46:43:395 Nachm. 03/26/17 - $GNGNS,154640.0,5208.459581,N,01138.445841,E,AA,08,1.2,77.8,45.0,,*50

5:46:43:399 Nachm. 03/26/17 - $GPVTG,11.3,T,10.8,M,0.0,N,0.0,K,A*29

5:46:43:399 Nachm. 03/26/17 - $GPRMC,154640.0,A,5208.459581,N,01138.445841,E,0.0,11.3,260317,0.4,E,A*39

5:46:43:399 Nachm. 03/26/17 - $GPGSA,A,2,02,06,12,24,25,29,,,,,,,1.5,1.2,0.9*30

5:46:43:399 Nachm. 03/26/17 - $GNGSA,A,2,02,06,12,24,25,29,,,,,,,1.5,1.2,0.9*2E

5:46:43:399 Nachm. 03/26/17 - $GNGSA,A,2,73,82,,,,,,,,,,,1.5,1.2,0.9*2D

5:46:44:385 Nachm. 03/26/17 - $GPGSV,3,1,11,02,32,104,21,06,26,056,21,12,65,071,24,24,34,149,30*72

5:46:44:386 Nachm. 03/26/17 - $GPGSV,3,2,11,25,63,278,22,29,27,208,16,03,02,354,,14,31,295,*7E

5:46:44:388 Nachm. 03/26/17 - $GPGSV,3,3,11,19,08,043,,31,17,307,,32,33,265,*4E

5:46:44:390 Nachm. 03/26/17 - $GLGSV,3,1,10,82,66,087,17,73,57,314,18,80,64,101,14,65,06,007,17*67

5:46:44:391 Nachm. 03/26/17 - $GLGSV,3,2,10,83,35,178,18,74,02,303,,79,07,118,,81,25,032,*60

5:46:44:392 Nachm. 03/26/17 - $GLGSV,3,3,10,71,10,271,,72,18,320,*6A

5:46:44:392 Nachm. 03/26/17 - $GPGGA,154641.0,5208.459535,N,01138.445850,E,1,06,1.2,77.9,M,45.0,M,,*65

5:46:44:393 Nachm. 03/26/17 - $GNGNS,154641.0,5208.459535,N,01138.445850,E,AA,08,1.2,77.9,45.0,,*5F

5:46:44:400 Nachm. 03/26/17 - $GPVTG,11.3,T,10.8,M,0.0,N,0.0,K,A*29

5:46:44:401 Nachm. 03/26/17 - $GPRMC,154641.0,A,5208.459535,N,01138.445850,E,0.0,11.3,260317,0.4,E,A*37

5:46:44:402 Nachm. 03/26/17 - $GPGSA,A,2,02,06,12,24,25,29,,,,,,,1.5,1.2,0.9*30

5:46:44:402 Nachm. 03/26/17 - $GNGSA,A,2,02,06,12,24,25,29,,,,,,,1.5,1.2,0.9*2E

5:46:44:403 Nachm. 03/26/17 - $GNGSA,A,2,73,82,,,,,,,,,,,1.5,1.2,0.9*2D


