5:43:05:387 Nachm. 03/26/17 - $GPGSV,3,1,11,06,26,057,16,12,67,068,15,14,31,296,18,24,35,149,9*42

5:43:05:388 Nachm. 03/26/17 - $GPGSV,3,2,11,25,61,277,26,29,25,206,21,32,33,267,20,02,31,105,*71

5:43:05:388 Nachm. 03/26/17 - $GPGSV,3,3,11,03,02,355,,19,10,043,,31,15,307,*47

5:43:05:388 Nachm. 03/26/17 - $GLGSV,3,1,10,82,66,092,15,73,55,313,29,83,33,178,13,81,26,033,17*61

5:43:05:388 Nachm. 03/26/17 - $GLGSV,3,2,10,71,11,272,18,74,,,,80,66,098,,79,09,116,*56

5:43:05:391 Nachm. 03/26/17 - $GLGSV,3,3,10,65,05,008,,72,18,323,*64

5:43:05:394 Nachm. 03/26/17 - $GPGGA,154302.0,5208.408827,N,01138.450224,E,1,06,1.3,58.7,M,45.0,M,,*62

5:43:05:394 Nachm. 03/26/17 - $GNGNS,154302.0,5208.408827,N,01138.450224,E,AA,07,1.3,58.7,45.0,,*57

5:43:05:394 Nachm. 03/26/17 - $GPVTG,104.1,T,103.7,M,1.3,N,2.3,K,A*21

5:43:05:395 Nachm. 03/26/17 - $GPRMC,154302.0,A,5208.408827,N,01138.450224,E,1.3,104.1,260317,0.4,E,A*07

5:43:05:395 Nachm. 03/26/17 - $GPGSA,A,2,06,12,14,25,29,32,,,,,,,1.6,1.3,0.9*32

5:43:05:395 Nachm. 03/26/17 - $GNGSA,A,2,06,12,14,25,29,32,,,,,,,1.6,1.3,0.9*2C

5:43:05:396 Nachm. 03/26/17 - $GNGSA,A,2,73,,,,,,,,,,,,1.6,1.3,0.9*25

5:43:06:385 Nachm. 03/26/17 - $GPGSV,3,1,11,06,26,057,17,12,67,068,15,14,31,296,18,24,35,149,12*79

5:43:06:386 Nachm. 03/26/17 - $GPGSV,3,2,11,25,61,277,22,29,25,206,21,32,33,267,20,02,31,105,*75

5:43:06:386 Nachm. 03/26/17 - $GPGSV,3,3,11,03,02,355,,19,10,043,,31,15,307,*47

5:43:06:387 Nachm. 03/26/17 - $GLGSV,3,1,10,82,66,092,14,73,55,313,25,83,33,178,13,81,26,033,17*6C

5:43:06:388 Nachm. 03/26/17 - $GLGSV,3,2,10,71,11,272,12,74,,,,80,66,098,,79,09,116,*5C

5:43:06:390 Nachm. 03/26/17 - $GLGSV,3,3,10,65,05,008,,72,18,323,*64

5:43:06:391 Nachm. 03/26/17 - $GPGGA,154303.0,5208.410999,N,01138.447698,E,1,07,1.0,55.6,M,45.0,M,,*65

5:43:06:400 Nachm. 03/26/17 - $GNGNS,154303.0,5208.410999,N,01138.447698,E,AA,08,1.0,55.6,45.0,,*5E

5:43:06:400 Nachm. 03/26/17 - $GPVTG,104.1,T,103.7,M,1.8,N,3.4,K,A*2C

5:43:06:401 Nachm. 03/26/17 - $GPRMC,154303.0,A,5208.410999,N,01138.447698,E,1.8,104.1,260317,0.4,E,A*05

5:43:06:401 Nachm. 03/26/17 - $GPGSA,A,2,06,12,14,24,25,29,32,,,,,,1.4,1.0,0.9*35

5:43:06:402 Nachm. 03/26/17 - $GNGSA,A,2,06,12,14,24,25,29,32,,,,,,1.4,1.0,0.9*2B

5:43:06:402 Nachm. 03/26/17 - $GNGSA,A,2,73,,,,,,,,,,,,1.4,1.0,0.9*24

5:43:07:385 Nachm. 03/26/17 - $GPGSV,3,1,11,06,26,057,23,12,67,068,14,14,31,296,21,24,35,149,12*75

5:43:07:386 Nachm. 03/26/17 - $GPGSV,3,2,11,25,61,277,22,29,25,206,20,32,33,267,15,02,31,105,*72

5:43:07:386 Nachm. 03/26/17 - $GPGSV,3,3,11,03,02,355,,19,10,043,,31,15,307,*47

5:43:07:387 Nachm. 03/26/17 - $GLGSV,3,1,10,82,66,092,14,73,55,313,16,83,33,178,13,81,26,033,17*6C

5:43:07:388 Nachm. 03/26/17 - $GLGSV,3,2,10,71,11,272,16,74,,,,80,66,098,,79,09,116,*58

5:43:07:388 Nachm. 03/26/17 - $GLGSV,3,3,10,65,05,008,,72,18,323,*64

5:43:07:388 Nachm. 03/26/17 - $GPGGA,154304.0,5208.411844,N,01138.450653,E,1,07,1.0,56.2,M,45.0,M,,*64

5:43:07:389 Nachm. 03/26/17 - $GNGNS,154304.0,5208.411844,N,01138.450653,E,AA,08,1.0,56.2,45.0,,*5F

5:43:07:389 Nachm. 03/26/17 - $GPVTG,104.1,T,103.7,M,1.4,N,2.7,K,A*22

5:43:07:389 Nachm. 03/26/17 - $GPRMC,154304.0,A,5208.411844,N,01138.450653,E,1.4,104.1,260317,0.4,E,A*0F

5:43:07:390 Nachm. 03/26/17 - $GPGSA,A,2,06,12,14,24,25,29,32,,,,,,1.4,1.0,0.9*35

5:43:07:390 Nachm. 03/26/17 - $GNGSA,A,2,06,12,14,24,25,29,32,,,,,,1.4,1.0,0.9*2B

5:43:07:390 Nachm. 03/26/17 - $GNGSA,A,2,73,,,,,,,,,,,,1.4,1.0,0.9*24

5:43:08:387 Nachm. 03/26/17 - $GPGSV,3,1,11,06,26,057,18,12,67,068,14,14,31,296,18,24,35,149,12*77

5:43:08:387 Nachm. 03/26/17 - $GPGSV,3,2,11,25,61,277,27,29,25,206,18,32,33,267,20,02,31,105,*7A

5:43:08:389 Nachm. 03/26/17 - $GPGSV,3,3,11,03,02,355,,19,10,043,,31,15,307,*47

5:43:08:390 Nachm. 03/26/17 - $GLGSV,3,1,10,82,66,092,14,73,55,313,29,83,33,178,13,81,26,033,17*60

5:43:08:422 Nachm. 03/26/17 - $GLGSV,3,2,10,71,11,272,16,74,,,,80,66,098,,79,09,116,*58

5:43:08:423 Nachm. 03/26/17 - $GLGSV,3,3,10,65,05,008,,72,18,323,*64

5:43:08:424 Nachm. 03/26/17 - $GPGGA,154305.0,5208.412952,N,01138.447910,E,1,07,1.0,60.8,M,45.0,M,,*61

5:43:08:424 Nachm. 03/26/17 - $GNGNS,154305.0,5208.412952,N,01138.447910,E,AA,08,1.0,60.8,45.0,,*5A

5:43:08:426 Nachm. 03/26/17 - $GPVTG,104.1,T,103.7,M,1.8,N,3.3,K,A*2B

5:43:08:435 Nachm. 03/26/17 - $GPRMC,154305.0,A,5208.412952,N,01138.447910,E,1.8,104.1,260317,0.4,E,A*09

5:43:08:435 Nachm. 03/26/17 - $GPGSA,A,2,06,12,14,24,25,29,32,,,,,,1.4,1.0,0.9*35

5:43:08:436 Nachm. 03/26/17 - $GNGSA,A,2,06,12,14,24,25,29,32,,,,,,1.4,1.0,0.9*2B

5:43:08:437 Nachm. 03/26/17 - $GNGSA,A,2,73,,,,,,,,,,,,1.4,1.0,0.9*24

5:43:09:386 Nachm. 03/26/17 - $GPGSV,3,1,11,06,26,057,23,12,67,068,14,14,31,296,22,24,35,149,12*76

5:43:09:389 Nachm. 03/26/17 - $GPGSV,3,2,11,25,61,277,25,29,25,206,20,32,33,267,16,02,31,105,*76

5:43:09:392 Nachm. 03/26/17 - $GPGSV,3,3,11,03,02,355,,19,10,043,,31,15,307,*47

5:43:09:394 Nachm. 03/26/17 - $GLGSV,3,1,10,82,66,092,14,73,55,313,26,83,33,178,14,81,26,033,17*68

5:43:09:408 Nachm. 03/26/17 - $GLGSV,3,2,10,71,11,272,16,74,,,,80,66,098,,79,09,116,*58

5:43:09:416 Nachm. 03/26/17 - $GLGSV,3,3,10,65,05,008,,72,18,323,*64

5:43:09:419 Nachm. 03/26/17 - $GPGGA,154306.0,5208.413359,N,01138.448669,E,1,07,1.0,63.7,M,45.0,M,,*60

5:43:09:421 Nachm. 03/26/17 - $GNGNS,154306.0,5208.413359,N,01138.448669,E,AA,08,1.0,63.7,45.0,,*5B

5:43:09:421 Nachm. 03/26/17 - $GPVTG,104.1,T,103.7,M,1.0,N,1.8,K,A*2A

5:43:09:421 Nachm. 03/26/17 - $GPRMC,154306.0,A,5208.413359,N,01138.448669,E,1.0,104.1,260317,0.4,E,A*0C

5:43:09:421 Nachm. 03/26/17 - $GPGSA,A,2,06,12,14,24,25,29,32,,,,,,1.4,1.0,0.9*35

5:43:09:422 Nachm. 03/26/17 - $GNGSA,A,2,06,12,14,24,25,29,32,,,,,,1.4,1.0,0.9*2B

5:43:09:422 Nachm. 03/26/17 - $GNGSA,A,2,73,,,,,,,,,,,,1.4,1.0,0.9*24

5:43:10:384 Nachm. 03/26/17 - $GPGSV,3,1,11,06,26,057,23,12,67,068,15,14,31,296,22,24,35,149,12*77

5:43:10:385 Nachm. 03/26/17 - $GPGSV,3,2,11,25,61,277,24,29,25,206,22,32,33,267,22,02,31,105,*72

5:43:10:385 Nachm. 03/26/17 - $GPGSV,3,3,11,03,02,355,,19,10,043,,31,15,307,*47

5:43:10:386 Nachm. 03/26/17 - $GLGSV,3,1,10,82,66,092,14,73,55,313,26,83,33,178,20,81,26,033,17*6F

5:43:10:393 Nachm. 03/26/17 - $GLGSV,3,2,10,71,11,272,16,74,,,,80,66,098,,79,09,116,*58

5:43:10:394 Nachm. 03/26/17 - $GLGSV,3,3,10,65,05,008,,72,18,323,*64

5:43:10:395 Nachm. 03/26/17 - $GPGGA,154307.0,5208.415492,N,01138.449993,E,1,07,1.0,60.7,M,45.0,M,,*6F

5:43:10:395 Nachm. 03/26/17 - $GNGNS,154307.0,5208.415492,N,01138.449993,E,AA,08,1.0,60.7,45.0,,*54

5:43:10:395 Nachm. 03/26/17 - $GPVTG,104.1,T,103.7,M,0.9,N,1.7,K,A*2D

5:43:10:396 Nachm. 03/26/17 - $GPRMC,154307.0,A,5208.415492,N,01138.449993,E,0.9,104.1,260317,0.4,E,A*08

5:43:10:396 Nachm. 03/26/17 - $GPGSA,A,2,06,12,14,24,25,29,32,,,,,,1.4,1.0,0.9*35

5:43:10:397 Nachm. 03/26/17 - $GNGSA,A,2,06,12,14,24,25,29,32,,,,,,1.4,1.0,0.9*2B

5:43:10:397 Nachm. 03/26/17 - $GNGSA,A,2,73,,,,,,,,,,,,1.4,1.0,0.9*24

5:43:11:386 Nachm. 03/26/17 - $GPGSV,3,1,11,06,26,057,20,12,67,068,19,14,31,296,20,24,35,149,12*7A

5:43:11:390 Nachm. 03/26/17 - $GPGSV,3,2,11,25,61,277,22,29,25,206,20,32,33,267,23,02,31,105,*77

5:43:11:392 Nachm. 03/26/17 - $GPGSV,3,3,11,03,02,355,,19,10,043,,31,15,307,*47

5:43:11:393 Nachm. 03/26/17 - $GLGSV,3,1,10,82,66,092,14,73,55,313,27,83,33,178,20,81,26,033,17*6E

5:43:11:405 Nachm. 03/26/17 - $GLGSV,3,2,10,71,11,272,16,74,,,,80,66,098,,79,09,116,*58

5:43:11:407 Nachm. 03/26/17 - $GLGSV,3,3,10,65,05,008,,72,18,323,*64

5:43:11:408 Nachm. 03/26/17 - $GPGGA,154308.0,5208.416247,N,01138.449556,E,1,07,1.0,59.6,M,45.0,M,,*63

5:43:11:408 Nachm. 03/26/17 - $GNGNS,154308.0,5208.416247,N,01138.449556,E,AA,08,1.0,59.6,45.0,,*58

5:43:11:409 Nachm. 03/26/17 - $GPVTG,104.1,T,103.7,M,0.6,N,1.0,K,A*25

5:43:11:409 Nachm. 03/26/17 - $GPRMC,154308.0,A,5208.416247,N,01138.449556,E,0.6,104.1,260317,0.4,E,A*00

5:43:11:410 Nachm. 03/26/17 - $GPGSA,A,2,06,12,14,24,25,29,32,,,,,,1.4,1.0,0.9*35

5:43:11:419 Nachm. 03/26/17 - $GNGSA,A,2,06,12,14,24,25,29,32,,,,,,1.4,1.0,0.9*2B

5:43:11:424 Nachm. 03/26/17 - $GNGSA,A,2,73,,,,,,,,,,,,1.4,1.0,0.9*24

5:43:12:386 Nachm. 03/26/17 - $GPGSV,3,1,11,06,26,057,22,12,67,068,19,14,31,296,22,24,35,149,12*7A

5:43:12:388 Nachm. 03/26/17 - $GPGSV,3,2,11,25,61,277,25,29,25,206,22,32,33,267,21,02,31,105,*70

5:43:12:388 Nachm. 03/26/17 - $GPGSV,3,3,11,03,02,355,,19,10,043,,31,15,307,*47

5:43:12:389 Nachm. 03/26/17 - $GLGSV,3,1,10,82,66,092,14,73,55,313,26,83,33,178,17,81,26,033,17*6B

5:43:12:397 Nachm. 03/26/17 - $GLGSV,3,2,10,71,11,272,16,74,,,,80,66,098,,79,09,116,*58

5:43:12:398 Nachm. 03/26/17 - $GLGSV,3,3,10,65,05,008,,72,18,323,*64

5:43:12:398 Nachm. 03/26/17 - $GPGGA,154309.0,5208.417149,N,01138.449706,E,1,07,1.0,58.8,M,45.0,M,,*66

5:43:12:404 Nachm. 03/26/17 - $GNGNS,154309.0,5208.417149,N,01138.449706,E,AA,08,1.0,58.8,45.0,,*5D

5:43:12:405 Nachm. 03/26/17 - $GPVTG,104.1,T,103.7,M,0.6,N,1.1,K,A*24

5:43:12:407 Nachm. 03/26/17 - $GPRMC,154309.0,A,5208.417149,N,01138.449706,E,0.6,104.1,260317,0.4,E,A*0A

5:43:12:408 Nachm. 03/26/17 - $GPGSA,A,2,06,12,14,24,25,29,32,,,,,,1.4,1.0,0.9*35

5:43:12:409 Nachm. 03/26/17 - $GNGSA,A,2,06,12,14,24,25,29,32,,,,,,1.4,1.0,0.9*2B

5:43:12:409 Nachm. 03/26/17 - $GNGSA,A,2,73,,,,,,,,,,,,1.4,1.0,0.9*24

5:43:13:384 Nachm. 03/26/17 - $GPGSV,3,1,11,06,26,057,22,12,67,068,18,14,31,296,22,24,35,149,12*7B

5:43:13:385 Nachm. 03/26/17 - $GPGSV,3,2,11,25,61,277,25,29,25,206,23,32,33,267,21,02,31,105,*71

5:43:13:390 Nachm. 03/26/17 - $GPGSV,3,3,11,03,02,355,,19,10,043,,31,15,307,*47

5:43:13:392 Nachm. 03/26/17 - $GLGSV,3,1,10,82,66,092,14,73,55,313,26,83,33,178,20,81,26,033,17*6F

5:43:13:395 Nachm. 03/26/17 - $GLGSV,3,2,10,71,11,272,12,74,,,,80,66,098,,79,09,116,*5C

5:43:13:395 Nachm. 03/26/17 - $GLGSV,3,3,10,65,05,008,,72,18,323,*64

5:43:13:395 Nachm. 03/26/17 - $GPGGA,154310.0,5208.418341,N,01138.449960,E,1,06,1.3,56.0,M,45.0,M,,*61

5:43:13:395 Nachm. 03/26/17 - $GNGNS,154310.0,5208.418341,N,01138.449960,E,AA,07,1.3,56.0,45.0,,*54

5:43:13:395 Nachm. 03/26/17 - $GPVTG,104.1,T,103.7,M,0.0,N,0.0,K,A*22

5:43:13:396 Nachm. 03/26/17 - $GPRMC,154310.0,A,5208.418341,N,01138.449960,E,0.0,104.1,260317,0.4,E,A*0F

5:43:13:396 Nachm. 03/26/17 - $GPGSA,A,2,06,12,14,25,29,32,,,,,,,1.6,1.3,0.9*32

5:43:13:396 Nachm. 03/26/17 - $GNGSA,A,2,06,12,14,25,29,32,,,,,,,1.6,1.3,0.9*2C

5:43:13:396 Nachm. 03/26/17 - $GNGSA,A,2,73,,,,,,,,,,,,1.6,1.3,0.9*25

5:43:14:384 Nachm. 03/26/17 - $GPGSV,3,1,11,06,26,057,21,12,67,068,18,14,31,296,21,24,35,149,12*7B

5:43:14:385 Nachm. 03/26/17 - $GPGSV,3,2,11,25,61,277,24,29,25,206,20,32,33,267,19,02,31,105,*78

5:43:14:385 Nachm. 03/26/17 - $GPGSV,3,3,11,03,02,355,,19,10,043,,31,15,307,*47

5:43:14:386 Nachm. 03/26/17 - $GLGSV,3,1,10,82,66,092,14,73,55,313,25,83,33,178,18,81,26,033,17*67

5:43:14:386 Nachm. 03/26/17 - $GLGSV,3,2,10,71,11,272,12,74,,,,80,66,098,,79,09,116,*5C

5:43:14:386 Nachm. 03/26/17 - $GLGSV,3,3,10,65,05,008,,72,18,323,*64

5:43:14:386 Nachm. 03/26/17 - $GPGGA,154311.0,5208.418836,N,01138.449564,E,1,06,1.3,55.2,M,45.0,M,,*62

5:43:14:386 Nachm. 03/26/17 - $GNGNS,154311.0,5208.418836,N,01138.449564,E,AA,07,1.3,55.2,45.0,,*57

5:43:14:386 Nachm. 03/26/17 - $GPVTG,104.1,T,103.7,M,0.7,N,1.4,K,A*20

5:43:14:387 Nachm. 03/26/17 - $GPRMC,154311.0,A,5208.418836,N,01138.449564,E,0.7,104.1,260317,0.4,E,A*0A

5:43:14:387 Nachm. 03/26/17 - $GPGSA,A,2,06,12,14,25,29,32,,,,,,,1.6,1.3,0.9*32

5:43:14:387 Nachm. 03/26/17 - $GNGSA,A,2,06,12,14,25,29,32,,,,,,,1.6,1.3,0.9*2C

5:43:14:387 Nachm. 03/26/17 - $GNGSA,A,2,73,,,,,,,,,,,,1.6,1.3,0.9*25

5:43:15:386 Nachm. 03/26/17 - $GPGSV,3,1,11,06,26,057,22,12,67,068,17,14,31,296,22,24,35,149,12*74

5:43:15:386 Nachm. 03/26/17 - $GPGSV,3,2,11,25,61,277,23,29,25,206,20,32,33,267,19,02,31,105,*7F

5:43:15:387 Nachm. 03/26/17 - $GPGSV,3,3,11,03,02,355,,19,10,043,,31,15,307,*47

5:43:15:387 Nachm. 03/26/17 - $GLGSV,3,1,10,82,66,092,14,73,55,313,26,83,33,178,18,81,26,033,17*64

5:43:15:391 Nachm. 03/26/17 - $GLGSV,3,2,10,71,11,272,12,74,,,,80,66,098,,79,09,116,*5C

5:43:15:391 Nachm. 03/26/17 - $GLGSV,3,3,10,65,05,008,,72,18,323,*64

5:43:15:391 Nachm. 03/26/17 - $GPGGA,154312.0,5208.419302,N,01138.447827,E,1,06,1.3,54.3,M,45.0,M,,*68

5:43:15:392 Nachm. 03/26/17 - $GNGNS,154312.0,5208.419302,N,01138.447827,E,AA,07,1.3,54.3,45.0,,*5D

5:43:15:392 Nachm. 03/26/17 - $GPVTG,263.2,T,262.8,M,1.5,N,2.7,K,A*29

5:43:15:392 Nachm. 03/26/17 - $GPRMC,154312.0,A,5208.419302,N,01138.447827,E,1.5,263.2,260317,0.4,E,A*02

5:43:15:393 Nachm. 03/26/17 - $GPGSA,A,2,06,12,14,25,29,32,,,,,,,1.6,1.3,0.9*32

5:43:15:393 Nachm. 03/26/17 - $GNGSA,A,2,06,12,14,25,29,32,,,,,,,1.6,1.3,0.9*2C

5:43:15:396 Nachm. 03/26/17 - $GNGSA,A,2,73,,,,,,,,,,,,1.6,1.3,0.9*25

5:43:16:384 Nachm. 03/26/17 - $GPGSV,3,1,11,06,26,057,22,12,67,068,18,14,31,296,22,24,35,149,12*7B

5:43:16:385 Nachm. 03/26/17 - $GPGSV,3,2,11,25,61,277,23,29,25,206,18,32,33,267,21,02,31,105,*7F

5:43:16:386 Nachm. 03/26/17 - $GPGSV,3,3,11,03,02,355,,19,10,043,,31,15,307,*47

5:43:16:386 Nachm. 03/26/17 - $GLGSV,3,1,10,82,66,092,14,73,55,313,26,83,33,178,18,81,26,033,17*64

5:43:16:387 Nachm. 03/26/17 - $GLGSV,3,2,10,71,11,272,12,74,,,,80,66,098,,79,09,116,*5C

5:43:16:387 Nachm. 03/26/17 - $GLGSV,3,3,10,65,05,008,,72,18,323,*64

5:43:16:388 Nachm. 03/26/17 - $GPGGA,154313.0,5208.419601,N,01138.448323,E,1,06,1.3,53.2,M,45.0,M,,*69

5:43:16:391 Nachm. 03/26/17 - $GNGNS,154313.0,5208.419601,N,01138.448323,E,AA,07,1.3,53.2,45.0,,*5C

5:43:16:392 Nachm. 03/26/17 - $GPVTG,263.2,T,262.8,M,1.1,N,2.1,K,A*2B

5:43:16:401 Nachm. 03/26/17 - $GPRMC,154313.0,A,5208.419601,N,01138.448323,E,1.1,263.2,260317,0.4,E,A*01

5:43:16:401 Nachm. 03/26/17 - $GPGSA,A,2,06,12,14,25,29,32,,,,,,,1.6,1.3,0.9*32

5:43:16:401 Nachm. 03/26/17 - $GNGSA,A,2,06,12,14,25,29,32,,,,,,,1.6,1.3,0.9*2C

5:43:16:402 Nachm. 03/26/17 - $GNGSA,A,2,73,,,,,,,,,,,,1.6,1.3,0.9*25

5:43:17:384 Nachm. 03/26/17 - $GPGSV,3,1,11,06,26,057,21,12,67,068,17,14,31,296,23,24,35,149,12*76

5:43:17:384 Nachm. 03/26/17 - $GPGSV,3,2,11,25,61,277,27,29,25,206,18,32,33,267,19,02,31,105,*70

5:43:17:384 Nachm. 03/26/17 - $GPGSV,3,3,11,03,02,355,,19,10,043,,31,15,307,*47

5:43:17:386 Nachm. 03/26/17 - $GLGSV,3,1,10,82,66,092,14,73,55,313,27,83,33,178,18,81,26,033,17*65

5:43:17:386 Nachm. 03/26/17 - $GLGSV,3,2,10,71,11,272,12,74,,,,80,66,098,,79,09,116,*5C

5:43:17:386 Nachm. 03/26/17 - $GLGSV,3,3,10,65,05,008,,72,18,323,*64

5:43:17:386 Nachm. 03/26/17 - $GPGGA,154314.0,5208.419631,N,01138.447003,E,1,06,1.3,53.0,M,45.0,M,,*61

5:43:17:387 Nachm. 03/26/17 - $GNGNS,154314.0,5208.419631,N,01138.447003,E,AA,07,1.3,53.0,45.0,,*54

5:43:17:387 Nachm. 03/26/17 - $GPVTG,263.2,T,262.8,M,0.5,N,1.0,K,A*2C

5:43:17:387 Nachm. 03/26/17 - $GPRMC,154314.0,A,5208.419631,N,01138.447003,E,0.5,263.2,260317,0.4,E,A*0E

5:43:17:387 Nachm. 03/26/17 - $GPGSA,A,2,06,12,14,25,29,32,,,,,,,1.6,1.3,0.9*32

5:43:17:387 Nachm. 03/26/17 - $GNGSA,A,2,06,12,14,25,29,32,,,,,,,1.6,1.3,0.9*2C

5:43:17:387 Nachm. 03/26/17 - $GNGSA,A,2,73,,,,,,,,,,,,1.6,1.3,0.9*25

5:43:18:384 Nachm. 03/26/17 - $GPGSV,3,1,11,06,26,057,18,12,67,068,17,14,31,296,20,24,35,149,10*7D

5:43:18:385 Nachm. 03/26/17 - $GPGSV,3,2,11,25,61,277,25,29,25,206,18,32,33,267,18,02,31,105,*73

5:43:18:386 Nachm. 03/26/17 - $GPGSV,3,3,11,03,02,355,,19,10,043,,31,15,307,*47

5:43:18:386 Nachm. 03/26/17 - $GLGSV,3,1,10,82,66,092,14,73,55,313,25,83,33,178,16,81,26,033,17*69

5:43:18:387 Nachm. 03/26/17 - $GLGSV,3,2,10,71,11,272,12,74,,,,80,66,098,,79,09,116,*5C

5:43:18:389 Nachm. 03/26/17 - $GLGSV,3,3,10,65,05,008,,72,18,323,*64

5:43:18:389 Nachm. 03/26/17 - $GPGGA,154315.0,5208.420259,N,01138.446357,E,1,07,1.0,54.2,M,45.0,M,,*64

5:43:18:389 Nachm. 03/26/17 - $GNGNS,154315.0,5208.420259,N,01138.446357,E,AA,08,1.0,54.2,45.0,,*5F

5:43:18:389 Nachm. 03/26/17 - $GPVTG,263.2,T,262.8,M,0.5,N,0.9,K,A*24

5:43:18:389 Nachm. 03/26/17 - $GPRMC,154315.0,A,5208.420259,N,01138.446357,E,0.5,263.2,260317,0.4,E,A*0C

5:43:18:389 Nachm. 03/26/17 - $GPGSA,A,2,06,12,14,24,25,29,32,,,,,,1.4,1.0,0.9*35

5:43:18:389 Nachm. 03/26/17 - $GNGSA,A,2,06,12,14,24,25,29,32,,,,,,1.4,1.0,0.9*2B

5:43:18:389 Nachm. 03/26/17 - $GNGSA,A,2,73,,,,,,,,,,,,1.4,1.0,0.9*24

5:43:19:384 Nachm. 03/26/17 - $GPGSV,3,1,11,06,26,057,19,12,67,068,17,14,31,296,23,24,35,149,10*7F

5:43:19:385 Nachm. 03/26/17 - $GPGSV,3,2,11,25,61,277,27,29,25,206,18,32,33,267,19,02,31,105,*70

5:43:19:386 Nachm. 03/26/17 - $GPGSV,3,3,11,03,02,355,,19,10,043,,31,15,307,*47

5:43:19:386 Nachm. 03/26/17 - $GLGSV,3,1,10,82,66,092,14,73,55,313,27,65,05,008,10,83,33,178,21*6B

5:43:19:387 Nachm. 03/26/17 - $GLGSV,3,2,10,81,26,033,17,71,11,272,12,74,,,,80,66,098,*56

5:43:19:388 Nachm. 03/26/17 - $GLGSV,3,3,10,79,09,116,,72,18,323,*6B

5:43:19:388 Nachm. 03/26/17 - $GPGGA,154316.0,5208.420846,N,01138.446253,E,1,07,1.0,54.4,M,45.0,M,,*60

5:43:19:388 Nachm. 03/26/17 - $GNGNS,154316.0,5208.420846,N,01138.446253,E,AA,08,1.0,54.4,45.0,,*5B

5:43:19:388 Nachm. 03/26/17 - $GPVTG,263.2,T,262.8,M,0.4,N,0.8,K,A*24

5:43:19:388 Nachm. 03/26/17 - $GPRMC,154316.0,A,5208.420846,N,01138.446253,E,0.4,263.2,260317,0.4,E,A*0F

5:43:19:388 Nachm. 03/26/17 - $GPGSA,A,2,06,12,14,24,25,29,32,,,,,,1.4,1.0,0.9*35

5:43:19:388 Nachm. 03/26/17 - $GNGSA,A,2,06,12,14,24,25,29,32,,,,,,1.4,1.0,0.9*2B

5:43:19:388 Nachm. 03/26/17 - $GNGSA,A,2,73,,,,,,,,,,,,1.4,1.0,0.9*24

5:43:20:384 Nachm. 03/26/17 - $GPGSV,3,1,11,06,26,057,19,12,67,068,17,14,31,296,21,24,35,149,10*7D

5:43:20:384 Nachm. 03/26/17 - $GPGSV,3,2,11,25,61,277,26,29,25,206,15,32,33,267,19,02,31,105,*7C

5:43:20:384 Nachm. 03/26/17 - $GPGSV,3,3,11,03,02,355,,19,10,043,,31,15,307,*47

5:43:20:387 Nachm. 03/26/17 - $GLGSV,3,1,10,82,66,092,10,73,55,313,27,65,05,008,10,83,33,178,20*6E

5:43:20:387 Nachm. 03/26/17 - $GLGSV,3,2,10,81,26,033,17,71,11,272,12,74,,,,80,66,098,*56

5:43:20:387 Nachm. 03/26/17 - $GLGSV,3,3,10,79,09,116,,72,18,323,*6B

5:43:20:387 Nachm. 03/26/17 - $GPGGA,154317.0,5208.422138,N,01138.445708,E,1,07,1.0,56.1,M,45.0,M,,*6C

5:43:20:387 Nachm. 03/26/17 - $GNGNS,154317.0,5208.422138,N,01138.445708,E,AA,08,1.0,56.1,45.0,,*57

5:43:20:389 Nachm. 03/26/17 - $GPVTG,263.2,T,262.8,M,1.2,N,2.1,K,A*28

5:43:20:389 Nachm. 03/26/17 - $GPRMC,154317.0,A,5208.422138,N,01138.445708,E,1.2,263.2,260317,0.4,E,A*03

5:43:20:389 Nachm. 03/26/17 - $GPGSA,A,2,06,12,14,24,25,29,32,,,,,,1.4,1.0,0.9*35

5:43:20:389 Nachm. 03/26/17 - $GNGSA,A,2,06,12,14,24,25,29,32,,,,,,1.4,1.0,0.9*2B

5:43:20:389 Nachm. 03/26/17 - $GNGSA,A,2,73,,,,,,,,,,,,1.4,1.0,0.9*24

5:43:21:387 Nachm. 03/26/17 - $GPGSV,3,1,11,06,26,057,19,12,67,068,17,14,31,296,21,24,35,149,10*7D

5:43:21:389 Nachm. 03/26/17 - $GPGSV,3,2,11,25,61,277,27,29,25,206,15,32,33,267,19,02,31,105,*7D

5:43:21:389 Nachm. 03/26/17 - $GPGSV,3,3,11,03,02,355,,19,10,043,,31,15,307,*47

5:43:21:389 Nachm. 03/26/17 - $GLGSV,3,1,10,82,66,092,10,73,55,313,27,65,05,008,10,83,33,178,21*6F

5:43:21:393 Nachm. 03/26/17 - $GLGSV,3,2,10,81,26,033,17,71,11,272,12,74,,,,80,66,098,*56

5:43:21:394 Nachm. 03/26/17 - $GLGSV,3,3,10,79,09,116,,72,18,323,*6B

5:43:21:394 Nachm. 03/26/17 - $GPGGA,154318.0,5208.423135,N,01138.445640,E,1,07,1.0,57.8,M,45.0,M,,*6A

5:43:21:394 Nachm. 03/26/17 - $GNGNS,154318.0,5208.423135,N,01138.445640,E,AA,08,1.0,57.8,45.0,,*51

5:43:21:394 Nachm. 03/26/17 - $GPVTG,263.2,T,262.8,M,1.4,N,2.6,K,A*29

5:43:21:394 Nachm. 03/26/17 - $GPRMC,154318.0,A,5208.423135,N,01138.445640,E,1.4,263.2,260317,0.4,E,A*0B

5:43:21:394 Nachm. 03/26/17 - $GPGSA,A,2,06,12,14,24,25,29,32,,,,,,1.4,1.0,0.9*35

5:43:21:395 Nachm. 03/26/17 - $GNGSA,A,2,06,12,14,24,25,29,32,,,,,,1.4,1.0,0.9*2B

5:43:21:395 Nachm. 03/26/17 - $GNGSA,A,2,73,,,,,,,,,,,,1.4,1.0,0.9*24

5:43:22:384 Nachm. 03/26/17 - $GPGSV,3,1,11,06,26,057,16,12,67,068,17,14,31,296,20,24,35,149,10*73

5:43:22:384 Nachm. 03/26/17 - $GPGSV,3,2,11,25,61,277,26,29,25,206,15,32,33,267,20,02,31,105,*76

5:43:22:384 Nachm. 03/26/17 - $GPGSV,3,3,11,03,02,355,,19,10,043,,31,15,307,*47

5:43:22:387 Nachm. 03/26/17 - $GLGSV,3,1,10,82,66,092,10,73,55,313,26,65,05,008,10,83,33,178,22*6D

5:43:22:389 Nachm. 03/26/17 - $GLGSV,3,2,10,81,26,033,17,71,11,272,12,74,,,,80,66,098,*56

5:43:22:391 Nachm. 03/26/17 - $GLGSV,3,3,10,79,09,116,,72,18,323,*6B

5:43:22:392 Nachm. 03/26/17 - $GPGGA,154319.0,5208.423180,N,01138.447119,E,1,07,1.0,58.6,M,45.0,M,,*6D

5:43:22:392 Nachm. 03/26/17 - $GNGNS,154319.0,5208.423180,N,01138.447119,E,AA,08,1.0,58.6,45.0,,*56

5:43:22:392 Nachm. 03/26/17 - $GPVTG,263.2,T,262.8,M,1.2,N,2.2,K,A*2B

5:43:22:392 Nachm. 03/26/17 - $GPRMC,154319.0,A,5208.423180,N,01138.447119,E,1.2,263.2,260317,0.4,E,A*0B

5:43:22:392 Nachm. 03/26/17 - $GPGSA,A,2,06,12,14,24,25,29,32,,,,,,1.4,1.0,0.9*35

5:43:22:392 Nachm. 03/26/17 - $GNGSA,A,2,06,12,14,24,25,29,32,,,,,,1.4,1.0,0.9*2B

5:43:22:392 Nachm. 03/26/17 - $GNGSA,A,2,73,,,,,,,,,,,,1.4,1.0,0.9*24

5:43:23:384 Nachm. 03/26/17 - $GPGSV,3,1,11,06,26,057,16,12,67,068,17,14,31,296,19,24,35,149,10*79

5:43:23:385 Nachm. 03/26/17 - $GPGSV,3,2,11,25,61,277,24,29,25,206,15,32,33,267,18,02,31,105,*7F

5:43:23:385 Nachm. 03/26/17 - $GPGSV,3,3,11,03,02,355,,19,10,043,,31,15,307,*47

5:43:23:385 Nachm. 03/26/17 - $GLGSV,3,1,10,82,66,092,10,73,55,313,25,65,05,008,10,83,33,178,18*67

5:43:23:387 Nachm. 03/26/17 - $GLGSV,3,2,10,81,26,033,17,71,11,272,12,74,,,,80,66,098,*56

5:43:23:389 Nachm. 03/26/17 - $GLGSV,3,3,10,79,09,116,,72,18,323,*6B

5:43:23:389 Nachm. 03/26/17 - $GPGGA,154320.0,5208.423817,N,01138.446905,E,1,07,1.0,57.3,M,45.0,M,,*6E

5:43:23:389 Nachm. 03/26/17 - $GNGNS,154320.0,5208.423817,N,01138.446905,E,AA,08,1.0,57.3,45.0,,*55

5:43:23:389 Nachm. 03/26/17 - $GPVTG,263.2,T,262.8,M,1.2,N,2.3,K,A*2A

5:43:23:389 Nachm. 03/26/17 - $GPRMC,154320.0,A,5208.423817,N,01138.446905,E,1.2,263.2,260317,0.4,E,A*02

5:43:23:389 Nachm. 03/26/17 - $GPGSA,A,2,06,12,14,24,25,29,32,,,,,,1.4,1.0,0.9*35

5:43:23:389 Nachm. 03/26/17 - $GNGSA,A,2,06,12,14,24,25,29,32,,,,,,1.4,1.0,0.9*2B

5:43:23:390 Nachm. 03/26/17 - $GNGSA,A,2,73,,,,,,,,,,,,1.4,1.0,0.9*24

5:43:24:384 Nachm. 03/26/17 - $GPGSV,3,1,11,06,26,057,17,12,67,068,17,14,31,296,22,24,35,149,13*73

5:43:24:385 Nachm. 03/26/17 - $GPGSV,3,2,11,25,61,277,25,29,25,206,15,32,33,267,21,02,31,105,*74

5:43:24:385 Nachm. 03/26/17 - $GPGSV,3,3,11,03,02,355,,19,10,043,,31,15,307,*47

5:43:24:386 Nachm. 03/26/17 - $GLGSV,3,1,10,82,66,092,10,73,55,313,27,65,05,008,10,83,33,178,23*6D

5:43:24:387 Nachm. 03/26/17 - $GLGSV,3,2,10,81,26,033,17,71,11,272,12,74,,,,80,66,098,*56

5:43:24:387 Nachm. 03/26/17 - $GLGSV,3,3,10,79,09,116,,72,18,323,*6B

5:43:24:388 Nachm. 03/26/17 - $GPGGA,154321.0,5208.424292,N,01138.447252,E,1,06,1.1,56.8,M,45.0,M,,*6D

5:43:24:388 Nachm. 03/26/17 - $GNGNS,154321.0,5208.424292,N,01138.447252,E,AA,07,1.1,56.8,45.0,,*58

5:43:24:388 Nachm. 03/26/17 - $GPVTG,263.2,T,262.8,M,0.8,N,1.5,K,A*24

5:43:24:388 Nachm. 03/26/17 - $GPRMC,154321.0,A,5208.424292,N,01138.447252,E,0.8,263.2,260317,0.4,E,A*00

5:43:24:388 Nachm. 03/26/17 - $GPGSA,A,2,06,14,24,25,29,32,,,,,,,1.4,1.1,0.9*37

5:43:24:388 Nachm. 03/26/17 - $GNGSA,A,2,06,14,24,25,29,32,,,,,,,1.4,1.1,0.9*29

5:43:24:405 Nachm. 03/26/17 - $GNGSA,A,2,73,,,,,,,,,,,,1.4,1.1,0.9*25

5:43:25:384 Nachm. 03/26/17 - $GPGSV,3,1,11,06,26,057,19,12,67,068,17,14,31,296,22,24,35,149,13*7D

5:43:25:384 Nachm. 03/26/17 - $GPGSV,3,2,11,25,61,277,26,29,25,206,15,32,33,267,21,02,31,105,*77

5:43:25:384 Nachm. 03/26/17 - $GPGSV,3,3,11,03,02,355,,19,10,043,,31,15,307,*47

5:43:25:384 Nachm. 03/26/17 - $GLGSV,3,1,10,82,66,092,10,73,55,313,27,65,05,008,10,83,33,178,23*6D

5:43:25:388 Nachm. 03/26/17 - $GLGSV,3,2,10,81,26,033,17,71,11,272,8,74,,,,80,66,098,*6D

5:43:25:391 Nachm. 03/26/17 - $GLGSV,3,3,10,79,09,116,,72,18,323,*6B

5:43:25:391 Nachm. 03/26/17 - $GPGGA,154322.0,5208.424549,N,01138.447257,E,1,06,1.1,56.0,M,45.0,M,,*62

5:43:25:391 Nachm. 03/26/17 - $GNGNS,154322.0,5208.424549,N,01138.447257,E,AA,07,1.1,56.0,45.0,,*57

5:43:25:392 Nachm. 03/26/17 - $GPVTG,263.2,T,262.8,M,0.5,N,0.9,K,A*24

5:43:25:393 Nachm. 03/26/17 - $GPRMC,154322.0,A,5208.424549,N,01138.447257,E,0.5,263.2,260317,0.4,E,A*0A

5:43:25:393 Nachm. 03/26/17 - $GPGSA,A,2,06,14,24,25,29,32,,,,,,,1.4,1.1,0.9*37

5:43:25:393 Nachm. 03/26/17 - $GNGSA,A,2,06,14,24,25,29,32,,,,,,,1.4,1.1,0.9*29

5:43:25:393 Nachm. 03/26/17 - $GNGSA,A,2,73,,,,,,,,,,,,1.4,1.1,0.9*25

5:43:26:384 Nachm. 03/26/17 - $GPGSV,3,1,11,06,26,057,21,12,67,068,17,14,31,296,23,24,35,149,15*71

5:43:26:385 Nachm. 03/26/17 - $GPGSV,3,2,11,25,61,277,25,29,25,206,15,32,33,267,23,02,31,105,*76

5:43:26:385 Nachm. 03/26/17 - $GPGSV,3,3,11,03,02,355,,19,10,043,,31,15,307,*47

5:43:26:385 Nachm. 03/26/17 - $GLGSV,3,1,10,82,66,092,10,73,55,313,28,65,05,008,10,83,33,178,22*63

5:43:26:387 Nachm. 03/26/17 - $GLGSV,3,2,10,81,26,033,17,71,11,272,8,74,,,,80,66,098,*6D

5:43:26:388 Nachm. 03/26/17 - $GLGSV,3,3,10,79,09,116,,72,18,323,*6B

5:43:26:388 Nachm. 03/26/17 - $GPGGA,154323.0,5208.424556,N,01138.447210,E,1,06,1.1,57.2,M,45.0,M,,*6D

5:43:26:388 Nachm. 03/26/17 - $GNGNS,154323.0,5208.424556,N,01138.447210,E,AA,07,1.1,57.2,45.0,,*58

5:43:26:389 Nachm. 03/26/17 - $GPVTG,263.2,T,262.8,M,0.9,N,1.7,K,A*27

5:43:26:389 Nachm. 03/26/17 - $GPRMC,154323.0,A,5208.424556,N,01138.447210,E,0.9,263.2,260317,0.4,E,A*0A

5:43:26:389 Nachm. 03/26/17 - $GPGSA,A,2,06,14,24,25,29,32,,,,,,,1.4,1.1,0.9*37

5:43:26:389 Nachm. 03/26/17 - $GNGSA,A,2,06,14,24,25,29,32,,,,,,,1.4,1.1,0.9*29

5:43:26:390 Nachm. 03/26/17 - $GNGSA,A,2,73,,,,,,,,,,,,1.4,1.1,0.9*25

5:43:27:384 Nachm. 03/26/17 - $GPGSV,3,1,11,06,26,057,20,12,67,068,12,14,31,296,22,24,35,149,15*74

5:43:27:386 Nachm. 03/26/17 - $GPGSV,3,2,11,25,61,277,25,29,25,206,15,32,33,267,23,02,31,105,*76

5:43:27:386 Nachm. 03/26/17 - $GPGSV,3,3,11,03,02,355,,19,10,043,,31,15,307,*47

5:43:27:386 Nachm. 03/26/17 - $GLGSV,3,1,10,82,66,092,10,73,55,313,26,65,05,008,10,83,33,178,23*6C

5:43:27:391 Nachm. 03/26/17 - $GLGSV,3,2,10,81,26,033,17,71,11,272,8,74,,,,80,66,098,*6D

5:43:27:391 Nachm. 03/26/17 - $GLGSV,3,3,10,79,09,116,,72,18,323,*6B

5:43:27:391 Nachm. 03/26/17 - $GPGGA,154324.0,5208.424428,N,01138.447336,E,1,06,1.3,57.3,M,45.0,M,,*64

5:43:27:391 Nachm. 03/26/17 - $GNGNS,154324.0,5208.424428,N,01138.447336,E,AA,07,1.3,57.3,45.0,,*51

5:43:27:392 Nachm. 03/26/17 - $GPVTG,263.2,T,262.8,M,1.2,N,2.2,K,A*2B

5:43:27:392 Nachm. 03/26/17 - $GPRMC,154324.0,A,5208.424428,N,01138.447336,E,1.2,263.2,260317,0.4,E,A*0A

5:43:27:392 Nachm. 03/26/17 - $GPGSA,A,2,06,12,14,24,25,32,,,,,,,1.5,1.3,0.9*3C

5:43:27:394 Nachm. 03/26/17 - $GNGSA,A,2,06,12,14,24,25,32,,,,,,,1.5,1.3,0.9*22

5:43:27:394 Nachm. 03/26/17 - $GNGSA,A,2,73,,,,,,,,,,,,1.5,1.3,0.9*26

5:43:28:384 Nachm. 03/26/17 - $GPGSV,3,1,11,06,26,057,20,12,67,068,17,14,31,296,21,24,35,149,15*72

5:43:28:385 Nachm. 03/26/17 - $GPGSV,3,2,11,25,61,277,21,29,25,206,15,32,33,267,19,02,31,105,*7B

5:43:28:385 Nachm. 03/26/17 - $GPGSV,3,3,11,03,02,355,,19,10,043,,31,15,307,*47

5:43:28:386 Nachm. 03/26/17 - $GLGSV,3,1,10,82,66,092,10,73,55,313,25,65,05,008,10,83,33,178,21*6D

5:43:28:394 Nachm. 03/26/17 - $GLGSV,3,2,10,81,26,033,17,71,11,272,8,74,,,,80,66,098,*6D

5:43:28:395 Nachm. 03/26/17 - $GLGSV,3,3,10,79,09,116,,72,18,323,*6B

5:43:28:396 Nachm. 03/26/17 - $GPGGA,154325.0,5208.424011,N,01138.447968,E,1,06,1.3,57.4,M,45.0,M,,*6D

5:43:28:396 Nachm. 03/26/17 - $GNGNS,154325.0,5208.424011,N,01138.447968,E,AA,07,1.3,57.4,45.0,,*58

5:43:28:396 Nachm. 03/26/17 - $GPVTG,141.1,T,140.7,M,2.2,N,4.2,K,A*22

5:43:28:397 Nachm. 03/26/17 - $GPRMC,154325.0,A,5208.424011,N,01138.447968,E,2.2,141.1,260317,0.4,E,A*07

5:43:28:397 Nachm. 03/26/17 - $GPGSA,A,2,06,12,14,24,25,32,,,,,,,1.5,1.3,0.9*3C

5:43:28:398 Nachm. 03/26/17 - $GNGSA,A,2,06,12,14,24,25,32,,,,,,,1.5,1.3,0.9*22

5:43:28:399 Nachm. 03/26/17 - $GNGSA,A,2,73,,,,,,,,,,,,1.5,1.3,0.9*26

5:43:29:384 Nachm. 03/26/17 - $GPGSV,3,1,11,06,26,057,16,12,67,068,19,14,31,296,21,24,35,149,15*79

5:43:29:385 Nachm. 03/26/17 - $GPGSV,3,2,11,25,61,277,21,29,25,206,15,32,33,267,19,02,31,105,*7B

5:43:29:385 Nachm. 03/26/17 - $GPGSV,3,3,11,03,02,355,,19,10,043,,31,15,307,*47

5:43:29:386 Nachm. 03/26/17 - $GLGSV,3,1,10,82,66,092,10,73,55,313,24,65,05,008,10,83,33,178,22*6F

5:43:29:390 Nachm. 03/26/17 - $GLGSV,3,2,10,81,26,033,17,71,11,272,8,74,,,,80,66,098,*6D

5:43:29:390 Nachm. 03/26/17 - $GLGSV,3,3,10,79,09,116,,72,18,323,*6B

5:43:29:390 Nachm. 03/26/17 - $GPGGA,154326.0,5208.423765,N,01138.447121,E,1,06,1.3,56.9,M,45.0,M,,*64

5:43:29:391 Nachm. 03/26/17 - $GNGNS,154326.0,5208.423765,N,01138.447121,E,AA,07,1.3,56.9,45.0,,*51

5:43:29:391 Nachm. 03/26/17 - $GPVTG,141.1,T,140.7,M,1.9,N,3.6,K,A*29

5:43:29:391 Nachm. 03/26/17 - $GPRMC,154326.0,A,5208.423765,N,01138.447121,E,1.9,141.1,260317,0.4,E,A*0A

5:43:29:391 Nachm. 03/26/17 - $GPGSA,A,2,06,12,14,24,25,32,,,,,,,1.5,1.3,0.9*3C

5:43:29:391 Nachm. 03/26/17 - $GNGSA,A,2,06,12,14,24,25,32,,,,,,,1.5,1.3,0.9*22

5:43:29:391 Nachm. 03/26/17 - $GNGSA,A,2,73,,,,,,,,,,,,1.5,1.3,0.9*26

5:43:30:384 Nachm. 03/26/17 - $GPGSV,3,1,11,06,26,057,16,12,67,068,20,14,31,296,20,24,35,149,15*72

5:43:30:414 Nachm. 03/26/17 - $GPGSV,3,2,11,25,61,277,20,29,25,206,15,32,33,267,17,02,31,105,*74

5:43:30:414 Nachm. 03/26/17 - $GPGSV,3,3,11,03,02,355,,19,10,043,,31,15,307,*47

5:43:30:415 Nachm. 03/26/17 - $GLGSV,3,1,10,82,66,092,10,73,55,313,24,65,05,008,10,83,33,178,21*6C

5:43:30:415 Nachm. 03/26/17 - $GLGSV,3,2,10,81,26,033,17,71,11,272,8,74,,,,80,66,098,*6D

5:43:30:416 Nachm. 03/26/17 - $GLGSV,3,3,10,79,09,116,,72,18,323,*6B

5:43:30:419 Nachm. 03/26/17 - $GPGGA,154327.0,5208.423759,N,01138.446396,E,1,06,1.3,56.2,M,45.0,M,,*6E

5:43:30:419 Nachm. 03/26/17 - $GNGNS,154327.0,5208.423759,N,01138.446396,E,AA,07,1.3,56.2,45.0,,*5B

5:43:30:420 Nachm. 03/26/17 - $GPVTG,141.1,T,140.7,M,1.7,N,3.2,K,A*23

5:43:30:420 Nachm. 03/26/17 - $GPRMC,154327.0,A,5208.423759,N,01138.446396,E,1.7,141.1,260317,0.4,E,A*05

5:43:30:422 Nachm. 03/26/17 - $GPGSA,A,2,06,12,14,24,25,32,,,,,,,1.5,1.3,0.9*3C

5:43:30:422 Nachm. 03/26/17 - $GNGSA,A,2,06,12,14,24,25,32,,,,,,,1.5,1.3,0.9*22

5:43:30:422 Nachm. 03/26/17 - $GNGSA,A,2,73,,,,,,,,,,,,1.5,1.3,0.9*26

5:43:31:384 Nachm. 03/26/17 - $GPGSV,3,1,11,06,26,057,16,12,67,068,19,14,31,296,17,24,35,149,15*7C

5:43:31:385 Nachm. 03/26/17 - $GPGSV,3,2,11,25,61,277,22,29,25,206,13,32,33,267,17,02,31,105,*70

5:43:31:386 Nachm. 03/26/17 - $GPGSV,3,3,11,03,02,355,,19,10,043,,31,15,307,*47

5:43:31:389 Nachm. 03/26/17 - $GLGSV,3,1,10,82,66,092,10,73,55,313,24,65,05,008,10,83,33,178,22*6F

5:43:31:392 Nachm. 03/26/17 - $GLGSV,3,2,10,81,26,033,17,71,11,272,8,74,,,,80,66,098,*6D

5:43:31:393 Nachm. 03/26/17 - $GLGSV,3,3,10,79,09,116,,72,18,323,*6B

5:43:31:393 Nachm. 03/26/17 - $GPGGA,154328.0,5208.423012,N,01138.445161,E,1,07,1.0,55.8,M,45.0,M,,*6B

5:43:31:393 Nachm. 03/26/17 - $GNGNS,154328.0,5208.423012,N,01138.445161,E,AA,08,1.0,55.8,45.0,,*50

5:43:31:393 Nachm. 03/26/17 - $GPVTG,141.1,T,140.7,M,2.1,N,3.8,K,A*2C

5:43:31:394 Nachm. 03/26/17 - $GPRMC,154328.0,A,5208.423012,N,01138.445161,E,2.1,141.1,260317,0.4,E,A*0E

5:43:31:394 Nachm. 03/26/17 - $GPGSA,A,2,06,12,14,24,25,29,32,,,,,,1.4,1.0,0.9*35

5:43:31:394 Nachm. 03/26/17 - $GNGSA,A,2,06,12,14,24,25,29,32,,,,,,1.4,1.0,0.9*2B

5:43:31:394 Nachm. 03/26/17 - $GNGSA,A,2,73,,,,,,,,,,,,1.4,1.0,0.9*24

5:43:32:385 Nachm. 03/26/17 - $GPGSV,3,1,11,06,26,057,17,12,67,068,20,14,31,296,19,24,35,149,15*79

5:43:32:385 Nachm. 03/26/17 - $GPGSV,3,2,11,25,61,277,25,29,25,206,19,32,33,267,16,02,31,105,*7C

5:43:32:388 Nachm. 03/26/17 - $GPGSV,3,3,11,03,02,355,,19,10,043,,31,15,307,*47

5:43:32:388 Nachm. 03/26/17 - $GLGSV,3,1,10,82,66,092,10,73,55,313,25,65,05,008,10,83,33,178,22*6E

5:43:32:389 Nachm. 03/26/17 - $GLGSV,3,2,10,81,26,033,17,71,11,272,8,74,,,,80,66,098,*6D

5:43:32:389 Nachm. 03/26/17 - $GLGSV,3,3,10,79,09,116,,72,18,323,*6B

5:43:32:390 Nachm. 03/26/17 - $GPGGA,154329.0,5208.422935,N,01138.443862,E,1,07,1.0,56.8,M,45.0,M,,*68

5:43:32:390 Nachm. 03/26/17 - $GNGNS,154329.0,5208.422935,N,01138.443862,E,AA,08,1.0,56.8,45.0,,*53

5:43:32:390 Nachm. 03/26/17 - $GPVTG,141.1,T,140.7,M,1.4,N,2.6,K,A*25

5:43:32:390 Nachm. 03/26/17 - $GPRMC,154329.0,A,5208.422935,N,01138.443862,E,1.4,141.1,260317,0.4,E,A*08

5:43:32:390 Nachm. 03/26/17 - $GPGSA,A,2,06,12,14,24,25,29,32,,,,,,1.4,1.0,0.9*35

5:43:32:390 Nachm. 03/26/17 - $GNGSA,A,2,06,12,14,24,25,29,32,,,,,,1.4,1.0,0.9*2B

5:43:32:390 Nachm. 03/26/17 - $GNGSA,A,2,73,,,,,,,,,,,,1.4,1.0,0.9*24

5:43:33:385 Nachm. 03/26/17 - $GPGSV,3,1,11,06,26,057,21,12,67,068,21,14,31,296,19,24,35,149,15*7D

5:43:33:390 Nachm. 03/26/17 - $GPGSV,3,2,11,25,61,277,24,29,25,206,18,32,33,267,19,02,31,105,*73

5:43:33:390 Nachm. 03/26/17 - $GPGSV,3,3,11,03,02,355,,19,10,043,,31,15,307,*47

5:43:33:390 Nachm. 03/26/17 - $GLGSV,3,1,10,82,66,092,10,73,55,313,24,65,05,008,10,83,33,178,22*6F

5:43:33:397 Nachm. 03/26/17 - $GLGSV,3,2,10,81,26,033,17,71,11,272,8,74,,,,80,66,098,*6D

5:43:33:397 Nachm. 03/26/17 - $GLGSV,3,3,10,79,09,116,,72,18,323,*6B

5:43:33:397 Nachm. 03/26/17 - $GPGGA,154330.0,5208.424415,N,01138.443595,E,1,06,1.3,56.5,M,45.0,M,,*63

5:43:33:397 Nachm. 03/26/17 - $GNGNS,154330.0,5208.424415,N,01138.443595,E,AA,07,1.3,56.5,45.0,,*56

5:43:33:397 Nachm. 03/26/17 - $GPVTG,141.1,T,140.7,M,0.0,N,0.0,K,A*24

5:43:33:398 Nachm. 03/26/17 - $GPRMC,154330.0,A,5208.424415,N,01138.443595,E,0.0,141.1,260317,0.4,E,A*09

5:43:33:399 Nachm. 03/26/17 - $GPGSA,A,2,06,12,14,25,29,32,,,,,,,1.6,1.3,0.9*32

5:43:33:399 Nachm. 03/26/17 - $GNGSA,A,2,06,12,14,25,29,32,,,,,,,1.6,1.3,0.9*2C

5:43:33:399 Nachm. 03/26/17 - $GNGSA,A,2,73,,,,,,,,,,,,1.6,1.3,0.9*25

5:43:34:386 Nachm. 03/26/17 - $GPGSV,3,1,11,06,26,057,18,12,67,068,21,14,31,296,20,24,35,149,15*7D

5:43:34:387 Nachm. 03/26/17 - $GPGSV,3,2,11,25,61,277,23,29,25,206,18,32,33,267,18,02,31,105,*75

5:43:34:391 Nachm. 03/26/17 - $GPGSV,3,3,11,03,02,355,,19,10,043,,31,15,307,*47

5:43:34:400 Nachm. 03/26/17 - $GLGSV,3,1,10,82,66,092,10,73,55,313,24,65,05,008,10,83,33,178,21*6C

5:43:34:402 Nachm. 03/26/17 - $GLGSV,3,2,10,81,26,033,17,71,11,272,8,74,,,,80,66,098,*6D

5:43:34:402 Nachm. 03/26/17 - $GLGSV,3,3,10,79,09,116,,72,18,323,*6B

5:43:34:403 Nachm. 03/26/17 - $GPGGA,154331.0,5208.425200,N,01138.442958,E,1,06,1.3,54.2,M,45.0,M,,*68

5:43:34:403 Nachm. 03/26/17 - $GNGNS,154331.0,5208.425200,N,01138.442958,E,AA,07,1.3,54.2,45.0,,*5D

5:43:34:403 Nachm. 03/26/17 - $GPVTG,141.1,T,140.7,M,0.8,N,1.5,K,A*28

5:43:34:404 Nachm. 03/26/17 - $GPRMC,154331.0,A,5208.425200,N,01138.442958,E,0.8,141.1,260317,0.4,E,A*0F

5:43:34:404 Nachm. 03/26/17 - $GPGSA,A,2,06,12,14,25,29,32,,,,,,,1.6,1.3,0.9*32

5:43:34:404 Nachm. 03/26/17 - $GNGSA,A,2,06,12,14,25,29,32,,,,,,,1.6,1.3,0.9*2C

5:43:34:419 Nachm. 03/26/17 - $GNGSA,A,2,73,,,,,,,,,,,,1.6,1.3,0.9*25

5:43:35:387 Nachm. 03/26/17 - $GPGSV,3,1,11,06,26,057,19,12,67,068,20,14,31,296,20,24,35,149,15*7D

5:43:35:387 Nachm. 03/26/17 - $GPGSV,3,2,11,25,61,277,24,29,25,206,17,32,33,267,17,02,31,105,*72

5:43:35:389 Nachm. 03/26/17 - $GPGSV,3,3,11,03,02,355,,19,10,043,,31,15,307,*47

5:43:35:389 Nachm. 03/26/17 - $GLGSV,3,1,10,82,66,092,10,73,55,313,24,65,05,008,10,83,33,178,20*6D

5:43:35:397 Nachm. 03/26/17 - $GLGSV,3,2,10,81,26,033,17,71,11,272,8,74,,,,80,66,098,*6D

5:43:35:400 Nachm. 03/26/17 - $GLGSV,3,3,10,79,09,116,,72,18,323,*6B

5:43:35:400 Nachm. 03/26/17 - $GPGGA,154332.0,5208.425853,N,01138.441503,E,1,06,1.3,54.0,M,45.0,M,,*64

5:43:35:401 Nachm. 03/26/17 - $GNGNS,154332.0,5208.425853,N,01138.441503,E,AA,07,1.3,54.0,45.0,,*51

5:43:35:401 Nachm. 03/26/17 - $GPVTG,141.1,T,140.7,M,0.0,N,0.0,K,A*24

5:43:35:405 Nachm. 03/26/17 - $GPRMC,154332.0,A,5208.425853,N,01138.441503,E,0.0,141.1,260317,0.4,E,A*09

5:43:35:408 Nachm. 03/26/17 - $GPGSA,A,2,06,12,14,25,29,32,,,,,,,1.6,1.3,0.9*32

5:43:35:409 Nachm. 03/26/17 - $GNGSA,A,2,06,12,14,25,29,32,,,,,,,1.6,1.3,0.9*2C

5:43:35:409 Nachm. 03/26/17 - $GNGSA,A,2,73,,,,,,,,,,,,1.6,1.3,0.9*25

5:43:36:387 Nachm. 03/26/17 - $GPGSV,3,1,11,06,26,057,19,12,67,068,20,14,31,296,21,24,35,149,15*7C

5:43:36:388 Nachm. 03/26/17 - $GPGSV,3,2,11,25,61,277,22,29,25,206,17,32,33,267,19,02,31,105,*7A

5:43:36:391 Nachm. 03/26/17 - $GPGSV,3,3,11,03,02,355,,19,10,043,,31,15,307,*47

5:43:36:392 Nachm. 03/26/17 - $GLGSV,3,1,10,82,66,092,10,73,55,313,23,65,05,008,10,83,33,178,19*60

5:43:36:398 Nachm. 03/26/17 - $GLGSV,3,2,10,81,26,033,17,71,11,272,8,74,,,,80,66,098,*6D

5:43:36:402 Nachm. 03/26/17 - $GLGSV,3,3,10,79,09,116,,72,18,323,*6B

5:43:36:403 Nachm. 03/26/17 - $GPGGA,154333.0,5208.425267,N,01138.442063,E,1,06,1.3,54.8,M,45.0,M,,*60

5:43:36:403 Nachm. 03/26/17 - $GNGNS,154333.0,5208.425267,N,01138.442063,E,AA,07,1.3,54.8,45.0,,*55

5:43:36:404 Nachm. 03/26/17 - $GPVTG,141.1,T,140.7,M,0.6,N,1.2,K,A*21

5:43:36:404 Nachm. 03/26/17 - $GPRMC,154333.0,A,5208.425267,N,01138.442063,E,0.6,141.1,260317,0.4,E,A*03

5:43:36:404 Nachm. 03/26/17 - $GPGSA,A,2,06,12,14,25,29,32,,,,,,,1.6,1.3,0.9*32

5:43:36:405 Nachm. 03/26/17 - $GNGSA,A,2,06,12,14,25,29,32,,,,,,,1.6,1.3,0.9*2C

5:43:36:405 Nachm. 03/26/17 - $GNGSA,A,2,73,,,,,,,,,,,,1.6,1.3,0.9*25

5:43:37:386 Nachm. 03/26/17 - $GPGSV,3,1,11,06,26,057,19,12,67,068,20,14,31,296,19,24,35,149,15*77

5:43:37:386 Nachm. 03/26/17 - $GPGSV,3,2,11,25,61,277,23,29,25,206,18,32,33,267,21,02,31,105,*7F

5:43:37:387 Nachm. 03/26/17 - $GPGSV,3,3,11,03,02,355,,19,10,043,,31,15,307,*47

5:43:37:390 Nachm. 03/26/17 - $GLGSV,3,1,10,82,66,092,10,73,55,313,23,65,05,008,10,83,33,178,22*68

5:43:37:398 Nachm. 03/26/17 - $GLGSV,3,2,10,81,26,033,17,71,11,272,8,74,,,,80,66,098,*6D

5:43:37:405 Nachm. 03/26/17 - $GLGSV,3,3,10,79,09,116,,72,18,323,*6B

5:43:37:408 Nachm. 03/26/17 - $GPGGA,154334.0,5208.425734,N,01138.441446,E,1,06,1.3,56.1,M,45.0,M,,*6F

5:43:37:408 Nachm. 03/26/17 - $GNGNS,154334.0,5208.425734,N,01138.441446,E,AA,07,1.3,56.1,45.0,,*5A

5:43:37:408 Nachm. 03/26/17 - $GPVTG,141.1,T,140.7,M,0.4,N,0.8,K,A*28

5:43:37:409 Nachm. 03/26/17 - $GPRMC,154334.0,A,5208.425734,N,01138.441446,E,0.4,141.1,260317,0.4,E,A*05

5:43:37:409 Nachm. 03/26/17 - $GPGSA,A,2,06,12,14,25,29,32,,,,,,,1.6,1.3,0.9*32

5:43:37:410 Nachm. 03/26/17 - $GNGSA,A,2,06,12,14,25,29,32,,,,,,,1.6,1.3,0.9*2C

5:43:37:410 Nachm. 03/26/17 - $GNGSA,A,2,73,,,,,,,,,,,,1.6,1.3,0.9*25

5:43:38:386 Nachm. 03/26/17 - $GPGSV,3,1,11,06,26,057,19,12,67,068,19,14,31,296,21,24,35,149,15*76

5:43:38:388 Nachm. 03/26/17 - $GPGSV,3,2,11,25,61,277,23,29,25,206,21,32,33,267,24,02,31,105,*70

5:43:38:391 Nachm. 03/26/17 - $GPGSV,3,3,11,03,02,355,,19,10,043,,31,15,307,*47

5:43:38:393 Nachm. 03/26/17 - $GLGSV,3,1,10,82,66,092,10,73,55,313,23,65,05,008,10,83,33,178,19*60

5:43:38:402 Nachm. 03/26/17 - $GLGSV,3,2,10,81,26,033,17,71,11,272,16,74,,,,80,66,098,*52

5:43:38:404 Nachm. 03/26/17 - $GLGSV,3,3,10,79,09,116,,72,18,323,*6B

5:43:38:404 Nachm. 03/26/17 - $GPGGA,154335.0,5208.427605,N,01138.441477,E,1,06,1.3,56.0,M,45.0,M,,*6C

5:43:38:405 Nachm. 03/26/17 - $GNGNS,154335.0,5208.427605,N,01138.441477,E,AA,07,1.3,56.0,45.0,,*59

5:43:38:406 Nachm. 03/26/17 - $GPVTG,141.1,T,140.7,M,0.6,N,1.1,K,A*22

5:43:38:407 Nachm. 03/26/17 - $GPRMC,154335.0,A,5208.427605,N,01138.441477,E,0.6,141.1,260317,0.4,E,A*05

5:43:38:407 Nachm. 03/26/17 - $GPGSA,A,2,06,12,14,25,29,32,,,,,,,1.6,1.3,0.9*32

5:43:38:408 Nachm. 03/26/17 - $GNGSA,A,2,06,12,14,25,29,32,,,,,,,1.6,1.3,0.9*2C

5:43:38:408 Nachm. 03/26/17 - $GNGSA,A,2,73,,,,,,,,,,,,1.6,1.3,0.9*25


