5:39:26:386 Nachm. 03/26/17 - $GPGSV,3,1,12,03,02,355,20,06,26,060,20,12,69,067,23,14,30,299,24*70

5:39:26:387 Nachm. 03/26/17 - $GPGSV,3,2,12,24,38,147,18,25,59,275,20,29,24,206,29,31,13,307,16*75

5:39:26:392 Nachm. 03/26/17 - $GPGSV,3,3,12,32,34,270,24,02,30,106,,19,12,043,,22,,,*45

5:39:26:394 Nachm. 03/26/17 - $GLGSV,3,1,09,82,66,095,17,73,54,312,19,80,67,095,14,79,09,115,11*61

5:39:26:396 Nachm. 03/26/17 - $GLGSV,3,2,09,83,32,178,19,81,28,033,16,71,13,274,16,72,18,324,20*6C

5:39:26:397 Nachm. 03/26/17 - $GLGSV,3,3,09,65,04,008,*53

5:39:26:397 Nachm. 03/26/17 - $GPGGA,153923.0,5208.359189,N,01138.413040,E,1,08,1.0,67.0,M,45.0,M,,*63

5:39:26:399 Nachm. 03/26/17 - $GNGNS,153923.0,5208.359189,N,01138.413040,E,AA,09,1.0,67.0,45.0,,*56

5:39:26:402 Nachm. 03/26/17 - $GPVTG,1.1,T,0.7,M,0.0,N,0.0,K,A*24

5:39:26:403 Nachm. 03/26/17 - $GPRMC,153923.0,A,5208.359189,N,01138.413040,E,0.0,1.1,260317,0.4,E,A*06

5:39:26:403 Nachm. 03/26/17 - $GPGSA,A,2,06,12,14,24,25,29,31,32,,,,,1.3,1.0,0.9*30

5:39:26:404 Nachm. 03/26/17 - $GNGSA,A,2,06,12,14,24,25,29,31,32,,,,,1.3,1.0,0.9*2E

5:39:26:404 Nachm. 03/26/17 - $GNGSA,A,2,73,,,,,,,,,,,,1.3,1.0,0.9*23

5:39:27:387 Nachm. 03/26/17 - $GPGSV,3,1,12,03,02,355,20,06,26,059,22,12,68,067,14,14,30,298,19*72

5:39:27:388 Nachm. 03/26/17 - $GPGSV,3,2,12,24,37,147,19,25,60,277,24,29,24,206,28,31,14,307,16*71

5:39:27:390 Nachm. 03/26/17 - $GPGSV,3,3,12,32,34,268,20,02,30,106,,19,11,043,,22,,,*4B

5:39:27:401 Nachm. 03/26/17 - $GLGSV,3,1,09,82,66,095,14,73,54,312,14,80,67,095,14,79,09,115,11*6F

5:39:27:407 Nachm. 03/26/17 - $GLGSV,3,2,09,83,32,178,18,81,28,033,16,71,13,274,12,72,18,324,20*69

5:39:27:408 Nachm. 03/26/17 - $GLGSV,3,3,09,65,04,008,*53

5:39:27:408 Nachm. 03/26/17 - $GPGGA,153924.0,5208.359103,N,01138.412807,E,1,08,1.0,67.4,M,45.0,M,,*68

5:39:27:409 Nachm. 03/26/17 - $GNGNS,153924.0,5208.359103,N,01138.412807,E,AA,09,1.0,67.4,45.0,,*5D

5:39:27:409 Nachm. 03/26/17 - $GPVTG,1.1,T,0.7,M,0.0,N,0.0,K,A*24

5:39:27:410 Nachm. 03/26/17 - $GPRMC,153924.0,A,5208.359103,N,01138.412807,E,0.0,1.1,260317,0.4,E,A*09

5:39:27:411 Nachm. 03/26/17 - $GPGSA,A,2,06,12,14,24,25,29,31,32,,,,,1.3,1.0,0.9*30

5:39:27:411 Nachm. 03/26/17 - $GNGSA,A,2,06,12,14,24,25,29,31,32,,,,,1.3,1.0,0.9*2E

5:39:27:412 Nachm. 03/26/17 - $GNGSA,A,2,73,,,,,,,,,,,,1.3,1.0,0.9*23

5:39:28:386 Nachm. 03/26/17 - $GPGSV,3,1,12,03,02,355,20,06,26,059,22,12,68,067,14,14,30,298,21*79

5:39:28:388 Nachm. 03/26/17 - $GPGSV,3,2,12,24,37,147,22,25,60,277,23,29,24,206,26,31,14,307,16*70

5:39:28:392 Nachm. 03/26/17 - $GPGSV,3,3,12,32,34,268,19,02,30,106,,19,11,043,,22,,,*41

5:39:28:393 Nachm. 03/26/17 - $GLGSV,3,1,09,82,66,095,17,73,54,312,18,80,67,095,14,79,09,115,11*60

5:39:28:394 Nachm. 03/26/17 - $GLGSV,3,2,09,83,32,178,19,81,28,033,16,71,13,274,12,72,18,324,20*68

5:39:28:395 Nachm. 03/26/17 - $GLGSV,3,3,09,65,04,008,*53

5:39:28:396 Nachm. 03/26/17 - $GPGGA,153925.0,5208.359283,N,01138.412658,E,1,08,1.0,67.9,M,45.0,M,,*6B

5:39:28:400 Nachm. 03/26/17 - $GNGNS,153925.0,5208.359283,N,01138.412658,E,AA,09,1.0,67.9,45.0,,*5E

5:39:28:400 Nachm. 03/26/17 - $GPVTG,1.1,T,0.7,M,0.0,N,0.0,K,A*24

5:39:28:402 Nachm. 03/26/17 - $GPRMC,153925.0,A,5208.359283,N,01138.412658,E,0.0,1.1,260317,0.4,E,A*07

5:39:28:403 Nachm. 03/26/17 - $GPGSA,A,2,06,12,14,24,25,29,31,32,,,,,1.3,1.0,0.9*30

5:39:28:406 Nachm. 03/26/17 - $GNGSA,A,2,06,12,14,24,25,29,31,32,,,,,1.3,1.0,0.9*2E

5:39:28:407 Nachm. 03/26/17 - $GNGSA,A,2,73,,,,,,,,,,,,1.3,1.0,0.9*23

5:39:29:385 Nachm. 03/26/17 - $GPGSV,3,1,12,03,02,355,20,06,26,059,19,12,68,067,18,14,30,298,24*78

5:39:29:386 Nachm. 03/26/17 - $GPGSV,3,2,12,24,37,147,21,25,60,277,23,29,24,206,24,31,14,307,16*71

5:39:29:387 Nachm. 03/26/17 - $GPGSV,3,3,12,32,34,268,27,02,30,106,,19,11,043,,22,,,*4C

5:39:29:387 Nachm. 03/26/17 - $GLGSV,3,1,09,82,66,095,20,73,54,312,24,80,67,095,14,79,09,115,11*6B

5:39:29:391 Nachm. 03/26/17 - $GLGSV,3,2,09,83,32,178,19,81,28,033,16,71,13,274,12,72,18,324,20*68

5:39:29:392 Nachm. 03/26/17 - $GLGSV,3,3,09,65,04,008,*53

5:39:29:393 Nachm. 03/26/17 - $GPGGA,153926.0,5208.359385,N,01138.412479,E,1,08,1.0,68.1,M,45.0,M,,*69

5:39:29:395 Nachm. 03/26/17 - $GNGNS,153926.0,5208.359385,N,01138.412479,E,AA,09,1.0,68.1,45.0,,*5C

5:39:29:396 Nachm. 03/26/17 - $GPVTG,1.1,T,0.7,M,0.0,N,0.0,K,A*24

5:39:29:397 Nachm. 03/26/17 - $GPRMC,153926.0,A,5208.359385,N,01138.412479,E,0.0,1.1,260317,0.4,E,A*02

5:39:29:398 Nachm. 03/26/17 - $GPGSA,A,2,06,12,14,24,25,29,31,32,,,,,1.3,1.0,0.9*30

5:39:29:399 Nachm. 03/26/17 - $GNGSA,A,2,06,12,14,24,25,29,31,32,,,,,1.3,1.0,0.9*2E

5:39:29:399 Nachm. 03/26/17 - $GNGSA,A,2,73,,,,,,,,,,,,1.3,1.0,0.9*23

5:39:30:387 Nachm. 03/26/17 - $GPGSV,3,1,12,03,02,355,20,06,26,059,19,12,68,067,20,14,30,298,20*77

5:39:30:388 Nachm. 03/26/17 - $GPGSV,3,2,12,24,37,147,22,25,60,277,20,29,24,206,27,31,14,307,16*72

5:39:30:389 Nachm. 03/26/17 - $GPGSV,3,3,12,32,34,268,20,02,30,106,,19,11,043,,22,,,*4B

5:39:30:393 Nachm. 03/26/17 - $GLGSV,3,1,09,82,66,095,19,73,54,312,26,80,67,095,14,79,09,115,11*63

5:39:30:394 Nachm. 03/26/17 - $GLGSV,3,2,09,83,32,178,19,81,28,033,16,71,13,274,12,72,18,324,14*6F

5:39:30:395 Nachm. 03/26/17 - $GLGSV,3,3,09,65,04,008,*53

5:39:30:404 Nachm. 03/26/17 - $GPGGA,153927.0,5208.359507,N,01138.412421,E,1,08,1.0,68.0,M,45.0,M,,*68

5:39:30:408 Nachm. 03/26/17 - $GNGNS,153927.0,5208.359507,N,01138.412421,E,AA,09,1.0,68.0,45.0,,*5D

5:39:30:408 Nachm. 03/26/17 - $GPVTG,1.1,T,0.7,M,0.0,N,0.0,K,A*24

5:39:30:408 Nachm. 03/26/17 - $GPRMC,153927.0,A,5208.359507,N,01138.412421,E,0.0,1.1,260317,0.4,E,A*02

5:39:30:409 Nachm. 03/26/17 - $GPGSA,A,2,06,12,14,24,25,29,31,32,,,,,1.3,1.0,0.9*30

5:39:30:409 Nachm. 03/26/17 - $GNGSA,A,2,06,12,14,24,25,29,31,32,,,,,1.3,1.0,0.9*2E

5:39:30:409 Nachm. 03/26/17 - $GNGSA,A,2,73,,,,,,,,,,,,1.3,1.0,0.9*23

5:39:31:388 Nachm. 03/26/17 - $GPGSV,3,1,12,03,02,355,20,06,26,059,19,12,68,067,22,14,30,298,24*71

5:39:31:389 Nachm. 03/26/17 - $GPGSV,3,2,12,24,37,147,23,25,60,277,23,29,24,206,25,31,14,307,19*7D

5:39:31:390 Nachm. 03/26/17 - $GPGSV,3,3,12,32,34,268,29,02,30,106,,19,11,043,,22,,,*42

5:39:31:403 Nachm. 03/26/17 - $GLGSV,3,1,09,82,66,095,21,73,54,312,20,80,67,095,11,79,09,115,11*6B

5:39:31:405 Nachm. 03/26/17 - $GLGSV,3,2,09,83,32,178,19,81,28,033,16,71,13,274,12,72,18,324,14*6F

5:39:31:409 Nachm. 03/26/17 - $GLGSV,3,3,09,65,04,008,*53

5:39:31:413 Nachm. 03/26/17 - $GPGGA,153928.0,5208.359621,N,01138.412157,E,1,08,1.0,68.4,M,45.0,M,,*60

5:39:31:413 Nachm. 03/26/17 - $GNGNS,153928.0,5208.359621,N,01138.412157,E,AA,09,1.0,68.4,45.0,,*55

5:39:31:414 Nachm. 03/26/17 - $GPVTG,1.1,T,0.7,M,0.0,N,0.0,K,A*24

5:39:31:414 Nachm. 03/26/17 - $GPRMC,153928.0,A,5208.359621,N,01138.412157,E,0.0,1.1,260317,0.4,E,A*0E

5:39:31:415 Nachm. 03/26/17 - $GPGSA,A,2,06,12,14,24,25,29,31,32,,,,,1.3,1.0,0.9*30

5:39:31:415 Nachm. 03/26/17 - $GNGSA,A,2,06,12,14,24,25,29,31,32,,,,,1.3,1.0,0.9*2E

5:39:31:415 Nachm. 03/26/17 - $GNGSA,A,2,73,,,,,,,,,,,,1.3,1.0,0.9*23

5:39:32:387 Nachm. 03/26/17 - $GPGSV,3,1,12,03,02,355,20,06,26,059,24,12,68,067,19,14,30,298,26*75

5:39:32:388 Nachm. 03/26/17 - $GPGSV,3,2,12,24,37,147,22,25,60,277,26,29,24,206,29,31,14,307,19*75

5:39:32:389 Nachm. 03/26/17 - $GPGSV,3,3,12,32,34,268,26,02,30,106,,19,11,043,,22,,,*4D

5:39:32:390 Nachm. 03/26/17 - $GLGSV,3,1,09,82,66,095,19,73,54,312,23,80,67,095,11,79,09,115,11*63

5:39:32:390 Nachm. 03/26/17 - $GLGSV,3,2,09,83,32,178,15,81,28,033,16,71,13,274,14,72,18,324,14*65

5:39:32:391 Nachm. 03/26/17 - $GLGSV,3,3,09,65,04,008,*53

5:39:32:401 Nachm. 03/26/17 - $GPGGA,153929.0,5208.359686,N,01138.412182,E,1,08,1.0,68.9,M,45.0,M,,*69

5:39:32:408 Nachm. 03/26/17 - $GNGNS,153929.0,5208.359686,N,01138.412182,E,AA,09,1.0,68.9,45.0,,*5C

5:39:32:408 Nachm. 03/26/17 - $GPVTG,1.1,T,0.7,M,0.0,N,0.0,K,A*24

5:39:32:412 Nachm. 03/26/17 - $GPRMC,153929.0,A,5208.359686,N,01138.412182,E,0.0,1.1,260317,0.4,E,A*0A

5:39:32:412 Nachm. 03/26/17 - $GPGSA,A,2,06,12,14,24,25,29,31,32,,,,,1.3,1.0,0.9*30

5:39:32:413 Nachm. 03/26/17 - $GNGSA,A,2,06,12,14,24,25,29,31,32,,,,,1.3,1.0,0.9*2E

5:39:32:413 Nachm. 03/26/17 - $GNGSA,A,2,73,,,,,,,,,,,,1.3,1.0,0.9*23

5:39:33:387 Nachm. 03/26/17 - $GPGSV,3,1,12,06,26,059,24,12,68,067,17,14,30,298,24,24,37,147,24*7F

5:39:33:388 Nachm. 03/26/17 - $GPGSV,3,2,12,25,60,277,26,29,24,206,28,31,14,307,17,32,34,268,23*71

5:39:33:389 Nachm. 03/26/17 - $GPGSV,3,3,12,02,30,106,,03,02,355,,19,11,043,,22,,,*41

5:39:33:390 Nachm. 03/26/17 - $GLGSV,3,1,09,82,66,095,18,73,54,312,21,80,67,095,11,79,09,115,11*60

5:39:33:390 Nachm. 03/26/17 - $GLGSV,3,2,09,83,32,178,19,81,28,033,16,71,13,274,17,72,18,324,16*68

5:39:33:391 Nachm. 03/26/17 - $GLGSV,3,3,09,65,04,008,*53

5:39:33:408 Nachm. 03/26/17 - $GPGGA,153930.0,5208.359677,N,01138.412036,E,1,08,1.0,68.8,M,45.0,M,,*60

5:39:33:416 Nachm. 03/26/17 - $GNGNS,153930.0,5208.359677,N,01138.412036,E,AA,09,1.0,68.8,45.0,,*55

5:39:33:426 Nachm. 03/26/17 - $GPVTG,1.1,T,0.7,M,0.0,N,0.0,K,A*24

5:39:33:426 Nachm. 03/26/17 - $GPRMC,153930.0,A,5208.359677,N,01138.412036,E,0.0,1.1,260317,0.4,E,A*02

5:39:33:426 Nachm. 03/26/17 - $GPGSA,A,2,06,12,14,24,25,29,31,32,,,,,1.3,1.0,0.9*30

5:39:33:427 Nachm. 03/26/17 - $GNGSA,A,2,06,12,14,24,25,29,31,32,,,,,1.3,1.0,0.9*2E

5:39:33:427 Nachm. 03/26/17 - $GNGSA,A,2,73,,,,,,,,,,,,1.3,1.0,0.9*23

5:39:34:387 Nachm. 03/26/17 - $GPGSV,3,1,12,06,26,059,25,12,68,067,16,14,30,298,24,24,37,147,25*7E

5:39:34:388 Nachm. 03/26/17 - $GPGSV,3,2,12,25,60,277,28,29,24,206,29,31,14,307,17,32,34,268,24*79

5:39:34:391 Nachm. 03/26/17 - $GPGSV,3,3,12,02,30,106,,03,02,355,,19,11,043,,22,,,*41

5:39:34:400 Nachm. 03/26/17 - $GLGSV,3,1,09,82,66,095,17,73,54,312,21,80,67,095,11,79,09,115,11*6F

5:39:34:402 Nachm. 03/26/17 - $GLGSV,3,2,09,83,32,178,19,81,28,033,16,71,13,274,17,72,18,324,16*68

5:39:34:404 Nachm. 03/26/17 - $GLGSV,3,3,09,65,04,008,*53

5:39:34:405 Nachm. 03/26/17 - $GPGGA,153931.0,5208.359698,N,01138.411957,E,1,08,1.0,68.8,M,45.0,M,,*6D

5:39:34:408 Nachm. 03/26/17 - $GNGNS,153931.0,5208.359698,N,01138.411957,E,AA,09,1.0,68.8,45.0,,*58

5:39:34:408 Nachm. 03/26/17 - $GPVTG,1.1,T,0.7,M,0.0,N,0.0,K,A*24

5:39:34:409 Nachm. 03/26/17 - $GPRMC,153931.0,A,5208.359698,N,01138.411957,E,0.0,1.1,260317,0.4,E,A*0F

5:39:34:409 Nachm. 03/26/17 - $GPGSA,A,2,06,12,14,24,25,29,31,32,,,,,1.3,1.0,0.9*30

5:39:34:410 Nachm. 03/26/17 - $GNGSA,A,2,06,12,14,24,25,29,31,32,,,,,1.3,1.0,0.9*2E

5:39:34:411 Nachm. 03/26/17 - $GNGSA,A,2,73,,,,,,,,,,,,1.3,1.0,0.9*23

5:39:35:387 Nachm. 03/26/17 - $GPGSV,3,1,12,06,26,059,27,12,68,067,22,14,30,298,26,24,37,147,20*7C

5:39:35:388 Nachm. 03/26/17 - $GPGSV,3,2,12,25,60,277,32,29,24,206,29,31,14,307,18,32,34,268,31*79

5:39:35:388 Nachm. 03/26/17 - $GPGSV,3,3,12,02,30,106,,03,02,355,,19,11,043,,22,,,*41

5:39:35:389 Nachm. 03/26/17 - $GLGSV,3,1,09,82,66,095,19,73,54,312,22,80,67,095,12,79,09,115,11*61

5:39:35:389 Nachm. 03/26/17 - $GLGSV,3,2,09,83,32,178,19,81,28,033,12,71,13,274,17,72,18,324,16*6C

5:39:35:390 Nachm. 03/26/17 - $GLGSV,3,3,09,65,04,008,*53

5:39:35:397 Nachm. 03/26/17 - $GPGGA,153932.0,5208.359732,N,01138.411978,E,1,08,1.0,68.5,M,45.0,M,,*6F

5:39:35:398 Nachm. 03/26/17 - $GNGNS,153932.0,5208.359732,N,01138.411978,E,AA,09,1.0,68.5,45.0,,*5A

5:39:35:398 Nachm. 03/26/17 - $GPVTG,1.1,T,0.7,M,0.0,N,0.0,K,A*24

5:39:35:399 Nachm. 03/26/17 - $GPRMC,153932.0,A,5208.359732,N,01138.411978,E,0.0,1.1,260317,0.4,E,A*00

5:39:35:399 Nachm. 03/26/17 - $GPGSA,A,2,06,12,14,24,25,29,31,32,,,,,1.3,1.0,0.9*30

5:39:35:400 Nachm. 03/26/17 - $GNGSA,A,2,06,12,14,24,25,29,31,32,,,,,1.3,1.0,0.9*2E

5:39:35:401 Nachm. 03/26/17 - $GNGSA,A,2,73,,,,,,,,,,,,1.3,1.0,0.9*23

5:39:36:386 Nachm. 03/26/17 - $GPGSV,3,1,12,06,26,059,27,12,68,067,22,14,30,298,25,24,37,147,20*7F

5:39:36:388 Nachm. 03/26/17 - $GPGSV,3,2,12,25,60,277,32,29,24,206,29,31,14,307,22,32,34,268,32*73

5:39:36:388 Nachm. 03/26/17 - $GPGSV,3,3,12,02,30,106,,03,02,355,,19,11,043,,22,,,*41

5:39:36:389 Nachm. 03/26/17 - $GLGSV,3,1,09,82,66,095,20,73,54,312,18,80,67,095,12,79,09,115,11*62

5:39:36:390 Nachm. 03/26/17 - $GLGSV,3,2,09,83,32,178,19,81,28,033,16,71,13,274,17,72,18,324,14*6A

5:39:36:390 Nachm. 03/26/17 - $GLGSV,3,3,09,65,04,008,*53

5:39:36:401 Nachm. 03/26/17 - $GPGGA,153933.0,5208.359771,N,01138.411956,E,1,08,1.0,68.2,M,45.0,M,,*62

5:39:36:402 Nachm. 03/26/17 - $GNGNS,153933.0,5208.359771,N,01138.411956,E,AA,09,1.0,68.2,45.0,,*57

5:39:36:402 Nachm. 03/26/17 - $GPVTG,1.1,T,0.7,M,0.0,N,0.0,K,A*24

5:39:36:403 Nachm. 03/26/17 - $GPRMC,153933.0,A,5208.359771,N,01138.411956,E,0.0,1.1,260317,0.4,E,A*0A

5:39:36:403 Nachm. 03/26/17 - $GPGSA,A,2,06,12,14,24,25,29,31,32,,,,,1.3,1.0,0.9*30

5:39:36:404 Nachm. 03/26/17 - $GNGSA,A,2,06,12,14,24,25,29,31,32,,,,,1.3,1.0,0.9*2E

5:39:36:404 Nachm. 03/26/17 - $GNGSA,A,2,73,,,,,,,,,,,,1.3,1.0,0.9*23

5:39:37:387 Nachm. 03/26/17 - $GPGSV,3,1,12,06,26,059,27,12,68,067,22,14,30,298,25,24,37,147,20*7F

5:39:37:388 Nachm. 03/26/17 - $GPGSV,3,2,12,25,60,277,33,29,24,206,28,31,14,307,22,32,34,268,32*73

5:39:37:388 Nachm. 03/26/17 - $GPGSV,3,3,12,02,30,106,,03,02,355,,19,11,043,,22,,,*41

5:39:37:389 Nachm. 03/26/17 - $GLGSV,3,1,09,82,66,095,20,73,54,312,18,80,67,095,12,79,09,115,11*62

5:39:37:390 Nachm. 03/26/17 - $GLGSV,3,2,09,83,32,178,19,81,28,033,19,71,13,274,15,72,18,324,14*67

5:39:37:390 Nachm. 03/26/17 - $GLGSV,3,3,09,65,04,008,*53

5:39:37:402 Nachm. 03/26/17 - $GPGGA,153934.0,5208.359724,N,01138.411989,E,1,08,1.0,68.4,M,45.0,M,,*61

5:39:37:403 Nachm. 03/26/17 - $GNGNS,153934.0,5208.359724,N,01138.411989,E,AA,09,1.0,68.4,45.0,,*54

5:39:37:403 Nachm. 03/26/17 - $GPVTG,1.1,T,0.7,M,0.0,N,0.0,K,A*24

5:39:37:403 Nachm. 03/26/17 - $GPRMC,153934.0,A,5208.359724,N,01138.411989,E,0.0,1.1,260317,0.4,E,A*0F

5:39:37:404 Nachm. 03/26/17 - $GPGSA,A,2,06,12,14,24,25,29,31,32,,,,,1.3,1.0,0.9*30

5:39:37:404 Nachm. 03/26/17 - $GNGSA,A,2,06,12,14,24,25,29,31,32,,,,,1.3,1.0,0.9*2E

5:39:37:405 Nachm. 03/26/17 - $GNGSA,A,2,73,,,,,,,,,,,,1.3,1.0,0.9*23

5:39:38:387 Nachm. 03/26/17 - $GPGSV,3,1,12,06,26,059,27,12,68,067,23,14,30,298,23,24,37,147,20*78

5:39:38:388 Nachm. 03/26/17 - $GPGSV,3,2,12,25,60,277,33,29,24,206,27,31,14,307,23,32,34,268,32*7D

5:39:38:389 Nachm. 03/26/17 - $GPGSV,3,3,12,02,30,106,,03,02,355,,19,11,043,,22,,,*41

5:39:38:389 Nachm. 03/26/17 - $GLGSV,3,1,09,82,66,095,19,73,54,312,14,80,67,095,12,79,09,115,11*64

5:39:38:392 Nachm. 03/26/17 - $GLGSV,3,2,09,83,32,178,19,81,28,033,20,71,13,274,15,72,18,324,14*6D

5:39:38:393 Nachm. 03/26/17 - $GLGSV,3,3,09,65,04,008,*53

5:39:38:402 Nachm. 03/26/17 - $GPGGA,153935.0,5208.359701,N,01138.411999,E,1,08,1.0,68.5,M,45.0,M,,*67

5:39:38:403 Nachm. 03/26/17 - $GNGNS,153935.0,5208.359701,N,01138.411999,E,AA,09,1.0,68.5,45.0,,*52

5:39:38:405 Nachm. 03/26/17 - $GPVTG,1.1,T,0.7,M,0.0,N,0.0,K,A*24

5:39:38:407 Nachm. 03/26/17 - $GPRMC,153935.0,A,5208.359701,N,01138.411999,E,0.0,1.1,260317,0.4,E,A*08

5:39:38:407 Nachm. 03/26/17 - $GPGSA,A,2,06,12,14,24,25,29,31,32,,,,,1.3,1.0,0.9*30

5:39:38:408 Nachm. 03/26/17 - $GNGSA,A,2,06,12,14,24,25,29,31,32,,,,,1.3,1.0,0.9*2E

5:39:38:409 Nachm. 03/26/17 - $GNGSA,A,2,73,,,,,,,,,,,,1.3,1.0,0.9*23

5:39:39:385 Nachm. 03/26/17 - $GPGSV,3,1,12,06,26,059,28,12,68,067,21,14,30,298,22,24,37,147,20*74

5:39:39:387 Nachm. 03/26/17 - $GPGSV,3,2,12,25,60,277,33,29,24,206,25,31,14,307,22,32,34,268,32*7E

5:39:39:402 Nachm. 03/26/17 - $GPGSV,3,3,12,02,30,106,,03,02,355,,19,11,043,,22,,,*41

5:39:39:404 Nachm. 03/26/17 - $GLGSV,3,1,09,82,66,095,20,73,54,312,21,80,67,095,13,79,09,115,11*69

5:39:39:404 Nachm. 03/26/17 - $GLGSV,3,2,09,83,32,178,19,81,28,033,20,71,13,274,15,72,18,324,14*6D

5:39:39:405 Nachm. 03/26/17 - $GLGSV,3,3,09,65,04,008,*53

5:39:39:405 Nachm. 03/26/17 - $GPGGA,153936.0,5208.359687,N,01138.411991,E,1,08,1.0,68.5,M,45.0,M,,*63

5:39:39:405 Nachm. 03/26/17 - $GNGNS,153936.0,5208.359687,N,01138.411991,E,AA,09,1.0,68.5,45.0,,*56

5:39:39:405 Nachm. 03/26/17 - $GPVTG,1.1,T,0.7,M,0.0,N,0.0,K,A*24

5:39:39:405 Nachm. 03/26/17 - $GPRMC,153936.0,A,5208.359687,N,01138.411991,E,0.0,1.1,260317,0.4,E,A*0C

5:39:39:405 Nachm. 03/26/17 - $GPGSA,A,2,06,12,14,24,25,29,31,32,,,,,1.3,1.0,0.9*30

5:39:39:406 Nachm. 03/26/17 - $GNGSA,A,2,06,12,14,24,25,29,31,32,,,,,1.3,1.0,0.9*2E

5:39:39:406 Nachm. 03/26/17 - $GNGSA,A,2,73,,,,,,,,,,,,1.3,1.0,0.9*23

5:39:40:385 Nachm. 03/26/17 - $GPGSV,3,1,12,06,26,059,28,12,68,067,20,14,30,298,22,24,37,147,15*73

5:39:40:386 Nachm. 03/26/17 - $GPGSV,3,2,12,25,60,277,33,29,24,206,25,31,14,307,21,32,34,268,32*7D

5:39:40:388 Nachm. 03/26/17 - $GPGSV,3,3,12,02,30,106,,03,02,355,,19,11,043,,22,,,*41

5:39:40:388 Nachm. 03/26/17 - $GLGSV,3,1,09,82,66,095,20,73,54,312,20,80,67,095,18,79,09,115,12*60

5:39:40:389 Nachm. 03/26/17 - $GLGSV,3,2,09,83,32,178,19,81,28,033,23,71,13,274,15,72,18,324,14*6E

5:39:40:389 Nachm. 03/26/17 - $GLGSV,3,3,09,65,04,008,*53

5:39:40:390 Nachm. 03/26/17 - $GPGGA,153937.0,5208.359653,N,01138.411998,E,1,08,1.0,68.6,M,45.0,M,,*61

5:39:40:393 Nachm. 03/26/17 - $GNGNS,153937.0,5208.359653,N,01138.411998,E,AA,09,1.0,68.6,45.0,,*54

5:39:40:396 Nachm. 03/26/17 - $GPVTG,1.1,T,0.7,M,0.0,N,0.0,K,A*24

5:39:40:396 Nachm. 03/26/17 - $GPRMC,153937.0,A,5208.359653,N,01138.411998,E,0.0,1.1,260317,0.4,E,A*0D

5:39:40:397 Nachm. 03/26/17 - $GPGSA,A,2,06,12,14,24,25,29,31,32,,,,,1.3,1.0,0.9*30

5:39:40:397 Nachm. 03/26/17 - $GNGSA,A,2,06,12,14,24,25,29,31,32,,,,,1.3,1.0,0.9*2E

5:39:40:398 Nachm. 03/26/17 - $GNGSA,A,2,73,,,,,,,,,,,,1.3,1.0,0.9*23

5:39:41:388 Nachm. 03/26/17 - $GPGSV,3,1,12,06,26,059,28,12,68,067,20,14,30,298,22,24,37,147,18*7E

5:39:41:390 Nachm. 03/26/17 - $GPGSV,3,2,12,25,60,277,33,29,24,206,24,31,14,307,21,32,34,268,32*7C

5:39:41:393 Nachm. 03/26/17 - $GPGSV,3,3,12,02,30,106,,03,02,355,,19,11,043,,22,,,*41

5:39:41:394 Nachm. 03/26/17 - $GLGSV,3,1,09,82,66,095,21,73,54,312,21,80,67,095,18,79,09,115,16*64

5:39:41:395 Nachm. 03/26/17 - $GLGSV,3,2,09,83,32,178,19,81,28,033,21,71,13,274,15,72,18,324,14*6C

5:39:41:403 Nachm. 03/26/17 - $GLGSV,3,3,09,65,04,008,*53

5:39:41:405 Nachm. 03/26/17 - $GPGGA,153938.0,5208.359632,N,01138.411999,E,1,08,1.0,68.7,M,45.0,M,,*69

5:39:41:406 Nachm. 03/26/17 - $GNGNS,153938.0,5208.359632,N,01138.411999,E,AA,09,1.0,68.7,45.0,,*5C

5:39:41:408 Nachm. 03/26/17 - $GPVTG,1.1,T,0.7,M,0.0,N,0.0,K,A*24

5:39:41:409 Nachm. 03/26/17 - $GPRMC,153938.0,A,5208.359632,N,01138.411999,E,0.0,1.1,260317,0.4,E,A*04

5:39:41:411 Nachm. 03/26/17 - $GPGSA,A,2,06,12,14,24,25,29,31,32,,,,,1.3,1.0,0.9*30

5:39:41:412 Nachm. 03/26/17 - $GNGSA,A,2,06,12,14,24,25,29,31,32,,,,,1.3,1.0,0.9*2E

5:39:41:414 Nachm. 03/26/17 - $GNGSA,A,2,73,,,,,,,,,,,,1.3,1.0,0.9*23

5:39:42:388 Nachm. 03/26/17 - $GPGSV,3,1,12,06,26,059,28,12,68,067,19,14,30,298,23,24,37,147,18*75

5:39:42:389 Nachm. 03/26/17 - $GPGSV,3,2,12,25,60,277,34,29,24,206,26,31,14,307,22,32,34,268,33*7B

5:39:42:390 Nachm. 03/26/17 - $GPGSV,3,3,12,02,30,106,,03,02,355,,19,11,043,,22,,,*41

5:39:42:391 Nachm. 03/26/17 - $GLGSV,3,1,09,82,66,095,23,73,54,312,23,80,67,095,15,79,09,115,16*69

5:39:42:391 Nachm. 03/26/17 - $GLGSV,3,2,09,83,32,178,19,81,28,033,22,71,13,274,15,72,18,324,14*6F

5:39:42:392 Nachm. 03/26/17 - $GLGSV,3,3,09,65,04,008,*53

5:39:42:393 Nachm. 03/26/17 - $GPGGA,153939.0,5208.359598,N,01138.411998,E,1,08,1.0,68.8,M,45.0,M,,*65

5:39:42:400 Nachm. 03/26/17 - $GNGNS,153939.0,5208.359598,N,01138.411998,E,AA,09,1.0,68.8,45.0,,*50

5:39:42:400 Nachm. 03/26/17 - $GPVTG,1.1,T,0.7,M,0.0,N,0.0,K,A*24

5:39:42:401 Nachm. 03/26/17 - $GPRMC,153939.0,A,5208.359598,N,01138.411998,E,0.0,1.1,260317,0.4,E,A*07

5:39:42:402 Nachm. 03/26/17 - $GPGSA,A,2,06,12,14,24,25,29,31,32,,,,,1.3,1.0,0.9*30

5:39:42:402 Nachm. 03/26/17 - $GNGSA,A,2,06,12,14,24,25,29,31,32,,,,,1.3,1.0,0.9*2E

5:39:42:403 Nachm. 03/26/17 - $GNGSA,A,2,73,,,,,,,,,,,,1.3,1.0,0.9*23

5:39:43:388 Nachm. 03/26/17 - $GPGSV,3,1,12,06,26,059,28,12,68,067,19,14,30,298,23,24,37,147,20*7E

5:39:43:392 Nachm. 03/26/17 - $GPGSV,3,2,12,25,60,277,33,29,24,206,26,31,14,307,23,32,34,268,32*7C

5:39:43:392 Nachm. 03/26/17 - $GPGSV,3,3,12,02,30,106,,03,02,355,,19,11,043,,22,,,*41

5:39:43:393 Nachm. 03/26/17 - $GLGSV,3,1,09,82,66,095,23,73,54,312,23,80,67,095,15,79,09,115,16*69

5:39:43:394 Nachm. 03/26/17 - $GLGSV,3,2,09,83,32,178,19,81,28,033,21,71,13,274,13,72,18,324,14*6A

5:39:43:394 Nachm. 03/26/17 - $GLGSV,3,3,09,65,04,008,*53

5:39:43:403 Nachm. 03/26/17 - $GPGGA,153940.0,5208.359578,N,01138.411999,E,1,08,1.0,68.9,M,45.0,M,,*65

5:39:43:404 Nachm. 03/26/17 - $GNGNS,153940.0,5208.359578,N,01138.411999,E,AA,09,1.0,68.9,45.0,,*50

5:39:43:405 Nachm. 03/26/17 - $GPVTG,1.1,T,0.7,M,0.0,N,0.0,K,A*24

5:39:43:406 Nachm. 03/26/17 - $GPRMC,153940.0,A,5208.359578,N,01138.411999,E,0.0,1.1,260317,0.4,E,A*06

5:39:43:415 Nachm. 03/26/17 - $GPGSA,A,2,06,12,14,24,25,29,31,32,,,,,1.3,1.0,0.9*30

5:39:43:416 Nachm. 03/26/17 - $GNGSA,A,2,06,12,14,24,25,29,31,32,,,,,1.3,1.0,0.9*2E

5:39:43:416 Nachm. 03/26/17 - $GNGSA,A,2,73,,,,,,,,,,,,1.3,1.0,0.9*23

5:39:44:387 Nachm. 03/26/17 - $GPGSV,3,1,12,06,26,059,28,12,68,067,17,14,30,298,22,24,37,147,19*7B

5:39:44:388 Nachm. 03/26/17 - $GPGSV,3,2,12,25,60,277,33,29,24,206,26,31,14,307,23,32,34,268,32*7C

5:39:44:390 Nachm. 03/26/17 - $GPGSV,3,3,12,02,30,106,,03,02,355,,19,11,043,,22,,,*41

5:39:44:402 Nachm. 03/26/17 - $GLGSV,3,1,09,82,66,095,22,73,54,312,24,80,67,095,15,79,09,115,16*6F

5:39:44:404 Nachm. 03/26/17 - $GLGSV,3,2,09,83,32,178,19,81,28,033,20,71,13,274,13,72,18,324,14*6B

5:39:44:405 Nachm. 03/26/17 - $GLGSV,3,3,09,65,04,008,*53

5:39:44:405 Nachm. 03/26/17 - $GPGGA,153941.0,5208.359568,N,01138.412005,E,1,08,1.0,68.9,M,45.0,M,,*6A

5:39:44:406 Nachm. 03/26/17 - $GNGNS,153941.0,5208.359568,N,01138.412005,E,AA,09,1.0,68.9,45.0,,*5F

5:39:44:407 Nachm. 03/26/17 - $GPVTG,1.1,T,0.7,M,0.0,N,0.0,K,A*24

5:39:44:407 Nachm. 03/26/17 - $GPRMC,153941.0,A,5208.359568,N,01138.412005,E,0.0,1.1,260317,0.4,E,A*09

5:39:44:407 Nachm. 03/26/17 - $GPGSA,A,2,06,12,14,24,25,29,31,32,,,,,1.3,1.0,0.9*30

5:39:44:407 Nachm. 03/26/17 - $GNGSA,A,2,06,12,14,24,25,29,31,32,,,,,1.3,1.0,0.9*2E

5:39:44:407 Nachm. 03/26/17 - $GNGSA,A,2,73,,,,,,,,,,,,1.3,1.0,0.9*23

5:39:45:389 Nachm. 03/26/17 - $GPGSV,3,1,12,06,26,059,29,12,68,067,19,14,30,298,23,24,37,147,19*75

5:39:45:390 Nachm. 03/26/17 - $GPGSV,3,2,12,25,60,277,33,29,24,206,27,31,14,307,23,32,34,268,32*7D

5:39:45:390 Nachm. 03/26/17 - $GPGSV,3,3,12,02,30,106,,03,02,355,,19,11,043,,22,,,*41

5:39:45:392 Nachm. 03/26/17 - $GLGSV,3,1,09,82,66,095,23,73,54,312,22,80,67,095,15,79,09,115,16*68

5:39:45:392 Nachm. 03/26/17 - $GLGSV,3,2,09,83,32,178,19,81,28,033,21,71,13,274,13,72,18,324,14*6A

5:39:45:394 Nachm. 03/26/17 - $GLGSV,3,3,09,65,04,008,*53

5:39:45:404 Nachm. 03/26/17 - $GPGGA,153942.0,5208.359559,N,01138.412010,E,1,08,1.0,69.0,M,45.0,M,,*67

5:39:45:407 Nachm. 03/26/17 - $GNGNS,153942.0,5208.359559,N,01138.412010,E,AA,09,1.0,69.0,45.0,,*52

5:39:45:409 Nachm. 03/26/17 - $GPVTG,1.1,T,0.7,M,0.0,N,0.0,K,A*24

5:39:45:413 Nachm. 03/26/17 - $GPRMC,153942.0,A,5208.359559,N,01138.412010,E,0.0,1.1,260317,0.4,E,A*0C

5:39:45:414 Nachm. 03/26/17 - $GPGSA,A,2,06,12,14,24,25,29,31,32,,,,,1.3,1.0,0.9*30

5:39:45:414 Nachm. 03/26/17 - $GNGSA,A,2,06,12,14,24,25,29,31,32,,,,,1.3,1.0,0.9*2E

5:39:45:414 Nachm. 03/26/17 - $GNGSA,A,2,73,,,,,,,,,,,,1.3,1.0,0.9*23

5:39:46:388 Nachm. 03/26/17 - $GPGSV,3,1,12,06,26,059,28,12,68,067,20,14,30,298,23,24,37,147,18*7F

5:39:46:388 Nachm. 03/26/17 - $GPGSV,3,2,12,25,60,277,33,29,24,206,27,31,14,307,23,32,34,268,33*7C

5:39:46:389 Nachm. 03/26/17 - $GPGSV,3,3,12,02,30,106,,03,02,355,,19,11,043,,22,,,*41

5:39:46:393 Nachm. 03/26/17 - $GLGSV,3,1,09,82,66,095,22,73,54,312,23,80,67,095,15,79,09,115,16*68

5:39:46:395 Nachm. 03/26/17 - $GLGSV,3,2,09,83,32,178,19,81,28,033,19,71,13,274,15,72,18,324,14*67

5:39:46:395 Nachm. 03/26/17 - $GLGSV,3,3,09,65,04,008,*53

5:39:46:395 Nachm. 03/26/17 - $GPGGA,153943.0,5208.359555,N,01138.412015,E,1,08,1.0,69.0,M,45.0,M,,*6F

5:39:46:395 Nachm. 03/26/17 - $GNGNS,153943.0,5208.359555,N,01138.412015,E,AA,09,1.0,69.0,45.0,,*5A

5:39:46:396 Nachm. 03/26/17 - $GPVTG,1.1,T,0.7,M,0.0,N,0.0,K,A*24

5:39:46:396 Nachm. 03/26/17 - $GPRMC,153943.0,A,5208.359555,N,01138.412015,E,0.0,1.1,260317,0.4,E,A*04

5:39:46:396 Nachm. 03/26/17 - $GPGSA,A,2,06,12,14,24,25,29,31,32,,,,,1.3,1.0,0.9*30

5:39:46:396 Nachm. 03/26/17 - $GNGSA,A,2,06,12,14,24,25,29,31,32,,,,,1.3,1.0,0.9*2E

5:39:46:397 Nachm. 03/26/17 - $GNGSA,A,2,73,,,,,,,,,,,,1.3,1.0,0.9*23

5:39:47:387 Nachm. 03/26/17 - $GPGSV,3,1,12,06,26,059,28,12,68,067,20,14,30,298,22,24,37,147,20*75

5:39:47:388 Nachm. 03/26/17 - $GPGSV,3,2,12,25,60,277,32,29,24,206,27,31,14,307,22,32,34,268,32*7D

5:39:47:392 Nachm. 03/26/17 - $GPGSV,3,3,12,02,30,106,,03,02,355,,19,11,043,,22,,,*41

5:39:47:400 Nachm. 03/26/17 - $GLGSV,3,1,09,82,66,095,21,73,54,312,23,80,67,095,15,79,09,115,16*6B

5:39:47:401 Nachm. 03/26/17 - $GLGSV,3,2,09,83,32,178,19,81,28,033,22,71,13,274,16,72,18,324,14*6C

5:39:47:402 Nachm. 03/26/17 - $GLGSV,3,3,09,65,04,008,*53

5:39:47:404 Nachm. 03/26/17 - $GPGGA,153944.0,5208.359550,N,01138.412016,E,1,08,1.0,69.0,M,45.0,M,,*6E

5:39:47:404 Nachm. 03/26/17 - $GNGNS,153944.0,5208.359550,N,01138.412016,E,AA,09,1.0,69.0,45.0,,*5B

5:39:47:405 Nachm. 03/26/17 - $GPVTG,1.1,T,0.7,M,0.0,N,0.0,K,A*24

5:39:47:405 Nachm. 03/26/17 - $GPRMC,153944.0,A,5208.359550,N,01138.412016,E,0.0,1.1,260317,0.4,E,A*05

5:39:47:406 Nachm. 03/26/17 - $GPGSA,A,2,06,12,14,24,25,29,31,32,,,,,1.3,1.0,0.9*30

5:39:47:406 Nachm. 03/26/17 - $GNGSA,A,2,06,12,14,24,25,29,31,32,,,,,1.3,1.0,0.9*2E

5:39:47:406 Nachm. 03/26/17 - $GNGSA,A,2,73,,,,,,,,,,,,1.3,1.0,0.9*23

5:39:48:387 Nachm. 03/26/17 - $GPGSV,3,1,12,06,26,059,28,12,68,067,19,14,30,298,22,24,37,147,20*7F

5:39:48:388 Nachm. 03/26/17 - $GPGSV,3,2,12,25,60,277,32,29,24,206,27,31,14,307,21,32,34,268,32*7E

5:39:48:388 Nachm. 03/26/17 - $GPGSV,3,3,12,02,30,106,,03,02,355,,19,11,043,,22,,,*41

5:39:48:390 Nachm. 03/26/17 - $GLGSV,3,1,09,82,66,095,20,73,54,312,22,80,67,095,15,79,09,115,16*6B

5:39:48:398 Nachm. 03/26/17 - $GLGSV,3,2,09,83,32,178,19,81,28,033,20,71,13,274,16,72,18,324,14*6E

5:39:48:403 Nachm. 03/26/17 - $GLGSV,3,3,09,65,04,008,*53

5:39:48:410 Nachm. 03/26/17 - $GPGGA,153945.0,5208.359551,N,01138.412018,E,1,08,1.0,69.0,M,45.0,M,,*60

5:39:48:410 Nachm. 03/26/17 - $GNGNS,153945.0,5208.359551,N,01138.412018,E,AA,09,1.0,69.0,45.0,,*55

5:39:48:411 Nachm. 03/26/17 - $GPVTG,1.1,T,0.7,M,0.0,N,0.0,K,A*24

5:39:48:411 Nachm. 03/26/17 - $GPRMC,153945.0,A,5208.359551,N,01138.412018,E,0.0,1.1,260317,0.4,E,A*0B

5:39:48:412 Nachm. 03/26/17 - $GPGSA,A,2,06,12,14,24,25,29,31,32,,,,,1.3,1.0,0.9*30

5:39:48:412 Nachm. 03/26/17 - $GNGSA,A,2,06,12,14,24,25,29,31,32,,,,,1.3,1.0,0.9*2E

5:39:48:412 Nachm. 03/26/17 - $GNGSA,A,2,73,,,,,,,,,,,,1.3,1.0,0.9*23

5:39:49:388 Nachm. 03/26/17 - $GPGSV,3,1,12,06,26,059,28,12,68,067,21,14,30,298,22,24,37,147,21*75

5:39:49:389 Nachm. 03/26/17 - $GPGSV,3,2,12,25,60,277,31,29,24,206,28,31,14,307,22,32,34,268,31*72

5:39:49:391 Nachm. 03/26/17 - $GPGSV,3,3,12,02,30,106,,03,02,355,,19,11,043,,22,,,*41

5:39:49:403 Nachm. 03/26/17 - $GLGSV,3,1,09,82,66,095,20,73,54,312,20,80,67,095,15,79,09,115,16*69

5:39:49:404 Nachm. 03/26/17 - $GLGSV,3,2,09,83,32,178,19,81,28,033,21,71,13,274,16,72,18,324,14*6F

5:39:49:404 Nachm. 03/26/17 - $GLGSV,3,3,09,65,04,008,*53

5:39:49:405 Nachm. 03/26/17 - $GPGGA,153946.0,5208.359549,N,01138.412012,E,1,08,1.0,69.0,M,45.0,M,,*60

5:39:49:406 Nachm. 03/26/17 - $GNGNS,153946.0,5208.359549,N,01138.412012,E,AA,09,1.0,69.0,45.0,,*55

5:39:49:408 Nachm. 03/26/17 - $GPVTG,1.1,T,0.7,M,0.0,N,0.0,K,A*24

5:39:49:409 Nachm. 03/26/17 - $GPRMC,153946.0,A,5208.359549,N,01138.412012,E,0.0,1.1,260317,0.4,E,A*0B

5:39:49:409 Nachm. 03/26/17 - $GPGSA,A,2,06,12,14,24,25,29,31,32,,,,,1.3,1.0,0.9*30

5:39:49:409 Nachm. 03/26/17 - $GNGSA,A,2,06,12,14,24,25,29,31,32,,,,,1.3,1.0,0.9*2E

5:39:49:409 Nachm. 03/26/17 - $GNGSA,A,2,73,,,,,,,,,,,,1.3,1.0,0.9*23

5:39:50:385 Nachm. 03/26/17 - $GPGSV,3,1,12,06,26,059,28,12,68,067,22,14,30,298,24,24,37,147,20*71

5:39:50:388 Nachm. 03/26/17 - $GPGSV,3,2,12,25,60,277,31,29,24,206,27,31,14,307,20,32,34,268,31*7F

5:39:50:388 Nachm. 03/26/17 - $GPGSV,3,3,12,02,30,106,,03,02,355,,19,11,043,,22,,,*41

5:39:50:388 Nachm. 03/26/17 - $GLGSV,3,1,09,82,66,095,21,73,54,312,19,80,67,095,15,79,09,115,16*62

5:39:50:389 Nachm. 03/26/17 - $GLGSV,3,2,09,83,32,178,19,81,28,033,20,71,13,274,16,72,18,324,17*6D

5:39:50:389 Nachm. 03/26/17 - $GLGSV,3,3,09,65,04,008,*53

5:39:50:389 Nachm. 03/26/17 - $GPGGA,153947.0,5208.359548,N,01138.412008,E,1,08,1.0,69.0,M,45.0,M,,*6B

5:39:50:395 Nachm. 03/26/17 - $GNGNS,153947.0,5208.359548,N,01138.412008,E,AA,09,1.0,69.0,45.0,,*5E

5:39:50:397 Nachm. 03/26/17 - $GPVTG,1.1,T,0.7,M,0.0,N,0.0,K,A*24

5:39:50:397 Nachm. 03/26/17 - $GPRMC,153947.0,A,5208.359548,N,01138.412008,E,0.0,1.1,260317,0.4,E,A*00

5:39:50:399 Nachm. 03/26/17 - $GPGSA,A,2,06,12,14,24,25,29,31,32,,,,,1.3,1.0,0.9*30

5:39:50:399 Nachm. 03/26/17 - $GNGSA,A,2,06,12,14,24,25,29,31,32,,,,,1.3,1.0,0.9*2E

5:39:50:399 Nachm. 03/26/17 - $GNGSA,A,2,73,,,,,,,,,,,,1.3,1.0,0.9*23

5:39:51:385 Nachm. 03/26/17 - $GPGSV,3,1,12,06,26,059,27,12,68,067,21,14,30,298,23,24,37,147,19*70

5:39:51:388 Nachm. 03/26/17 - $GPGSV,3,2,12,25,60,277,30,29,24,206,25,31,14,307,20,32,34,268,30*7D

5:39:51:388 Nachm. 03/26/17 - $GPGSV,3,3,12,02,30,106,,03,02,355,,19,11,043,,22,,,*41

5:39:51:389 Nachm. 03/26/17 - $GLGSV,3,1,09,82,66,095,21,73,54,312,18,80,67,095,15,79,09,115,16*63

5:39:51:390 Nachm. 03/26/17 - $GLGSV,3,2,09,83,32,178,19,81,28,033,16,71,13,274,16,72,18,324,17*68

5:39:51:390 Nachm. 03/26/17 - $GLGSV,3,3,09,65,04,008,*53

5:39:51:391 Nachm. 03/26/17 - $GPGGA,153948.0,5208.359547,N,01138.412008,E,1,08,1.0,69.0,M,45.0,M,,*6B

5:39:51:409 Nachm. 03/26/17 - $GNGNS,153948.0,5208.359547,N,01138.412008,E,AA,09,1.0,69.0,45.0,,*5E

5:39:51:410 Nachm. 03/26/17 - $GPVTG,1.1,T,0.7,M,0.0,N,0.0,K,A*24

5:39:51:411 Nachm. 03/26/17 - $GPRMC,153948.0,A,5208.359547,N,01138.412008,E,0.0,1.1,260317,0.4,E,A*00

5:39:51:411 Nachm. 03/26/17 - $GPGSA,A,2,06,12,14,24,25,29,31,32,,,,,1.3,1.0,0.9*30

5:39:51:412 Nachm. 03/26/17 - $GNGSA,A,2,06,12,14,24,25,29,31,32,,,,,1.3,1.0,0.9*2E

5:39:51:415 Nachm. 03/26/17 - $GNGSA,A,2,73,,,,,,,,,,,,1.3,1.0,0.9*23

5:39:52:383 Nachm. 03/26/17 - $GPGSV,3,1,12,06,26,059,27,12,68,067,21,14,30,298,24,24,37,147,19*77

5:39:52:384 Nachm. 03/26/17 - $GPGSV,3,2,12,25,60,277,30,29,24,206,26,31,14,307,22,32,34,268,31*7D

5:39:52:384 Nachm. 03/26/17 - $GPGSV,3,3,12,02,30,106,,03,02,355,,19,11,043,,22,,,*41

5:39:52:386 Nachm. 03/26/17 - $GLGSV,3,1,09,82,66,095,19,73,54,312,21,80,67,095,14,79,09,115,16*63

5:39:52:396 Nachm. 03/26/17 - $GLGSV,3,2,09,83,32,178,14,81,28,033,18,71,13,274,16,72,18,324,17*6B

5:39:52:397 Nachm. 03/26/17 - $GLGSV,3,3,09,65,04,008,*53

5:39:52:397 Nachm. 03/26/17 - $GPGGA,153949.0,5208.359545,N,01138.412008,E,1,08,1.0,69.0,M,45.0,M,,*68

5:39:52:397 Nachm. 03/26/17 - $GNGNS,153949.0,5208.359545,N,01138.412008,E,AA,09,1.0,69.0,45.0,,*5D

5:39:52:397 Nachm. 03/26/17 - $GPVTG,1.1,T,0.7,M,0.0,N,0.0,K,A*24

5:39:52:398 Nachm. 03/26/17 - $GPRMC,153949.0,A,5208.359545,N,01138.412008,E,0.0,1.1,260317,0.4,E,A*03

5:39:52:398 Nachm. 03/26/17 - $GPGSA,A,2,06,12,14,24,25,29,31,32,,,,,1.3,1.0,0.9*30

5:39:52:398 Nachm. 03/26/17 - $GNGSA,A,2,06,12,14,24,25,29,31,32,,,,,1.3,1.0,0.9*2E

5:39:52:399 Nachm. 03/26/17 - $GNGSA,A,2,73,,,,,,,,,,,,1.3,1.0,0.9*23

5:39:53:386 Nachm. 03/26/17 - $GPGSV,3,1,12,06,26,059,27,12,68,067,22,14,30,298,25,24,37,147,18*74

5:39:53:388 Nachm. 03/26/17 - $GPGSV,3,2,12,25,60,277,28,29,24,206,26,31,14,307,21,32,34,268,32*74

5:39:53:388 Nachm. 03/26/17 - $GPGSV,3,3,12,02,30,106,,03,02,355,,19,11,043,,22,,,*41

5:39:53:394 Nachm. 03/26/17 - $GLGSV,3,1,09,82,66,095,21,73,54,312,22,80,67,095,14,79,09,115,11*6C

5:39:53:395 Nachm. 03/26/17 - $GLGSV,3,2,09,83,32,178,18,81,28,033,17,71,13,274,16,72,18,324,17*68

5:39:53:395 Nachm. 03/26/17 - $GLGSV,3,3,09,65,04,008,*53

5:39:53:397 Nachm. 03/26/17 - $GPGGA,153950.0,5208.359546,N,01138.412007,E,1,08,1.0,69.1,M,45.0,M,,*6D

5:39:53:398 Nachm. 03/26/17 - $GNGNS,153950.0,5208.359546,N,01138.412007,E,AA,09,1.0,69.1,45.0,,*58

5:39:53:398 Nachm. 03/26/17 - $GPVTG,1.1,T,0.7,M,0.0,N,0.0,K,A*24

5:39:53:398 Nachm. 03/26/17 - $GPRMC,153950.0,A,5208.359546,N,01138.412007,E,0.0,1.1,260317,0.4,E,A*07

5:39:53:398 Nachm. 03/26/17 - $GPGSA,A,2,06,12,14,24,25,29,31,32,,,,,1.3,1.0,0.9*30

5:39:53:398 Nachm. 03/26/17 - $GNGSA,A,2,06,12,14,24,25,29,31,32,,,,,1.3,1.0,0.9*2E

5:39:53:399 Nachm. 03/26/17 - $GNGSA,A,2,73,,,,,,,,,,,,1.3,1.0,0.9*23

5:39:54:385 Nachm. 03/26/17 - $GPGSV,3,1,12,06,26,059,28,12,68,067,20,14,30,298,27,24,37,147,19*7A

5:39:54:385 Nachm. 03/26/17 - $GPGSV,3,2,12,25,60,277,27,29,24,206,26,31,14,307,20,32,34,268,31*79

5:39:54:386 Nachm. 03/26/17 - $GPGSV,3,3,12,02,30,106,,03,02,355,,19,11,043,,22,,,*41

5:39:54:389 Nachm. 03/26/17 - $GLGSV,3,1,09,82,66,095,21,73,54,312,21,80,67,095,14,79,09,115,11*6F

5:39:54:390 Nachm. 03/26/17 - $GLGSV,3,2,09,83,32,178,20,81,28,033,19,71,13,274,16,72,18,324,17*6D

5:39:54:391 Nachm. 03/26/17 - $GLGSV,3,3,09,65,04,008,*53

5:39:54:391 Nachm. 03/26/17 - $GPGGA,153951.0,5208.359546,N,01138.412010,E,1,08,1.0,69.0,M,45.0,M,,*6B

5:39:54:392 Nachm. 03/26/17 - $GNGNS,153951.0,5208.359546,N,01138.412010,E,AA,09,1.0,69.0,45.0,,*5E

5:39:54:392 Nachm. 03/26/17 - $GPVTG,1.1,T,0.7,M,0.0,N,0.0,K,A*24

5:39:54:393 Nachm. 03/26/17 - $GPRMC,153951.0,A,5208.359546,N,01138.412010,E,0.0,1.1,260317,0.4,E,A*00

5:39:54:393 Nachm. 03/26/17 - $GPGSA,A,2,06,12,14,24,25,29,31,32,,,,,1.3,1.0,0.9*30

5:39:54:398 Nachm. 03/26/17 - $GNGSA,A,2,06,12,14,24,25,29,31,32,,,,,1.3,1.0,0.9*2E

5:39:54:405 Nachm. 03/26/17 - $GNGSA,A,2,73,,,,,,,,,,,,1.3,1.0,0.9*23

5:39:55:385 Nachm. 03/26/17 - $GPGSV,3,1,12,06,26,059,27,12,68,067,21,14,30,298,27,24,37,147,18*75

5:39:55:386 Nachm. 03/26/17 - $GPGSV,3,2,12,25,60,277,26,29,24,206,27,31,14,307,20,32,34,268,32*7A

5:39:55:386 Nachm. 03/26/17 - $GPGSV,3,3,12,02,30,106,,03,02,355,,19,11,043,,22,,,*41

5:39:55:392 Nachm. 03/26/17 - $GLGSV,3,1,09,82,66,095,19,73,54,312,23,80,67,095,14,79,09,115,11*66

5:39:55:394 Nachm. 03/26/17 - $GLGSV,3,2,09,83,32,178,19,81,28,033,17,71,13,274,16,72,18,324,17*69

5:39:55:396 Nachm. 03/26/17 - $GLGSV,3,3,09,65,04,008,*53

5:39:55:397 Nachm. 03/26/17 - $GPGGA,153952.0,5208.359548,N,01138.412016,E,1,08,1.0,69.0,M,45.0,M,,*60

5:39:55:399 Nachm. 03/26/17 - $GNGNS,153952.0,5208.359548,N,01138.412016,E,AA,09,1.0,69.0,45.0,,*55

5:39:55:407 Nachm. 03/26/17 - $GPVTG,1.1,T,0.7,M,0.0,N,0.0,K,A*24

5:39:55:408 Nachm. 03/26/17 - $GPRMC,153952.0,A,5208.359548,N,01138.412016,E,0.0,1.1,260317,0.4,E,A*0B

5:39:55:408 Nachm. 03/26/17 - $GPGSA,A,2,06,12,14,24,25,29,31,32,,,,,1.3,1.0,0.9*30

5:39:55:411 Nachm. 03/26/17 - $GNGSA,A,2,06,12,14,24,25,29,31,32,,,,,1.3,1.0,0.9*2E

5:39:55:411 Nachm. 03/26/17 - $GNGSA,A,2,73,,,,,,,,,,,,1.3,1.0,0.9*23

5:39:56:385 Nachm. 03/26/17 - $GPGSV,3,1,12,06,26,059,27,12,68,067,21,14,30,298,26,24,37,147,18*74

5:39:56:386 Nachm. 03/26/17 - $GPGSV,3,2,12,25,60,277,27,29,24,206,27,31,14,307,20,32,34,268,32*7B

5:39:56:388 Nachm. 03/26/17 - $GPGSV,3,3,12,02,30,106,,03,02,355,,19,11,043,,22,,,*41

5:39:56:391 Nachm. 03/26/17 - $GLGSV,3,1,09,82,66,095,18,73,54,312,24,80,67,095,14,79,09,115,11*60

5:39:56:392 Nachm. 03/26/17 - $GLGSV,3,2,09,83,32,178,19,81,28,033,19,71,13,274,10,72,18,324,17*61

5:39:56:392 Nachm. 03/26/17 - $GLGSV,3,3,09,65,04,008,*53

5:39:56:407 Nachm. 03/26/17 - $GPGGA,153953.0,5208.359549,N,01138.412021,E,1,08,1.0,69.0,M,45.0,M,,*64

5:39:56:407 Nachm. 03/26/17 - $GNGNS,153953.0,5208.359549,N,01138.412021,E,AA,09,1.0,69.0,45.0,,*51

5:39:56:408 Nachm. 03/26/17 - $GPVTG,1.1,T,0.7,M,0.0,N,0.0,K,A*24

5:39:56:408 Nachm. 03/26/17 - $GPRMC,153953.0,A,5208.359549,N,01138.412021,E,0.0,1.1,260317,0.4,E,A*0F

5:39:56:409 Nachm. 03/26/17 - $GPGSA,A,2,06,12,14,24,25,29,31,32,,,,,1.3,1.0,0.9*30

5:39:56:409 Nachm. 03/26/17 - $GNGSA,A,2,06,12,14,24,25,29,31,32,,,,,1.3,1.0,0.9*2E

5:39:56:409 Nachm. 03/26/17 - $GNGSA,A,2,73,,,,,,,,,,,,1.3,1.0,0.9*23

5:39:57:385 Nachm. 03/26/17 - $GPGSV,3,1,12,06,26,059,21,12,68,067,21,14,30,298,18,24,37,147,19*7E

5:39:57:385 Nachm. 03/26/17 - $GPGSV,3,2,12,25,60,277,31,29,24,206,29,31,14,307,20,32,34,268,29*78

5:39:57:386 Nachm. 03/26/17 - $GPGSV,3,3,12,02,30,106,,03,02,355,,19,11,043,,22,,,*41

5:39:57:386 Nachm. 03/26/17 - $GLGSV,3,1,09,82,66,095,17,73,54,312,20,80,67,095,14,79,09,115,11*6B

5:39:57:386 Nachm. 03/26/17 - $GLGSV,3,2,09,83,32,178,24,81,28,033,19,71,13,274,17,72,18,324,17*68

5:39:57:387 Nachm. 03/26/17 - $GLGSV,3,3,09,65,04,008,*53

5:39:57:387 Nachm. 03/26/17 - $GPGGA,153954.0,5208.359550,N,01138.412016,E,1,08,1.0,69.0,M,45.0,M,,*6F

5:39:57:393 Nachm. 03/26/17 - $GNGNS,153954.0,5208.359550,N,01138.412016,E,AA,09,1.0,69.0,45.0,,*5A

5:39:57:397 Nachm. 03/26/17 - $GPVTG,1.1,T,0.7,M,0.0,N,0.0,K,A*24

5:39:57:398 Nachm. 03/26/17 - $GPRMC,153954.0,A,5208.359550,N,01138.412016,E,0.0,1.1,260317,0.4,E,A*04

5:39:57:398 Nachm. 03/26/17 - $GPGSA,A,2,06,12,14,24,25,29,31,32,,,,,1.3,1.0,0.9*30

5:39:57:398 Nachm. 03/26/17 - $GNGSA,A,2,06,12,14,24,25,29,31,32,,,,,1.3,1.0,0.9*2E

5:39:57:398 Nachm. 03/26/17 - $GNGSA,A,2,73,,,,,,,,,,,,1.3,1.0,0.9*23


