6:07:07:383 Nachm. 03/26/17 - $GPGSV,3,1,11,14,31,284,22,24,24,151,11,25,72,289,29,29,37,210,21*72

6:07:07:383 Nachm. 03/26/17 - $GPGSV,3,2,11,31,25,307,18,32,28,255,33,02,36,094,,03,01,345,*73

6:07:07:384 Nachm. 03/26/17 - $GPGSV,3,3,11,06,23,047,,12,56,080,,19,00,045,*4C

6:07:07:384 Nachm. 03/26/17 - $GLGSV,3,1,09,74,10,307,13,82,61,060,12,73,68,322,22,80,54,115,15*63

6:07:07:387 Nachm. 03/26/17 - $GLGSV,3,2,09,65,11,358,28,83,47,178,17,72,15,310,16,81,15,030,*60

6:07:07:387 Nachm. 03/26/17 - $GLGSV,3,3,09,71,02,264,*58

6:07:07:388 Nachm. 03/26/17 - $GPGGA,160704.0,5208.416642,N,01138.739820,E,1,05,2.2,49.8,M,45.0,M,,*69

6:07:07:388 Nachm. 03/26/17 - $GNGNS,160704.0,5208.416642,N,01138.739820,E,AA,06,2.2,49.8,45.0,,*5E

6:07:07:389 Nachm. 03/26/17 - $GPVTG,77.9,T,77.5,M,1.2,N,2.2,K,A*2C

6:07:07:389 Nachm. 03/26/17 - $GPRMC,160704.0,A,5208.416642,N,01138.739820,E,1.2,77.9,260317,0.4,E,A*3E

6:07:07:389 Nachm. 03/26/17 - $GPGSA,A,2,14,25,29,31,32,,,,,,,,2.4,2.2,1.0*3E

6:07:07:389 Nachm. 03/26/17 - $GNGSA,A,2,14,25,29,31,32,,,,,,,,2.4,2.2,1.0*20

6:07:07:390 Nachm. 03/26/17 - $GNGSA,A,2,73,,,,,,,,,,,,2.4,2.2,1.0*2E

6:07:08:383 Nachm. 03/26/17 - $GPGSV,3,1,11,14,31,284,24,24,24,151,11,25,72,289,31,29,37,210,25*79

6:07:08:384 Nachm. 03/26/17 - $GPGSV,3,2,11,31,25,307,16,32,28,255,28,02,36,094,,03,01,345,*77

6:07:08:384 Nachm. 03/26/17 - $GPGSV,3,3,11,06,23,047,,12,56,080,,19,00,045,*4C

6:07:08:384 Nachm. 03/26/17 - $GLGSV,3,1,09,74,10,307,13,82,61,060,12,73,68,322,25,80,54,115,15*64

6:07:08:384 Nachm. 03/26/17 - $GLGSV,3,2,09,65,11,358,28,83,47,178,17,72,15,310,16,81,15,030,*60

6:07:08:385 Nachm. 03/26/17 - $GLGSV,3,3,09,71,02,264,*58

6:07:08:387 Nachm. 03/26/17 - $GPGGA,160705.0,5208.416306,N,01138.739845,E,1,05,2.2,49.8,M,45.0,M,,*6E

6:07:08:389 Nachm. 03/26/17 - $GNGNS,160705.0,5208.416306,N,01138.739845,E,AA,06,2.2,49.8,45.0,,*59

6:07:08:389 Nachm. 03/26/17 - $GPVTG,77.9,T,77.5,M,0.8,N,1.4,K,A*22

6:07:08:389 Nachm. 03/26/17 - $GPRMC,160705.0,A,5208.416306,N,01138.739845,E,0.8,77.9,260317,0.4,E,A*32

6:07:08:390 Nachm. 03/26/17 - $GPGSA,A,2,14,25,29,31,32,,,,,,,,2.4,2.2,1.0*3E

6:07:08:390 Nachm. 03/26/17 - $GNGSA,A,2,14,25,29,31,32,,,,,,,,2.4,2.2,1.0*20

6:07:08:391 Nachm. 03/26/17 - $GNGSA,A,2,73,,,,,,,,,,,,2.4,2.2,1.0*2E

6:07:09:382 Nachm. 03/26/17 - $GPGSV,3,1,11,14,31,284,21,24,24,151,11,25,72,289,23,29,37,210,25*7F

6:07:09:382 Nachm. 03/26/17 - $GPGSV,3,2,11,31,25,307,16,32,28,255,24,02,36,094,,03,01,345,*7B

6:07:09:383 Nachm. 03/26/17 - $GPGSV,3,3,11,06,23,047,,12,56,080,,19,00,045,*4C

6:07:09:383 Nachm. 03/26/17 - $GLGSV,3,1,09,74,10,307,13,82,61,060,7,73,68,322,21,80,54,115,15*54

6:07:09:383 Nachm. 03/26/17 - $GLGSV,3,2,09,65,11,358,28,83,47,178,17,72,15,310,16,81,15,030,*60

6:07:09:385 Nachm. 03/26/17 - $GLGSV,3,3,09,71,02,264,*58

6:07:09:385 Nachm. 03/26/17 - $GPGGA,160706.0,5208.416774,N,01138.739852,E,1,05,1.6,49.9,M,45.0,M,,*6C

6:07:09:385 Nachm. 03/26/17 - $GNGNS,160706.0,5208.416774,N,01138.739852,E,AA,07,1.6,49.9,45.0,,*5A

6:07:09:386 Nachm. 03/26/17 - $GPVTG,77.9,T,77.5,M,1.0,N,1.8,K,A*27

6:07:09:386 Nachm. 03/26/17 - $GPRMC,160706.0,A,5208.416774,N,01138.739852,E,1.0,77.9,260317,0.4,E,A*3F

6:07:09:386 Nachm. 03/26/17 - $GPGSA,A,2,14,25,29,31,32,,,,,,,,1.9,1.6,0.9*3F

6:07:09:386 Nachm. 03/26/17 - $GNGSA,A,2,14,25,29,31,32,,,,,,,,1.9,1.6,0.9*21

6:07:09:387 Nachm. 03/26/17 - $GNGSA,A,2,73,82,,,,,,,,,,,1.9,1.6,0.9*25

6:07:10:383 Nachm. 03/26/17 - $GPGSV,3,1,11,14,31,284,28,24,24,151,11,25,72,289,25,29,37,210,16*70

6:07:10:384 Nachm. 03/26/17 - $GPGSV,3,2,11,31,25,307,16,32,28,255,20,02,36,094,,03,01,345,*7F

6:07:10:384 Nachm. 03/26/17 - $GPGSV,3,3,11,06,23,047,,12,56,080,,19,00,045,*4C

6:07:10:389 Nachm. 03/26/17 - $GLGSV,3,1,09,74,10,307,13,82,61,060,7,73,68,322,25,80,54,115,15*50

6:07:10:389 Nachm. 03/26/17 - $GLGSV,3,2,09,65,11,358,7,83,47,178,17,72,15,310,16,81,15,030,*5D

6:07:10:389 Nachm. 03/26/17 - $GLGSV,3,3,09,71,02,264,*58

6:07:10:389 Nachm. 03/26/17 - $GPGGA,160707.0,5208.416885,N,01138.739905,E,1,05,1.5,50.3,M,45.0,M,,*6E

6:07:10:389 Nachm. 03/26/17 - $GNGNS,160707.0,5208.416885,N,01138.739905,E,AA,08,1.5,50.3,45.0,,*57

6:07:10:390 Nachm. 03/26/17 - $GPVTG,77.9,T,77.5,M,0.9,N,1.6,K,A*21

6:07:10:390 Nachm. 03/26/17 - $GPRMC,160707.0,A,5208.416885,N,01138.739905,E,0.9,77.9,260317,0.4,E,A*34

6:07:10:390 Nachm. 03/26/17 - $GPGSA,A,2,14,25,29,31,32,,,,,,,,1.7,1.5,0.9*32

6:07:10:390 Nachm. 03/26/17 - $GNGSA,A,2,14,25,29,31,32,,,,,,,,1.7,1.5,0.9*2C

6:07:10:390 Nachm. 03/26/17 - $GNGSA,A,2,65,73,82,,,,,,,,,,1.7,1.5,0.9*2B

6:07:11:389 Nachm. 03/26/17 - $GPGSV,3,1,11,14,31,284,29,24,24,151,11,25,72,289,29,29,37,210,20*78

6:07:11:390 Nachm. 03/26/17 - $GPGSV,3,2,11,31,25,307,16,32,28,255,30,02,36,094,,03,01,345,*7E

6:07:11:390 Nachm. 03/26/17 - $GPGSV,3,3,11,06,23,047,,12,56,080,,19,00,045,*4C

6:07:11:395 Nachm. 03/26/17 - $GLGSV,3,1,09,74,10,307,13,82,61,060,7,73,68,322,26,80,54,115,15*53

6:07:11:403 Nachm. 03/26/17 - $GLGSV,3,2,09,65,11,358,7,83,47,178,17,72,15,310,16,81,15,030,*5D

6:07:11:403 Nachm. 03/26/17 - $GLGSV,3,3,09,71,02,264,*58

6:07:11:404 Nachm. 03/26/17 - $GPGGA,160708.0,5208.415914,N,01138.741354,E,1,05,1.5,49.5,M,45.0,M,,*64

6:07:11:411 Nachm. 03/26/17 - $GNGNS,160708.0,5208.415914,N,01138.741354,E,AA,08,1.5,49.5,45.0,,*5D

6:07:11:412 Nachm. 03/26/17 - $GPVTG,77.9,T,77.5,M,0.0,N,0.0,K,A*2F

6:07:11:412 Nachm. 03/26/17 - $GPRMC,160708.0,A,5208.415914,N,01138.741354,E,0.0,77.9,260317,0.4,E,A*39

6:07:11:412 Nachm. 03/26/17 - $GPGSA,A,2,14,25,29,31,32,,,,,,,,1.7,1.5,0.9*32

6:07:11:412 Nachm. 03/26/17 - $GNGSA,A,2,14,25,29,31,32,,,,,,,,1.7,1.5,0.9*2C

6:07:11:413 Nachm. 03/26/17 - $GNGSA,A,2,65,73,82,,,,,,,,,,1.7,1.5,0.9*2B

6:07:12:384 Nachm. 03/26/17 - $GPGSV,3,1,11,14,31,284,28,24,24,151,11,25,72,289,28,29,37,210,20*78

6:07:12:385 Nachm. 03/26/17 - $GPGSV,3,2,11,31,25,307,16,32,28,255,32,02,36,094,,03,01,345,*7C

6:07:12:385 Nachm. 03/26/17 - $GPGSV,3,3,11,06,23,047,,12,56,080,,19,00,045,*4C

6:07:12:389 Nachm. 03/26/17 - $GLGSV,3,1,09,74,10,307,13,82,61,060,7,73,68,322,26,80,54,115,15*53

6:07:12:391 Nachm. 03/26/17 - $GLGSV,3,2,09,65,11,358,7,83,47,178,17,72,15,310,16,81,15,030,*5D

6:07:12:393 Nachm. 03/26/17 - $GLGSV,3,3,09,71,02,264,*58

6:07:12:394 Nachm. 03/26/17 - $GPGGA,160709.0,5208.415781,N,01138.740621,E,1,05,1.5,49.7,M,45.0,M,,*63

6:07:12:404 Nachm. 03/26/17 - $GNGNS,160709.0,5208.415781,N,01138.740621,E,AA,08,1.5,49.7,45.0,,*5A

6:07:12:406 Nachm. 03/26/17 - $GPVTG,77.9,T,77.5,M,0.0,N,0.0,K,A*2F

6:07:12:406 Nachm. 03/26/17 - $GPRMC,160709.0,A,5208.415781,N,01138.740621,E,0.0,77.9,260317,0.4,E,A*3C

6:07:12:406 Nachm. 03/26/17 - $GPGSA,A,2,14,25,29,31,32,,,,,,,,1.7,1.5,0.9*32

6:07:12:406 Nachm. 03/26/17 - $GNGSA,A,2,14,25,29,31,32,,,,,,,,1.7,1.5,0.9*2C

6:07:12:406 Nachm. 03/26/17 - $GNGSA,A,2,65,73,82,,,,,,,,,,1.7,1.5,0.9*2B

6:07:13:383 Nachm. 03/26/17 - $GPGSV,3,1,11,14,31,284,28,24,24,151,11,25,72,289,27,29,37,210,21*76

6:07:13:384 Nachm. 03/26/17 - $GPGSV,3,2,11,31,25,307,16,32,28,255,32,02,36,094,,03,01,345,*7C

6:07:13:386 Nachm. 03/26/17 - $GPGSV,3,3,11,06,23,047,,12,56,080,,19,00,045,*4C

6:07:13:387 Nachm. 03/26/17 - $GLGSV,3,1,09,74,10,307,13,82,61,060,7,73,68,322,27,80,54,115,15*52

6:07:13:388 Nachm. 03/26/17 - $GLGSV,3,2,09,65,11,358,7,83,47,178,17,72,15,310,16,81,15,030,*5D

6:07:13:389 Nachm. 03/26/17 - $GLGSV,3,3,09,71,02,264,*58

6:07:13:390 Nachm. 03/26/17 - $GPGGA,160710.0,5208.415345,N,01138.739996,E,1,05,1.5,49.8,M,45.0,M,,*65

6:07:13:402 Nachm. 03/26/17 - $GNGNS,160710.0,5208.415345,N,01138.739996,E,AA,08,1.5,49.8,45.0,,*5C

6:07:13:403 Nachm. 03/26/17 - $GPVTG,77.9,T,77.5,M,0.0,N,0.0,K,A*2F

6:07:13:404 Nachm. 03/26/17 - $GPRMC,160710.0,A,5208.415345,N,01138.739996,E,0.0,77.9,260317,0.4,E,A*35

6:07:13:406 Nachm. 03/26/17 - $GPGSA,A,2,14,25,29,31,32,,,,,,,,1.7,1.5,0.9*32

6:07:13:407 Nachm. 03/26/17 - $GNGSA,A,2,14,25,29,31,32,,,,,,,,1.7,1.5,0.9*2C

6:07:13:408 Nachm. 03/26/17 - $GNGSA,A,2,65,73,82,,,,,,,,,,1.7,1.5,0.9*2B

6:07:14:384 Nachm. 03/26/17 - $GPGSV,3,1,11,14,31,284,29,24,24,151,11,25,72,289,29,29,37,210,23*7B

6:07:14:385 Nachm. 03/26/17 - $GPGSV,3,2,11,31,25,307,16,32,28,255,32,02,36,094,,03,01,345,*7C

6:07:14:388 Nachm. 03/26/17 - $GPGSV,3,3,11,06,23,047,,12,56,080,,19,00,045,*4C

6:07:14:391 Nachm. 03/26/17 - $GLGSV,3,1,09,74,10,307,13,82,61,060,7,73,68,322,28,80,54,115,15*5D

6:07:14:392 Nachm. 03/26/17 - $GLGSV,3,2,09,65,11,358,7,83,47,178,17,72,15,310,7,81,15,030,*6D

6:07:14:392 Nachm. 03/26/17 - $GLGSV,3,3,09,71,02,264,*58

6:07:14:404 Nachm. 03/26/17 - $GPGGA,160711.0,5208.415109,N,01138.739693,E,1,05,1.5,50.2,M,45.0,M,,*66

6:07:14:405 Nachm. 03/26/17 - $GNGNS,160711.0,5208.415109,N,01138.739693,E,AA,08,1.5,50.2,45.0,,*5F

6:07:14:405 Nachm. 03/26/17 - $GPVTG,77.9,T,77.5,M,0.0,N,0.0,K,A*2F

6:07:14:405 Nachm. 03/26/17 - $GPRMC,160711.0,A,5208.415109,N,01138.739693,E,0.0,77.9,260317,0.4,E,A*34

6:07:14:405 Nachm. 03/26/17 - $GPGSA,A,2,14,25,29,31,32,,,,,,,,1.7,1.5,0.9*32

6:07:14:406 Nachm. 03/26/17 - $GNGSA,A,2,14,25,29,31,32,,,,,,,,1.7,1.5,0.9*2C

6:07:14:406 Nachm. 03/26/17 - $GNGSA,A,2,65,73,82,,,,,,,,,,1.7,1.5,0.9*2B

6:07:15:383 Nachm. 03/26/17 - $GPGSV,3,1,11,14,31,284,29,24,24,151,11,25,72,289,29,29,37,210,22*7A

6:07:15:384 Nachm. 03/26/17 - $GPGSV,3,2,11,32,28,255,33,02,36,094,,03,01,345,,06,23,047,*7F

6:07:15:384 Nachm. 03/26/17 - $GPGSV,3,3,11,12,56,080,,19,00,045,,31,25,307,*49

6:07:15:384 Nachm. 03/26/17 - $GLGSV,3,1,09,74,10,307,13,82,61,060,7,73,68,322,28,80,54,115,15*5D

6:07:15:385 Nachm. 03/26/17 - $GLGSV,3,2,09,65,11,358,7,83,47,178,17,72,15,310,7,81,15,030,*6D

6:07:15:385 Nachm. 03/26/17 - $GLGSV,3,3,09,71,02,264,*58

6:07:15:385 Nachm. 03/26/17 - $GPGGA,160712.0,5208.414940,N,01138.738818,E,1,04,1.6,50.6,M,45.0,M,,*6B

6:07:15:388 Nachm. 03/26/17 - $GNGNS,160712.0,5208.414940,N,01138.738818,E,AA,07,1.6,50.6,45.0,,*5C

6:07:15:393 Nachm. 03/26/17 - $GPVTG,77.9,T,77.5,M,0.0,N,0.0,K,A*2F

6:07:15:396 Nachm. 03/26/17 - $GPRMC,160712.0,A,5208.414940,N,01138.738818,E,0.0,77.9,260317,0.4,E,A*3F

6:07:15:396 Nachm. 03/26/17 - $GPGSA,A,2,14,25,29,32,,,,,,,,,1.8,1.6,0.9*3C

6:07:15:397 Nachm. 03/26/17 - $GNGSA,A,2,14,25,29,32,,,,,,,,,1.8,1.6,0.9*22

6:07:15:398 Nachm. 03/26/17 - $GNGSA,A,2,65,73,82,,,,,,,,,,1.8,1.6,0.9*27

6:07:16:383 Nachm. 03/26/17 - $GPGSV,3,1,11,14,31,284,27,25,72,289,29,29,37,210,18,32,28,255,32*70

6:07:16:384 Nachm. 03/26/17 - $GPGSV,3,2,11,02,36,094,,03,01,345,,06,23,047,,12,56,080,*7E

6:07:16:389 Nachm. 03/26/17 - $GPGSV,3,3,11,19,00,045,,24,24,151,,31,25,307,*44

6:07:16:391 Nachm. 03/26/17 - $GLGSV,3,1,09,74,10,307,13,82,61,060,7,73,68,322,27,80,54,115,15*52

6:07:16:391 Nachm. 03/26/17 - $GLGSV,3,2,09,65,11,358,7,83,47,178,17,72,15,310,16,81,15,030,*5D

6:07:16:392 Nachm. 03/26/17 - $GLGSV,3,3,09,71,02,264,*58

6:07:16:393 Nachm. 03/26/17 - $GPGGA,160713.0,5208.414685,N,01138.738507,E,1,04,2.0,50.8,M,45.0,M,,*64

6:07:16:400 Nachm. 03/26/17 - $GNGNS,160713.0,5208.414685,N,01138.738507,E,AA,06,2.0,50.8,45.0,,*52

6:07:16:402 Nachm. 03/26/17 - $GPVTG,77.9,T,77.5,M,0.0,N,0.0,K,A*2F

6:07:16:407 Nachm. 03/26/17 - $GPRMC,160713.0,A,5208.414685,N,01138.738507,E,0.0,77.9,260317,0.4,E,A*3B

6:07:16:412 Nachm. 03/26/17 - $GPGSA,A,2,14,25,29,32,,,,,,,,,2.2,2.0,0.9*30

6:07:16:412 Nachm. 03/26/17 - $GNGSA,A,2,14,25,29,32,,,,,,,,,2.2,2.0,0.9*2E

6:07:16:413 Nachm. 03/26/17 - $GNGSA,A,2,65,73,,,,,,,,,,,2.2,2.0,0.9*21

6:07:17:384 Nachm. 03/26/17 - $GPGSV,3,1,11,14,31,284,28,25,72,289,30,29,37,210,21,32,28,255,33*7C

6:07:17:386 Nachm. 03/26/17 - $GPGSV,3,2,11,02,36,094,,03,01,345,,06,23,047,,12,56,080,*7E

6:07:17:391 Nachm. 03/26/17 - $GPGSV,3,3,11,19,00,045,,24,24,151,,31,25,307,*44

6:07:17:392 Nachm. 03/26/17 - $GLGSV,3,1,09,74,10,307,13,82,61,060,7,73,68,322,28,80,54,115,15*5D

6:07:17:392 Nachm. 03/26/17 - $GLGSV,3,2,09,65,11,358,7,83,47,178,17,72,15,310,16,81,15,030,*5D

6:07:17:393 Nachm. 03/26/17 - $GLGSV,3,3,09,71,02,264,*58

6:07:17:399 Nachm. 03/26/17 - $GPGGA,160714.0,5208.414406,N,01138.739018,E,1,04,2.3,50.7,M,45.0,M,,*6C

6:07:17:402 Nachm. 03/26/17 - $GNGNS,160714.0,5208.414406,N,01138.739018,E,AA,05,2.3,50.7,45.0,,*59

6:07:17:402 Nachm. 03/26/17 - $GPVTG,77.9,T,77.5,M,0.0,N,0.0,K,A*2F

6:07:17:403 Nachm. 03/26/17 - $GPRMC,160714.0,A,5208.414406,N,01138.739018,E,0.0,77.9,260317,0.4,E,A*3F

6:07:17:403 Nachm. 03/26/17 - $GPGSA,A,2,14,25,29,32,,,,,,,,,2.5,2.3,1.0*3C

6:07:17:408 Nachm. 03/26/17 - $GNGSA,A,2,14,25,29,32,,,,,,,,,2.5,2.3,1.0*22

6:07:17:409 Nachm. 03/26/17 - $GNGSA,A,2,73,,,,,,,,,,,,2.5,2.3,1.0*2E

6:07:18:385 Nachm. 03/26/17 - $GPGSV,3,1,11,14,31,284,26,25,72,289,29,29,37,210,19,32,28,255,32*70

6:07:18:386 Nachm. 03/26/17 - $GPGSV,3,2,11,02,36,094,,03,01,345,,06,23,047,,12,56,080,*7E

6:07:18:391 Nachm. 03/26/17 - $GPGSV,3,3,11,19,00,045,,24,24,151,,31,25,307,*44

6:07:18:392 Nachm. 03/26/17 - $GLGSV,3,1,09,74,10,307,13,82,61,060,7,73,68,322,26,80,54,115,15*53

6:07:18:395 Nachm. 03/26/17 - $GLGSV,3,2,09,65,11,358,7,83,47,178,17,72,15,310,16,81,15,030,*5D

6:07:18:398 Nachm. 03/26/17 - $GLGSV,3,3,09,71,02,264,*58

6:07:18:404 Nachm. 03/26/17 - $GPGGA,160715.0,5208.414166,N,01138.738732,E,1,04,2.3,50.6,M,45.0,M,,*61

6:07:18:408 Nachm. 03/26/17 - $GNGNS,160715.0,5208.414166,N,01138.738732,E,AA,05,2.3,50.6,45.0,,*54

6:07:18:409 Nachm. 03/26/17 - $GPVTG,77.9,T,77.5,M,0.0,N,0.0,K,A*2F

6:07:18:410 Nachm. 03/26/17 - $GPRMC,160715.0,A,5208.414166,N,01138.738732,E,0.0,77.9,260317,0.4,E,A*33

6:07:18:410 Nachm. 03/26/17 - $GPGSA,A,2,14,25,29,32,,,,,,,,,2.5,2.3,1.0*3C

6:07:18:411 Nachm. 03/26/17 - $GNGSA,A,2,14,25,29,32,,,,,,,,,2.5,2.3,1.0*22

6:07:18:412 Nachm. 03/26/17 - $GNGSA,A,2,73,,,,,,,,,,,,2.5,2.3,1.0*2E

6:07:19:385 Nachm. 03/26/17 - $GPGSV,3,1,11,14,31,284,28,25,72,289,29,29,37,210,21,32,28,255,33*74

6:07:19:386 Nachm. 03/26/17 - $GPGSV,3,2,11,02,36,094,,03,01,345,,06,23,047,,12,56,080,*7E

6:07:19:386 Nachm. 03/26/17 - $GPGSV,3,3,11,19,00,045,,24,24,151,,31,25,307,*44

6:07:19:387 Nachm. 03/26/17 - $GLGSV,3,1,09,74,10,307,8,82,61,060,7,73,68,322,26,80,54,115,15*69

6:07:19:393 Nachm. 03/26/17 - $GLGSV,3,2,09,65,11,358,7,83,47,178,17,72,15,310,13,81,15,030,*58

6:07:19:394 Nachm. 03/26/17 - $GLGSV,3,3,09,71,02,264,*58

6:07:19:399 Nachm. 03/26/17 - $GPGGA,160716.0,5208.413734,N,01138.738907,E,1,04,2.3,50.8,M,45.0,M,,*62

6:07:19:400 Nachm. 03/26/17 - $GNGNS,160716.0,5208.413734,N,01138.738907,E,AA,05,2.3,50.8,45.0,,*57

6:07:19:400 Nachm. 03/26/17 - $GPVTG,77.9,T,77.5,M,0.0,N,0.0,K,A*2F

6:07:19:400 Nachm. 03/26/17 - $GPRMC,160716.0,A,5208.413734,N,01138.738907,E,0.0,77.9,260317,0.4,E,A*3E

6:07:19:401 Nachm. 03/26/17 - $GPGSA,A,2,14,25,29,32,,,,,,,,,2.5,2.3,1.0*3C

6:07:19:401 Nachm. 03/26/17 - $GNGSA,A,2,14,25,29,32,,,,,,,,,2.5,2.3,1.0*22

6:07:19:401 Nachm. 03/26/17 - $GNGSA,A,2,73,,,,,,,,,,,,2.5,2.3,1.0*2E

6:07:20:385 Nachm. 03/26/17 - $GPGSV,3,1,11,14,31,284,28,25,72,289,29,29,37,210,21,32,28,255,32*75

6:07:20:386 Nachm. 03/26/17 - $GPGSV,3,2,11,02,36,094,,03,01,345,,06,23,047,,12,56,080,*7E

6:07:20:386 Nachm. 03/26/17 - $GPGSV,3,3,11,19,00,045,,24,24,151,,31,25,307,*44

6:07:20:387 Nachm. 03/26/17 - $GLGSV,3,1,09,74,10,307,8,82,61,060,7,73,68,322,26,80,54,115,15*69

6:07:20:392 Nachm. 03/26/17 - $GLGSV,3,2,09,65,11,358,7,83,47,178,17,72,15,310,13,81,15,030,*58

6:07:20:393 Nachm. 03/26/17 - $GLGSV,3,3,09,71,02,264,*58

6:07:20:411 Nachm. 03/26/17 - $GPGGA,160717.0,5208.413479,N,01138.738726,E,1,04,2.3,51.0,M,45.0,M,,*6D

6:07:20:413 Nachm. 03/26/17 - $GNGNS,160717.0,5208.413479,N,01138.738726,E,AA,05,2.3,51.0,45.0,,*58

6:07:20:414 Nachm. 03/26/17 - $GPVTG,77.9,T,77.5,M,0.0,N,0.0,K,A*2F

6:07:20:415 Nachm. 03/26/17 - $GPRMC,160717.0,A,5208.413479,N,01138.738726,E,0.0,77.9,260317,0.4,E,A*38

6:07:20:416 Nachm. 03/26/17 - $GPGSA,A,2,14,25,29,32,,,,,,,,,2.5,2.3,1.0*3C

6:07:20:417 Nachm. 03/26/17 - $GNGSA,A,2,14,25,29,32,,,,,,,,,2.5,2.3,1.0*22

6:07:20:418 Nachm. 03/26/17 - $GNGSA,A,2,73,,,,,,,,,,,,2.5,2.3,1.0*2E

6:07:21:384 Nachm. 03/26/17 - $GPGSV,3,1,11,14,31,284,28,25,72,289,29,29,37,210,21,32,28,255,32*75

6:07:21:385 Nachm. 03/26/17 - $GPGSV,3,2,11,02,36,094,,03,01,345,,06,23,047,,12,56,080,*7E

6:07:21:386 Nachm. 03/26/17 - $GPGSV,3,3,11,19,00,045,,24,24,151,,31,25,307,*44

6:07:21:387 Nachm. 03/26/17 - $GLGSV,3,1,09,74,10,307,8,82,61,060,7,73,68,322,26,65,11,358,7*5B

6:07:21:392 Nachm. 03/26/17 - $GLGSV,3,2,09,83,47,178,17,72,15,310,13,,54,115,,81,15,030,*66

6:07:21:392 Nachm. 03/26/17 - $GLGSV,3,3,09,71,02,264,*58

6:07:21:399 Nachm. 03/26/17 - $GPGGA,160718.0,5208.413458,N,01138.738745,E,1,04,2.3,51.1,M,45.0,M,,*65

6:07:21:400 Nachm. 03/26/17 - $GNGNS,160718.0,5208.413458,N,01138.738745,E,AA,05,2.3,51.1,45.0,,*50

6:07:21:400 Nachm. 03/26/17 - $GPVTG,77.9,T,77.5,M,0.0,N,0.0,K,A*2F

6:07:21:400 Nachm. 03/26/17 - $GPRMC,160718.0,A,5208.413458,N,01138.738745,E,0.0,77.9,260317,0.4,E,A*31

6:07:21:400 Nachm. 03/26/17 - $GPGSA,A,2,14,25,29,32,,,,,,,,,2.5,2.3,1.0*3C

6:07:21:400 Nachm. 03/26/17 - $GNGSA,A,2,14,25,29,32,,,,,,,,,2.5,2.3,1.0*22

6:07:21:401 Nachm. 03/26/17 - $GNGSA,A,2,73,,,,,,,,,,,,2.5,2.3,1.0*2E

6:07:22:386 Nachm. 03/26/17 - $GPGSV,3,1,11,14,31,284,28,25,72,291,30,29,37,210,22,32,28,255,33*76

6:07:22:387 Nachm. 03/26/17 - $GPGSV,3,2,11,02,36,094,,03,01,345,,06,23,047,,12,56,080,*7E

6:07:22:389 Nachm. 03/26/17 - $GPGSV,3,3,11,19,00,045,,24,24,151,,31,25,307,*44

6:07:22:393 Nachm. 03/26/17 - $GLGSV,3,1,09,74,10,307,8,82,61,060,7,73,68,322,25,65,11,358,7*58

6:07:22:394 Nachm. 03/26/17 - $GLGSV,3,2,09,83,47,178,17,72,15,310,13,80,54,115,,81,15,030,*6E

6:07:22:394 Nachm. 03/26/17 - $GLGSV,3,3,09,71,02,264,*58

6:07:22:404 Nachm. 03/26/17 - $GPGGA,160719.0,5208.413378,N,01138.738761,E,1,04,2.3,51.1,M,45.0,M,,*67

6:07:22:406 Nachm. 03/26/17 - $GNGNS,160719.0,5208.413378,N,01138.738761,E,AA,05,2.3,51.1,45.0,,*52

6:07:22:406 Nachm. 03/26/17 - $GPVTG,77.9,T,77.5,M,0.0,N,0.0,K,A*2F

6:07:22:407 Nachm. 03/26/17 - $GPRMC,160719.0,A,5208.413378,N,01138.738761,E,0.0,77.9,260317,0.4,E,A*33

6:07:22:410 Nachm. 03/26/17 - $GPGSA,A,2,14,25,29,32,,,,,,,,,2.5,2.3,1.0*3C

6:07:22:411 Nachm. 03/26/17 - $GNGSA,A,2,14,25,29,32,,,,,,,,,2.5,2.3,1.0*22

6:07:22:412 Nachm. 03/26/17 - $GNGSA,A,2,73,,,,,,,,,,,,2.5,2.3,1.0*2E

6:07:23:384 Nachm. 03/26/17 - $GPGSV,3,1,11,14,31,284,27,25,72,291,30,29,37,210,21,32,28,255,32*7B

6:07:23:385 Nachm. 03/26/17 - $GPGSV,3,2,11,02,36,094,,03,01,345,,06,23,047,,12,56,080,*7E

6:07:23:386 Nachm. 03/26/17 - $GPGSV,3,3,11,19,00,045,,24,24,151,,31,25,307,*44

6:07:23:401 Nachm. 03/26/17 - $GLGSV,3,1,09,74,10,307,8,82,61,060,7,73,68,322,25,65,11,358,7*58

6:07:23:403 Nachm. 03/26/17 - $GLGSV,3,2,09,83,47,178,17,72,15,310,13,80,54,115,,81,15,030,*6E

6:07:23:404 Nachm. 03/26/17 - $GLGSV,3,3,09,71,02,264,*58

6:07:23:404 Nachm. 03/26/17 - $GPGGA,160720.0,5208.413371,N,01138.738768,E,1,04,2.3,51.1,M,45.0,M,,*6D

6:07:23:404 Nachm. 03/26/17 - $GNGNS,160720.0,5208.413371,N,01138.738768,E,AA,05,2.3,51.1,45.0,,*58

6:07:23:404 Nachm. 03/26/17 - $GPVTG,77.9,T,77.5,M,0.0,N,0.0,K,A*2F

6:07:23:404 Nachm. 03/26/17 - $GPRMC,160720.0,A,5208.413371,N,01138.738768,E,0.0,77.9,260317,0.4,E,A*39

6:07:23:405 Nachm. 03/26/17 - $GPGSA,A,2,14,25,29,32,,,,,,,,,2.5,2.3,1.0*3C

6:07:23:405 Nachm. 03/26/17 - $GNGSA,A,2,14,25,29,32,,,,,,,,,2.5,2.3,1.0*22

6:07:23:405 Nachm. 03/26/17 - $GNGSA,A,2,73,,,,,,,,,,,,2.5,2.3,1.0*2E

6:07:24:384 Nachm. 03/26/17 - $GPGSV,3,1,11,14,31,284,28,25,72,291,30,29,37,210,22,32,28,255,33*76

6:07:24:386 Nachm. 03/26/17 - $GPGSV,3,2,11,02,36,094,,03,01,345,,06,23,047,,12,56,080,*7E

6:07:24:390 Nachm. 03/26/17 - $GPGSV,3,3,11,19,00,045,,24,24,151,,31,25,307,*44

6:07:24:398 Nachm. 03/26/17 - $GLGSV,3,1,09,74,10,307,8,82,61,060,7,73,68,322,25,65,11,358,7*58

6:07:24:399 Nachm. 03/26/17 - $GLGSV,3,2,09,83,47,178,17,72,15,310,13,80,54,115,,81,15,030,*6E

6:07:24:400 Nachm. 03/26/17 - $GLGSV,3,3,09,71,02,264,*58

6:07:24:400 Nachm. 03/26/17 - $GPGGA,160721.0,5208.413361,N,01138.738764,E,1,04,2.3,51.1,M,45.0,M,,*61

6:07:24:403 Nachm. 03/26/17 - $GNGNS,160721.0,5208.413361,N,01138.738764,E,AA,05,2.3,51.1,45.0,,*54

6:07:24:404 Nachm. 03/26/17 - $GPVTG,77.9,T,77.5,M,0.0,N,0.0,K,A*2F

6:07:24:404 Nachm. 03/26/17 - $GPRMC,160721.0,A,5208.413361,N,01138.738764,E,0.0,77.9,260317,0.4,E,A*35

6:07:24:405 Nachm. 03/26/17 - $GPGSA,A,2,14,25,29,32,,,,,,,,,2.5,2.3,1.0*3C

6:07:24:405 Nachm. 03/26/17 - $GNGSA,A,2,14,25,29,32,,,,,,,,,2.5,2.3,1.0*22

6:07:24:405 Nachm. 03/26/17 - $GNGSA,A,2,73,,,,,,,,,,,,2.5,2.3,1.0*2E

6:07:25:385 Nachm. 03/26/17 - $GPGSV,3,1,11,14,31,284,28,25,72,291,30,29,37,210,20,32,28,255,33*74

6:07:25:386 Nachm. 03/26/17 - $GPGSV,3,2,11,02,36,094,,03,01,345,,06,23,047,,12,56,080,*7E

6:07:25:387 Nachm. 03/26/17 - $GPGSV,3,3,11,19,00,045,,24,24,151,,31,25,307,*44

6:07:25:391 Nachm. 03/26/17 - $GLGSV,3,1,09,74,10,307,8,82,61,060,7,73,68,322,25,65,11,358,7*58

6:07:25:392 Nachm. 03/26/17 - $GLGSV,3,2,09,83,47,178,8,72,15,310,13,80,54,115,,81,15,030,*50

6:07:25:392 Nachm. 03/26/17 - $GLGSV,3,3,09,71,02,264,*58

6:07:25:399 Nachm. 03/26/17 - $GPGGA,160722.0,5208.413367,N,01138.738767,E,1,04,2.3,51.1,M,45.0,M,,*67

6:07:25:400 Nachm. 03/26/17 - $GNGNS,160722.0,5208.413367,N,01138.738767,E,AA,05,2.3,51.1,45.0,,*52

6:07:25:400 Nachm. 03/26/17 - $GPVTG,77.9,T,77.5,M,0.0,N,0.0,K,A*2F

6:07:25:400 Nachm. 03/26/17 - $GPRMC,160722.0,A,5208.413367,N,01138.738767,E,0.0,77.9,260317,0.4,E,A*33

6:07:25:400 Nachm. 03/26/17 - $GPGSA,A,2,14,25,29,32,,,,,,,,,2.5,2.3,1.0*3C

6:07:25:401 Nachm. 03/26/17 - $GNGSA,A,2,14,25,29,32,,,,,,,,,2.5,2.3,1.0*22

6:07:25:401 Nachm. 03/26/17 - $GNGSA,A,2,73,,,,,,,,,,,,2.5,2.3,1.0*2E

6:07:26:384 Nachm. 03/26/17 - $GPGSV,3,1,11,14,31,284,27,25,72,291,31,29,37,210,19,32,28,255,33*70

6:07:26:385 Nachm. 03/26/17 - $GPGSV,3,2,11,02,36,094,,03,01,345,,06,23,047,,12,56,080,*7E

6:07:26:385 Nachm. 03/26/17 - $GPGSV,3,3,11,19,00,045,,24,24,151,,31,25,307,*44

6:07:26:387 Nachm. 03/26/17 - $GLGSV,3,1,09,74,10,307,8,82,61,060,7,73,68,322,25,65,11,358,7*58

6:07:26:387 Nachm. 03/26/17 - $GLGSV,3,2,09,83,47,178,8,72,15,310,13,80,54,115,,81,15,030,*50

6:07:26:388 Nachm. 03/26/17 - $GLGSV,3,3,09,71,02,264,*58

6:07:26:388 Nachm. 03/26/17 - $GPGGA,160723.0,5208.413366,N,01138.738764,E,1,04,2.3,51.1,M,45.0,M,,*64

6:07:26:391 Nachm. 03/26/17 - $GNGNS,160723.0,5208.413366,N,01138.738764,E,AA,05,2.3,51.1,45.0,,*51

6:07:26:398 Nachm. 03/26/17 - $GPVTG,77.9,T,77.5,M,0.0,N,0.0,K,A*2F

6:07:26:398 Nachm. 03/26/17 - $GPRMC,160723.0,A,5208.413366,N,01138.738764,E,0.0,77.9,260317,0.4,E,A*30

6:07:26:398 Nachm. 03/26/17 - $GPGSA,A,2,14,25,29,32,,,,,,,,,2.5,2.3,1.0*3C

6:07:26:399 Nachm. 03/26/17 - $GNGSA,A,2,14,25,29,32,,,,,,,,,2.5,2.3,1.0*22

6:07:26:399 Nachm. 03/26/17 - $GNGSA,A,2,73,,,,,,,,,,,,2.5,2.3,1.0*2E

6:07:27:385 Nachm. 03/26/17 - $GPGSV,3,1,11,14,31,284,26,25,72,291,31,29,37,210,19,32,28,255,34*76

6:07:27:386 Nachm. 03/26/17 - $GPGSV,3,2,11,02,36,094,,03,01,345,,06,23,047,,12,56,080,*7E

6:07:27:387 Nachm. 03/26/17 - $GPGSV,3,3,11,19,00,045,,24,24,151,,31,25,307,*44

6:07:27:388 Nachm. 03/26/17 - $GLGSV,3,1,09,74,10,307,8,82,61,060,7,73,68,322,24,65,11,358,7*59

6:07:27:396 Nachm. 03/26/17 - $GLGSV,3,2,09,83,47,178,8,72,15,310,13,80,54,115,,81,15,030,*50

6:07:27:396 Nachm. 03/26/17 - $GLGSV,3,3,09,71,02,264,*58

6:07:27:397 Nachm. 03/26/17 - $GPGGA,160724.0,5208.413367,N,01138.738761,E,1,04,2.3,51.1,M,45.0,M,,*67

6:07:27:404 Nachm. 03/26/17 - $GNGNS,160724.0,5208.413367,N,01138.738761,E,AA,05,2.3,51.1,45.0,,*52

6:07:27:406 Nachm. 03/26/17 - $GPVTG,77.9,T,77.5,M,0.0,N,0.0,K,A*2F

6:07:27:413 Nachm. 03/26/17 - $GPRMC,160724.0,A,5208.413367,N,01138.738761,E,0.0,77.9,260317,0.4,E,A*33

6:07:27:416 Nachm. 03/26/17 - $GPGSA,A,2,14,25,29,32,,,,,,,,,2.5,2.3,1.0*3C

6:07:27:417 Nachm. 03/26/17 - $GNGSA,A,2,14,25,29,32,,,,,,,,,2.5,2.3,1.0*22

6:07:27:418 Nachm. 03/26/17 - $GNGSA,A,2,73,,,,,,,,,,,,2.5,2.3,1.0*2E

6:07:28:384 Nachm. 03/26/17 - $GPGSV,3,1,11,14,31,284,26,25,72,291,31,29,37,210,19,32,28,255,33*71

6:07:28:386 Nachm. 03/26/17 - $GPGSV,3,2,11,02,36,094,,03,01,345,,06,23,047,,12,56,080,*7E

6:07:28:386 Nachm. 03/26/17 - $GPGSV,3,3,11,19,00,045,,24,24,151,,31,25,307,*44

6:07:28:388 Nachm. 03/26/17 - $GLGSV,3,1,09,74,10,307,8,73,68,322,25,65,11,358,7,83,47,178,8*5A

6:07:28:405 Nachm. 03/26/17 - $GLGSV,3,2,09,72,15,310,11,,61,060,,80,54,115,,81,15,030,*6D

6:07:28:405 Nachm. 03/26/17 - $GLGSV,3,3,09,71,02,264,*58

6:07:28:406 Nachm. 03/26/17 - $GPGGA,160725.0,5208.413368,N,01138.738756,E,1,04,2.3,51.1,M,45.0,M,,*6D

6:07:28:407 Nachm. 03/26/17 - $GNGNS,160725.0,5208.413368,N,01138.738756,E,AA,05,2.3,51.1,45.0,,*58

6:07:28:410 Nachm. 03/26/17 - $GPVTG,77.9,T,77.5,M,0.0,N,0.0,K,A*2F

6:07:28:410 Nachm. 03/26/17 - $GPRMC,160725.0,A,5208.413368,N,01138.738756,E,0.0,77.9,260317,0.4,E,A*39

6:07:28:410 Nachm. 03/26/17 - $GPGSA,A,2,14,25,29,32,,,,,,,,,2.5,2.3,1.0*3C

6:07:28:411 Nachm. 03/26/17 - $GNGSA,A,2,14,25,29,32,,,,,,,,,2.5,2.3,1.0*22

6:07:28:411 Nachm. 03/26/17 - $GNGSA,A,2,73,,,,,,,,,,,,2.5,2.3,1.0*2E

6:07:29:385 Nachm. 03/26/17 - $GPGSV,3,1,11,14,31,284,28,25,72,291,31,29,37,210,19,32,28,255,33*7F

6:07:29:386 Nachm. 03/26/17 - $GPGSV,3,2,11,02,36,094,,03,01,345,,06,23,047,,12,56,080,*7E

6:07:29:387 Nachm. 03/26/17 - $GPGSV,3,3,11,19,00,045,,24,24,151,,31,25,307,*44

6:07:29:393 Nachm. 03/26/17 - $GLGSV,3,1,09,74,10,307,8,73,68,322,25,83,47,178,8,72,15,310,16*64

6:07:29:394 Nachm. 03/26/17 - $GLGSV,3,2,09,82,61,060,,80,54,115,,,11,358,,81,15,030,*6A

6:07:29:396 Nachm. 03/26/17 - $GLGSV,3,3,09,71,02,264,*58

6:07:29:397 Nachm. 03/26/17 - $GPGGA,160726.0,5208.413370,N,01138.738757,E,1,04,2.3,51.1,M,45.0,M,,*66

6:07:29:403 Nachm. 03/26/17 - $GNGNS,160726.0,5208.413370,N,01138.738757,E,AA,05,2.3,51.1,45.0,,*53

6:07:29:404 Nachm. 03/26/17 - $GPVTG,77.9,T,77.5,M,0.0,N,0.0,K,A*2F

6:07:29:405 Nachm. 03/26/17 - $GPRMC,160726.0,A,5208.413370,N,01138.738757,E,0.0,77.9,260317,0.4,E,A*32

6:07:29:405 Nachm. 03/26/17 - $GPGSA,A,2,14,25,29,32,,,,,,,,,2.5,2.3,1.0*3C

6:07:29:406 Nachm. 03/26/17 - $GNGSA,A,2,14,25,29,32,,,,,,,,,2.5,2.3,1.0*22

6:07:29:407 Nachm. 03/26/17 - $GNGSA,A,2,73,,,,,,,,,,,,2.5,2.3,1.0*2E

6:07:30:384 Nachm. 03/26/17 - $GPGSV,3,1,11,14,31,284,27,25,72,291,31,29,37,210,19,32,28,255,33*70

6:07:30:385 Nachm. 03/26/17 - $GPGSV,3,2,11,02,36,094,,03,01,345,,06,23,047,,12,56,080,*7E

6:07:30:386 Nachm. 03/26/17 - $GPGSV,3,3,11,19,00,045,,24,24,151,,31,25,307,*44

6:07:30:386 Nachm. 03/26/17 - $GLGSV,3,1,09,74,10,307,8,73,68,322,25,83,47,178,8,72,15,310,16*64

6:07:30:389 Nachm. 03/26/17 - $GLGSV,3,2,09,82,61,060,,80,54,115,,65,11,358,,81,15,030,*69

6:07:30:389 Nachm. 03/26/17 - $GLGSV,3,3,09,71,02,264,*58

6:07:30:389 Nachm. 03/26/17 - $GPGGA,160727.0,5208.413368,N,01138.738758,E,1,04,2.3,51.1,M,45.0,M,,*61

6:07:30:392 Nachm. 03/26/17 - $GNGNS,160727.0,5208.413368,N,01138.738758,E,AA,05,2.3,51.1,45.0,,*54

6:07:30:394 Nachm. 03/26/17 - $GPVTG,77.9,T,77.5,M,0.0,N,0.0,K,A*2F

6:07:30:395 Nachm. 03/26/17 - $GPRMC,160727.0,A,5208.413368,N,01138.738758,E,0.0,77.9,260317,0.4,E,A*35

6:07:30:395 Nachm. 03/26/17 - $GPGSA,A,2,14,25,29,32,,,,,,,,,2.5,2.3,1.0*3C

6:07:30:399 Nachm. 03/26/17 - $GNGSA,A,2,14,25,29,32,,,,,,,,,2.5,2.3,1.0*22

6:07:30:399 Nachm. 03/26/17 - $GNGSA,A,2,73,,,,,,,,,,,,2.5,2.3,1.0*2E

6:07:31:385 Nachm. 03/26/17 - $GPGSV,3,1,11,14,31,284,26,25,72,291,31,29,37,210,20,32,28,255,33*7B

6:07:31:386 Nachm. 03/26/17 - $GPGSV,3,2,11,02,36,094,,03,01,345,,06,23,047,,12,56,080,*7E

6:07:31:387 Nachm. 03/26/17 - $GPGSV,3,3,11,19,00,045,,24,24,151,,31,25,307,*44

6:07:31:398 Nachm. 03/26/17 - $GLGSV,3,1,09,74,10,307,8,73,68,322,25,83,47,178,8,72,15,310,16*64

6:07:31:398 Nachm. 03/26/17 - $GLGSV,3,2,09,82,61,060,,80,54,115,,65,11,358,,81,15,030,*69

6:07:31:398 Nachm. 03/26/17 - $GLGSV,3,3,09,71,02,264,*58

6:07:31:398 Nachm. 03/26/17 - $GPGGA,160728.0,5208.413369,N,01138.738758,E,1,04,2.3,51.1,M,45.0,M,,*6F

6:07:31:399 Nachm. 03/26/17 - $GNGNS,160728.0,5208.413369,N,01138.738758,E,AA,05,2.3,51.1,45.0,,*5A

6:07:31:399 Nachm. 03/26/17 - $GPVTG,77.9,T,77.5,M,0.0,N,0.0,K,A*2F

6:07:31:399 Nachm. 03/26/17 - $GPRMC,160728.0,A,5208.413369,N,01138.738758,E,0.0,77.9,260317,0.4,E,A*3B

6:07:31:399 Nachm. 03/26/17 - $GPGSA,A,2,14,25,29,32,,,,,,,,,2.5,2.3,1.0*3C

6:07:31:399 Nachm. 03/26/17 - $GNGSA,A,2,14,25,29,32,,,,,,,,,2.5,2.3,1.0*22

6:07:31:400 Nachm. 03/26/17 - $GNGSA,A,2,73,,,,,,,,,,,,2.5,2.3,1.0*2E

6:07:32:384 Nachm. 03/26/17 - $GPGSV,3,1,11,14,31,284,26,25,72,291,31,29,37,210,18,32,28,255,33*70

6:07:32:385 Nachm. 03/26/17 - $GPGSV,3,2,11,02,36,094,,03,01,345,,06,23,047,,12,56,080,*7E

6:07:32:386 Nachm. 03/26/17 - $GPGSV,3,3,11,19,00,045,,24,24,151,,31,25,307,*44

6:07:32:393 Nachm. 03/26/17 - $GLGSV,3,1,09,74,10,307,8,73,68,322,25,83,47,178,8,72,15,310,16*64

6:07:32:394 Nachm. 03/26/17 - $GLGSV,3,2,09,82,61,060,,80,54,115,,65,11,358,,81,15,030,*69

6:07:32:395 Nachm. 03/26/17 - $GLGSV,3,3,09,71,02,264,*58

6:07:32:395 Nachm. 03/26/17 - $GPGGA,160729.0,5208.413370,N,01138.738759,E,1,04,2.3,51.1,M,45.0,M,,*67

6:07:32:396 Nachm. 03/26/17 - $GNGNS,160729.0,5208.413370,N,01138.738759,E,AA,05,2.3,51.1,45.0,,*52

6:07:32:397 Nachm. 03/26/17 - $GPVTG,77.9,T,77.5,M,0.0,N,0.0,K,A*2F

6:07:32:399 Nachm. 03/26/17 - $GPRMC,160729.0,A,5208.413370,N,01138.738759,E,0.0,77.9,260317,0.4,E,A*33

6:07:32:400 Nachm. 03/26/17 - $GPGSA,A,2,14,25,29,32,,,,,,,,,2.5,2.3,1.0*3C

6:07:32:401 Nachm. 03/26/17 - $GNGSA,A,2,14,25,29,32,,,,,,,,,2.5,2.3,1.0*22

6:07:32:401 Nachm. 03/26/17 - $GNGSA,A,2,73,,,,,,,,,,,,2.5,2.3,1.0*2E

6:07:33:384 Nachm. 03/26/17 - $GPGSV,3,1,11,14,31,284,25,25,72,291,31,29,37,210,17,32,28,255,33*7C

6:07:33:385 Nachm. 03/26/17 - $GPGSV,3,2,11,02,36,094,,03,01,345,,06,23,047,,12,56,080,*7E

6:07:33:386 Nachm. 03/26/17 - $GPGSV,3,3,11,19,00,045,,24,24,151,,31,25,307,*44

6:07:33:387 Nachm. 03/26/17 - $GLGSV,3,1,09,74,10,307,8,73,68,322,23,83,47,178,8,72,15,310,16*62

6:07:33:390 Nachm. 03/26/17 - $GLGSV,3,2,09,82,61,060,,80,54,115,,65,11,358,,81,15,030,*69

6:07:33:390 Nachm. 03/26/17 - $GLGSV,3,3,09,71,02,264,*58

6:07:33:391 Nachm. 03/26/17 - $GPGGA,160730.0,5208.413369,N,01138.738758,E,1,04,2.3,51.1,M,45.0,M,,*66

6:07:33:395 Nachm. 03/26/17 - $GNGNS,160730.0,5208.413369,N,01138.738758,E,AA,05,2.3,51.1,45.0,,*53

6:07:33:400 Nachm. 03/26/17 - $GPVTG,77.9,T,77.5,M,0.0,N,0.0,K,A*2F

6:07:33:407 Nachm. 03/26/17 - $GPRMC,160730.0,A,5208.413369,N,01138.738758,E,0.0,77.9,260317,0.4,E,A*32

6:07:33:409 Nachm. 03/26/17 - $GPGSA,A,2,14,25,29,32,,,,,,,,,2.5,2.3,1.0*3C

6:07:33:410 Nachm. 03/26/17 - $GNGSA,A,2,14,25,29,32,,,,,,,,,2.5,2.3,1.0*22

6:07:33:411 Nachm. 03/26/17 - $GNGSA,A,2,73,,,,,,,,,,,,2.5,2.3,1.0*2E

6:07:34:384 Nachm. 03/26/17 - $GPGSV,3,1,11,14,31,284,25,25,72,291,30,29,37,210,17,32,28,255,33*7D

6:07:34:384 Nachm. 03/26/17 - $GPGSV,3,2,11,02,36,094,,03,01,345,,06,23,047,,12,56,080,*7E

6:07:34:385 Nachm. 03/26/17 - $GPGSV,3,3,11,19,00,045,,24,24,151,,31,25,307,*44

6:07:34:385 Nachm. 03/26/17 - $GLGSV,3,1,09,74,10,307,8,73,68,322,25,83,47,178,8,72,15,310,16*64

6:07:34:386 Nachm. 03/26/17 - $GLGSV,3,2,09,82,61,060,,80,54,115,,65,11,358,,81,15,030,*69

6:07:34:387 Nachm. 03/26/17 - $GLGSV,3,3,09,71,02,264,*58

6:07:34:387 Nachm. 03/26/17 - $GPGGA,160731.0,5208.413365,N,01138.738757,E,1,04,2.3,51.1,M,45.0,M,,*64

6:07:34:392 Nachm. 03/26/17 - $GNGNS,160731.0,5208.413365,N,01138.738757,E,AA,05,2.3,51.1,45.0,,*51

6:07:34:393 Nachm. 03/26/17 - $GPVTG,77.9,T,77.5,M,0.0,N,0.0,K,A*2F

6:07:34:398 Nachm. 03/26/17 - $GPRMC,160731.0,A,5208.413365,N,01138.738757,E,0.0,77.9,260317,0.4,E,A*30

6:07:34:398 Nachm. 03/26/17 - $GPGSA,A,2,14,25,29,32,,,,,,,,,2.5,2.3,1.0*3C

6:07:34:399 Nachm. 03/26/17 - $GNGSA,A,2,14,25,29,32,,,,,,,,,2.5,2.3,1.0*22

6:07:34:399 Nachm. 03/26/17 - $GNGSA,A,2,73,,,,,,,,,,,,2.5,2.3,1.0*2E

6:07:35:385 Nachm. 03/26/17 - $GPGSV,3,1,11,14,31,284,26,25,72,291,30,29,37,210,17,32,28,255,33*7E

6:07:35:386 Nachm. 03/26/17 - $GPGSV,3,2,11,02,36,094,,03,01,345,,06,23,047,,12,56,080,*7E

6:07:35:387 Nachm. 03/26/17 - $GPGSV,3,3,11,19,00,045,,24,24,151,,31,25,307,*44

6:07:35:387 Nachm. 03/26/17 - $GLGSV,3,1,09,74,10,307,8,73,68,322,24,83,47,178,8,72,15,310,13*60

6:07:35:387 Nachm. 03/26/17 - $GLGSV,3,2,09,82,61,060,,80,54,115,,65,11,358,,81,15,030,*69

6:07:35:391 Nachm. 03/26/17 - $GLGSV,3,3,09,71,02,264,*58

6:07:35:392 Nachm. 03/26/17 - $GPGGA,160732.0,5208.413363,N,01138.738755,E,1,04,2.3,51.1,M,45.0,M,,*63

6:07:35:397 Nachm. 03/26/17 - $GNGNS,160732.0,5208.413363,N,01138.738755,E,AA,05,2.3,51.1,45.0,,*56

6:07:35:398 Nachm. 03/26/17 - $GPVTG,77.9,T,77.5,M,0.0,N,0.0,K,A*2F

6:07:35:398 Nachm. 03/26/17 - $GPRMC,160732.0,A,5208.413363,N,01138.738755,E,0.0,77.9,260317,0.4,E,A*37

6:07:35:400 Nachm. 03/26/17 - $GPGSA,A,2,14,25,29,32,,,,,,,,,2.5,2.3,1.0*3C

6:07:35:401 Nachm. 03/26/17 - $GNGSA,A,2,14,25,29,32,,,,,,,,,2.5,2.3,1.0*22

6:07:35:401 Nachm. 03/26/17 - $GNGSA,A,2,73,,,,,,,,,,,,2.5,2.3,1.0*2E

6:07:36:385 Nachm. 03/26/17 - $GPGSV,3,1,11,14,31,284,25,25,72,291,30,29,37,210,16,32,28,255,33*7C

6:07:36:386 Nachm. 03/26/17 - $GPGSV,3,2,11,02,36,094,,03,01,345,,06,23,047,,12,56,080,*7E

6:07:36:390 Nachm. 03/26/17 - $GPGSV,3,3,11,19,00,045,,24,24,151,,31,25,307,*44

6:07:36:391 Nachm. 03/26/17 - $GLGSV,3,1,09,74,10,307,8,73,68,322,24,83,47,178,8,72,15,310,13*60

6:07:36:393 Nachm. 03/26/17 - $GLGSV,3,2,09,82,61,060,,80,54,115,,65,11,358,,81,15,030,*69

6:07:36:394 Nachm. 03/26/17 - $GLGSV,3,3,09,71,02,264,*58

6:07:36:403 Nachm. 03/26/17 - $GPGGA,160733.0,5208.413364,N,01138.738759,E,1,04,2.3,51.1,M,45.0,M,,*69

6:07:36:409 Nachm. 03/26/17 - $GNGNS,160733.0,5208.413364,N,01138.738759,E,AA,05,2.3,51.1,45.0,,*5C

6:07:36:410 Nachm. 03/26/17 - $GPVTG,77.9,T,77.5,M,0.0,N,0.0,K,A*2F

6:07:36:410 Nachm. 03/26/17 - $GPRMC,160733.0,A,5208.413364,N,01138.738759,E,0.0,77.9,260317,0.4,E,A*3D

6:07:36:411 Nachm. 03/26/17 - $GPGSA,A,2,14,25,29,32,,,,,,,,,2.5,2.3,1.0*3C

6:07:36:412 Nachm. 03/26/17 - $GNGSA,A,2,14,25,29,32,,,,,,,,,2.5,2.3,1.0*22

6:07:36:412 Nachm. 03/26/17 - $GNGSA,A,2,73,,,,,,,,,,,,2.5,2.3,1.0*2E

6:07:37:385 Nachm. 03/26/17 - $GPGSV,3,1,11,14,31,284,26,25,72,291,30,29,37,210,17,32,28,255,33*7E

6:07:37:385 Nachm. 03/26/17 - $GPGSV,3,2,11,02,36,094,,03,01,345,,06,23,047,,12,56,080,*7E

6:07:37:391 Nachm. 03/26/17 - $GPGSV,3,3,11,19,00,045,,24,24,151,,31,25,307,*44

6:07:37:392 Nachm. 03/26/17 - $GLGSV,3,1,09,74,10,307,8,73,68,322,23,83,47,178,8,72,15,310,13*67

6:07:37:395 Nachm. 03/26/17 - $GLGSV,3,2,09,82,61,060,,80,54,115,,65,11,358,,81,15,030,*69

6:07:37:396 Nachm. 03/26/17 - $GLGSV,3,3,09,71,02,264,*58

6:07:37:396 Nachm. 03/26/17 - $GPGGA,160734.0,5208.413359,N,01138.738753,E,1,04,2.3,51.1,M,45.0,M,,*6A

6:07:37:397 Nachm. 03/26/17 - $GNGNS,160734.0,5208.413359,N,01138.738753,E,AA,05,2.3,51.1,45.0,,*5F

6:07:37:397 Nachm. 03/26/17 - $GPVTG,77.9,T,77.5,M,0.0,N,0.0,K,A*2F

6:07:37:398 Nachm. 03/26/17 - $GPRMC,160734.0,A,5208.413359,N,01138.738753,E,0.0,77.9,260317,0.4,E,A*3E

6:07:37:398 Nachm. 03/26/17 - $GPGSA,A,2,14,25,29,32,,,,,,,,,2.5,2.3,1.0*3C

6:07:37:399 Nachm. 03/26/17 - $GNGSA,A,2,14,25,29,32,,,,,,,,,2.5,2.3,1.0*22

6:07:37:399 Nachm. 03/26/17 - $GNGSA,A,2,73,,,,,,,,,,,,2.5,2.3,1.0*2E

6:07:38:385 Nachm. 03/26/17 - $GPGSV,3,1,11,14,31,284,25,25,72,291,30,29,37,210,17,32,28,255,33*7D

6:07:38:386 Nachm. 03/26/17 - $GPGSV,3,2,11,02,36,094,,03,01,345,,06,23,047,,12,56,080,*7E

6:07:38:390 Nachm. 03/26/17 - $GPGSV,3,3,11,19,00,045,,24,24,151,,31,25,307,*44

6:07:38:391 Nachm. 03/26/17 - $GLGSV,3,1,09,74,10,307,8,73,68,322,24,83,47,178,8,72,15,310,13*60

6:07:38:398 Nachm. 03/26/17 - $GLGSV,3,2,09,82,61,060,,80,54,115,,65,11,358,,81,15,030,*69

6:07:38:402 Nachm. 03/26/17 - $GLGSV,3,3,09,71,02,264,*58

6:07:38:403 Nachm. 03/26/17 - $GPGGA,160735.0,5208.413355,N,01138.738752,E,1,04,2.3,51.1,M,45.0,M,,*66

6:07:38:404 Nachm. 03/26/17 - $GNGNS,160735.0,5208.413355,N,01138.738752,E,AA,05,2.3,51.1,45.0,,*53

6:07:38:406 Nachm. 03/26/17 - $GPVTG,77.9,T,77.5,M,0.0,N,0.0,K,A*2F

6:07:38:406 Nachm. 03/26/17 - $GPRMC,160735.0,A,5208.413355,N,01138.738752,E,0.0,77.9,260317,0.4,E,A*32

6:07:38:407 Nachm. 03/26/17 - $GPGSA,A,2,14,25,29,32,,,,,,,,,2.5,2.3,1.0*3C

6:07:38:408 Nachm. 03/26/17 - $GNGSA,A,2,14,25,29,32,,,,,,,,,2.5,2.3,1.0*22

6:07:38:408 Nachm. 03/26/17 - $GNGSA,A,2,73,,,,,,,,,,,,2.5,2.3,1.0*2E

6:07:39:384 Nachm. 03/26/17 - $GPGSV,3,1,11,12,56,080,14,14,31,284,25,25,72,291,30,29,37,210,17*79

6:07:39:386 Nachm. 03/26/17 - $GPGSV,3,2,11,32,28,255,32,02,36,094,,03,01,345,,06,23,047,*7E

6:07:39:389 Nachm. 03/26/17 - $GPGSV,3,3,11,19,00,045,,24,24,151,,31,25,307,*44

6:07:39:392 Nachm. 03/26/17 - $GLGSV,3,1,09,74,10,307,8,73,68,322,23,83,47,178,8,72,15,310,13*67

6:07:39:402 Nachm. 03/26/17 - $GLGSV,3,2,09,82,61,060,,80,54,115,,65,11,358,,81,15,030,*69

6:07:39:405 Nachm. 03/26/17 - $GLGSV,3,3,09,71,02,264,*58

6:07:39:406 Nachm. 03/26/17 - $GPGGA,160736.0,5208.413354,N,01138.738750,E,1,05,1.6,51.1,M,45.0,M,,*61

6:07:39:407 Nachm. 03/26/17 - $GNGNS,160736.0,5208.413354,N,01138.738750,E,AA,06,1.6,51.1,45.0,,*56

6:07:39:408 Nachm. 03/26/17 - $GPVTG,77.9,T,77.5,M,0.0,N,0.0,K,A*2F

6:07:39:408 Nachm. 03/26/17 - $GPRMC,160736.0,A,5208.413354,N,01138.738750,E,0.0,77.9,260317,0.4,E,A*32

6:07:39:409 Nachm. 03/26/17 - $GPGSA,A,2,12,14,25,29,32,,,,,,,,1.9,1.6,1.0*36

6:07:39:410 Nachm. 03/26/17 - $GNGSA,A,2,12,14,25,29,32,,,,,,,,1.9,1.6,1.0*28

6:07:39:410 Nachm. 03/26/17 - $GNGSA,A,2,73,,,,,,,,,,,,1.9,1.6,1.0*27

6:07:40:386 Nachm. 03/26/17 - $GPGSV,3,1,11,12,56,080,14,14,31,284,24,25,72,291,29,29,37,210,17*70

6:07:40:388 Nachm. 03/26/17 - $GPGSV,3,2,11,32,28,255,31,02,37,094,,03,01,345,,06,23,046,*7D

6:07:40:388 Nachm. 03/26/17 - $GPGSV,3,3,11,19,00,045,,24,24,151,,31,25,307,*44

6:07:40:388 Nachm. 03/26/17 - $GLGSV,3,1,09,74,10,307,8,73,68,323,22,83,48,178,8,72,15,310,13*68

6:07:40:390 Nachm. 03/26/17 - $GLGSV,3,2,09,82,61,060,,80,54,116,,65,11,357,,81,15,030,*65

6:07:40:390 Nachm. 03/26/17 - $GLGSV,3,3,09,71,02,264,*58

6:07:40:390 Nachm. 03/26/17 - $GPGGA,160737.0,5208.413355,N,01138.738749,E,1,05,1.6,51.1,M,45.0,M,,*69

6:07:40:393 Nachm. 03/26/17 - $GNGNS,160737.0,5208.413355,N,01138.738749,E,AA,06,1.6,51.1,45.0,,*5E

6:07:40:393 Nachm. 03/26/17 - $GPVTG,77.9,T,77.5,M,0.0,N,0.0,K,A*2F

6:07:40:393 Nachm. 03/26/17 - $GPRMC,160737.0,A,5208.413355,N,01138.738749,E,0.0,77.9,260317,0.4,E,A*3A

6:07:40:393 Nachm. 03/26/17 - $GPGSA,A,2,12,14,25,29,32,,,,,,,,1.9,1.6,1.0*36

6:07:40:393 Nachm. 03/26/17 - $GNGSA,A,2,12,14,25,29,32,,,,,,,,1.9,1.6,1.0*28

6:07:40:394 Nachm. 03/26/17 - $GNGSA,A,2,73,,,,,,,,,,,,1.9,1.6,1.0*27

6:07:41:384 Nachm. 03/26/17 - $GPGSV,3,1,11,12,56,080,14,14,31,284,24,25,72,291,29,32,28,255,31*71

6:07:41:386 Nachm. 03/26/17 - $GPGSV,3,2,11,02,37,094,,03,01,345,,06,23,046,,19,00,045,*7F

6:07:41:388 Nachm. 03/26/17 - $GPGSV,3,3,11,24,24,151,,29,37,210,,31,25,307,*41

6:07:41:398 Nachm. 03/26/17 - $GLGSV,3,1,09,74,10,307,8,73,68,323,22,83,48,178,8,72,15,310,13*68

6:07:41:398 Nachm. 03/26/17 - $GLGSV,3,2,09,82,61,060,,80,54,116,,65,11,357,,81,15,030,*65

6:07:41:402 Nachm. 03/26/17 - $GLGSV,3,3,09,71,02,264,*58

6:07:41:402 Nachm. 03/26/17 - $GPGGA,160738.0,5208.413356,N,01138.738753,E,1,05,1.6,51.1,M,45.0,M,,*6E

6:07:41:403 Nachm. 03/26/17 - $GNGNS,160738.0,5208.413356,N,01138.738753,E,AA,06,1.6,51.1,45.0,,*59

6:07:41:403 Nachm. 03/26/17 - $GPVTG,77.9,T,77.5,M,0.0,N,0.0,K,A*2F

6:07:41:404 Nachm. 03/26/17 - $GPRMC,160738.0,A,5208.413356,N,01138.738753,E,0.0,77.9,260317,0.4,E,A*3D

6:07:41:404 Nachm. 03/26/17 - $GPGSA,A,2,12,14,25,29,32,,,,,,,,1.9,1.6,1.0*36

6:07:41:405 Nachm. 03/26/17 - $GNGSA,A,2,12,14,25,29,32,,,,,,,,1.9,1.6,1.0*28

6:07:41:406 Nachm. 03/26/17 - $GNGSA,A,2,73,,,,,,,,,,,,1.9,1.6,1.0*27

6:07:42:383 Nachm. 03/26/17 - $GPGSV,3,1,11,12,56,080,14,14,31,284,23,25,72,291,29,32,28,255,30*77

6:07:42:384 Nachm. 03/26/17 - $GPGSV,3,2,11,02,37,094,,03,01,345,,06,23,046,,19,00,045,*7F

6:07:42:384 Nachm. 03/26/17 - $GPGSV,3,3,11,24,24,151,,29,37,210,,31,25,307,*41

6:07:42:384 Nachm. 03/26/17 - $GLGSV,3,1,09,74,10,307,8,73,68,323,21,83,48,178,8,72,15,310,13*6B

6:07:42:384 Nachm. 03/26/17 - $GLGSV,3,2,09,82,61,060,,80,54,116,,65,11,357,,81,15,030,*65

6:07:42:385 Nachm. 03/26/17 - $GLGSV,3,3,09,71,02,264,*58

6:07:42:385 Nachm. 03/26/17 - $GPGGA,160739.0,5208.413356,N,01138.738700,E,1,05,1.6,51.1,M,45.0,M,,*69

6:07:42:386 Nachm. 03/26/17 - $GNGNS,160739.0,5208.413356,N,01138.738700,E,AA,06,1.6,51.1,45.0,,*5E

6:07:42:386 Nachm. 03/26/17 - $GPVTG,77.9,T,77.5,M,0.0,N,0.0,K,A*2F

6:07:42:387 Nachm. 03/26/17 - $GPRMC,160739.0,A,5208.413356,N,01138.738700,E,0.0,77.9,260317,0.4,E,A*3A

6:07:42:387 Nachm. 03/26/17 - $GPGSA,A,2,12,14,25,29,32,,,,,,,,1.9,1.6,1.0*36

6:07:42:388 Nachm. 03/26/17 - $GNGSA,A,2,12,14,25,29,32,,,,,,,,1.9,1.6,1.0*28

6:07:42:388 Nachm. 03/26/17 - $GNGSA,A,2,73,,,,,,,,,,,,1.9,1.6,1.0*27

6:07:43:383 Nachm. 03/26/17 - $GPGSV,3,1,11,12,56,080,17,14,31,284,23,25,72,291,29,32,28,255,30*74

6:07:43:384 Nachm. 03/26/17 - $GPGSV,3,2,11,02,37,094,,03,01,345,,06,23,046,,19,00,045,*7F

6:07:43:384 Nachm. 03/26/17 - $GPGSV,3,3,11,24,24,151,,29,37,210,,31,25,307,*41

6:07:43:386 Nachm. 03/26/17 - $GLGSV,3,1,09,74,10,307,8,73,68,323,22,83,48,178,8,72,15,310,13*68

6:07:43:387 Nachm. 03/26/17 - $GLGSV,3,2,09,82,61,060,,80,54,116,,65,11,357,,81,15,030,*65

6:07:43:388 Nachm. 03/26/17 - $GLGSV,3,3,09,71,02,264,*58

6:07:43:388 Nachm. 03/26/17 - $GPGGA,160740.0,5208.413369,N,01138.738285,E,1,05,1.6,51.6,M,45.0,M,,*64

6:07:43:388 Nachm. 03/26/17 - $GNGNS,160740.0,5208.413369,N,01138.738285,E,AA,06,1.6,51.6,45.0,,*53

6:07:43:389 Nachm. 03/26/17 - $GPVTG,77.9,T,77.5,M,0.0,N,0.0,K,A*2F

6:07:43:389 Nachm. 03/26/17 - $GPRMC,160740.0,A,5208.413369,N,01138.738285,E,0.0,77.9,260317,0.4,E,A*30

6:07:43:389 Nachm. 03/26/17 - $GPGSA,A,2,12,14,25,29,32,,,,,,,,1.9,1.6,1.0*36

6:07:43:390 Nachm. 03/26/17 - $GNGSA,A,2,12,14,25,29,32,,,,,,,,1.9,1.6,1.0*28

6:07:43:393 Nachm. 03/26/17 - $GNGSA,A,2,73,,,,,,,,,,,,1.9,1.6,1.0*27

6:07:44:384 Nachm. 03/26/17 - $GPGSV,3,1,11,12,56,080,20,14,31,284,24,25,72,291,30,32,28,255,31*7E

6:07:44:385 Nachm. 03/26/17 - $GPGSV,3,2,11,02,37,094,,03,01,345,,06,23,046,,19,00,045,*7F

6:07:44:388 Nachm. 03/26/17 - $GPGSV,3,3,11,24,24,151,,29,37,210,,31,25,307,*41

6:07:44:408 Nachm. 03/26/17 - $GLGSV,3,1,09,74,10,307,8,73,68,323,21,72,15,310,13,82,61,060,*51

6:07:44:408 Nachm. 03/26/17 - $GLGSV,3,2,09,80,54,116,,65,11,357,,,48,178,,81,15,030,*6C

6:07:44:408 Nachm. 03/26/17 - $GLGSV,3,3,09,71,02,264,*58

6:07:44:408 Nachm. 03/26/17 - $GPGGA,160741.0,5208.413389,N,01138.737729,E,1,04,3.1,52.1,M,45.0,M,,*67

6:07:44:409 Nachm. 03/26/17 - $GNGNS,160741.0,5208.413389,N,01138.737729,E,AA,05,3.1,52.1,45.0,,*52

6:07:44:409 Nachm. 03/26/17 - $GPVTG,77.9,T,77.5,M,0.0,N,0.0,K,A*2F

6:07:44:409 Nachm. 03/26/17 - $GPRMC,160741.0,A,5208.413389,N,01138.737729,E,0.0,77.9,260317,0.4,E,A*33

6:07:44:411 Nachm. 03/26/17 - $GPGSA,A,2,12,14,25,32,,,,,,,,,3.2,3.1,1.0*31

6:07:44:412 Nachm. 03/26/17 - $GNGSA,A,2,12,14,25,32,,,,,,,,,3.2,3.1,1.0*2F

6:07:44:412 Nachm. 03/26/17 - $GNGSA,A,2,73,,,,,,,,,,,,3.2,3.1,1.0*2B


