5:29:38:386 Nachm. 03/26/17 - $GPGSV,3,1,12,12,73,061,26,24,41,147,17,25,56,272,20,32,35,274,16*7B

5:29:38:386 Nachm. 03/26/17 - $GPGSV,3,2,12,02,28,111,,03,02,000,,06,26,064,,14,29,303,*7D

5:29:38:386 Nachm. 03/26/17 - $GPGSV,3,3,12,19,15,043,,22,00,338,,29,19,205,,31,10,306,*7B

5:29:38:388 Nachm. 03/26/17 - $GLGSV,3,1,09,82,64,109,16,80,71,082,14,81,33,036,14,73,49,309,*62

5:29:38:388 Nachm. 03/26/17 - $GLGSV,3,2,09,79,14,112,,65,02,012,,83,26,178,,71,16,278,*6B

5:29:38:388 Nachm. 03/26/17 - $GLGSV,3,3,09,72,18,329,*58

5:29:38:388 Nachm. 03/26/17 - $GPGGA,,,,,,0,,,,,,,,*66

5:29:38:391 Nachm. 03/26/17 - $GNGNS,,,,,,NN,,,,,,*53

5:29:38:392 Nachm. 03/26/17 - $GPVTG,,T,,M,,N,,K,N*2C

5:29:38:393 Nachm. 03/26/17 - $GPRMC,,V,,,,,,,,,,N*53

5:29:38:394 Nachm. 03/26/17 - $GPGSA,A,1,,,,,,,,,,,,,,,*1E

5:29:38:394 Nachm. 03/26/17 - $GNGSA,A,1,,,,,,,,,,,,,,,*00

5:29:39:389 Nachm. 03/26/17 - $GPGSV,3,1,12,12,73,061,27,24,41,147,17,25,56,272,20,32,35,274,16*7A

5:29:39:390 Nachm. 03/26/17 - $GPGSV,3,2,12,02,28,111,,03,02,000,,06,26,064,,14,29,303,*7D

5:29:39:391 Nachm. 03/26/17 - $GPGSV,3,3,12,19,15,043,,22,00,338,,29,19,205,,31,10,306,*7B

5:29:39:402 Nachm. 03/26/17 - $GLGSV,3,1,09,82,64,109,16,80,71,082,14,81,33,036,14,73,49,309,*62

5:29:39:403 Nachm. 03/26/17 - $GLGSV,3,2,09,79,14,112,,65,02,012,,83,26,178,,71,16,278,*6B

5:29:39:403 Nachm. 03/26/17 - $GLGSV,3,3,09,72,18,329,*58

5:29:39:411 Nachm. 03/26/17 - $GPGGA,,,,,,0,,,,,,,,*66

5:29:39:412 Nachm. 03/26/17 - $GNGNS,,,,,,NN,,,,,,*53

5:29:39:412 Nachm. 03/26/17 - $GPVTG,,T,,M,,N,,K,N*2C

5:29:39:412 Nachm. 03/26/17 - $GPRMC,,V,,,,,,,,,,N*53

5:29:39:413 Nachm. 03/26/17 - $GPGSA,A,1,,,,,,,,,,,,,,,*1E

5:29:39:413 Nachm. 03/26/17 - $GNGSA,A,1,,,,,,,,,,,,,,,*00

5:29:40:389 Nachm. 03/26/17 - $GPGSV,3,1,12,12,73,061,27,24,41,147,17,25,56,272,14,32,35,274,16*7D

5:29:40:390 Nachm. 03/26/17 - $GPGSV,3,2,12,02,28,111,,03,02,000,,06,26,064,,14,29,303,*7D

5:29:40:392 Nachm. 03/26/17 - $GPGSV,3,3,12,19,15,043,,22,00,338,,29,19,205,,31,10,306,*7B

5:29:40:393 Nachm. 03/26/17 - $GLGSV,3,1,09,82,64,109,16,80,71,082,14,81,33,036,14,73,49,309,*62

5:29:40:406 Nachm. 03/26/17 - $GLGSV,3,2,09,79,14,112,,65,02,012,,83,26,178,,71,16,278,*6B

5:29:40:407 Nachm. 03/26/17 - $GLGSV,3,3,09,72,18,329,*58

5:29:40:408 Nachm. 03/26/17 - $GPGGA,,,,,,0,,,,,,,,*66

5:29:40:409 Nachm. 03/26/17 - $GNGNS,,,,,,NN,,,,,,*53

5:29:40:409 Nachm. 03/26/17 - $GPVTG,,T,,M,,N,,K,N*2C

5:29:40:410 Nachm. 03/26/17 - $GPRMC,,V,,,,,,,,,,N*53

5:29:40:411 Nachm. 03/26/17 - $GPGSA,A,1,,,,,,,,,,,,,,,*1E

5:29:40:411 Nachm. 03/26/17 - $GNGSA,A,1,,,,,,,,,,,,,,,*00

5:29:41:389 Nachm. 03/26/17 - $GPGSV,3,1,12,12,73,061,21,24,41,147,17,25,56,272,19,32,35,274,16*76

5:29:41:391 Nachm. 03/26/17 - $GPGSV,3,2,12,02,28,111,,03,02,000,,06,26,064,,14,29,303,*7D

5:29:41:394 Nachm. 03/26/17 - $GPGSV,3,3,12,19,15,043,,22,00,338,,29,19,205,,31,10,306,*7B

5:29:41:395 Nachm. 03/26/17 - $GLGSV,3,1,09,82,64,109,21,80,71,082,14,81,33,036,14,73,49,309,*66

5:29:41:405 Nachm. 03/26/17 - $GLGSV,3,2,09,79,14,112,,65,02,012,,83,26,178,,71,16,278,*6B

5:29:41:409 Nachm. 03/26/17 - $GLGSV,3,3,09,72,18,329,*58

5:29:41:410 Nachm. 03/26/17 - $GPGGA,,,,,,0,,,,,,,,*66

5:29:41:410 Nachm. 03/26/17 - $GNGNS,,,,,,NN,,,,,,*53

5:29:41:411 Nachm. 03/26/17 - $GPVTG,,T,,M,,N,,K,N*2C

5:29:41:411 Nachm. 03/26/17 - $GPRMC,,V,,,,,,,,,,N*53

5:29:41:412 Nachm. 03/26/17 - $GPGSA,A,1,,,,,,,,,,,,,,,*1E

5:29:41:412 Nachm. 03/26/17 - $GNGSA,A,1,,,,,,,,,,,,,,,*00

5:29:42:389 Nachm. 03/26/17 - $GPGSV,3,1,12,12,73,061,22,24,41,147,13,25,56,272,23,32,35,274,13*7D

5:29:42:389 Nachm. 03/26/17 - $GPGSV,3,2,12,02,28,111,,03,02,000,,06,26,064,,14,29,303,*7D

5:29:42:390 Nachm. 03/26/17 - $GPGSV,3,3,12,19,15,043,,22,00,338,,29,19,205,,31,10,306,*7B

5:29:42:390 Nachm. 03/26/17 - $GLGSV,3,1,09,82,64,109,22,80,71,082,14,81,33,036,14,73,49,309,*65

5:29:42:393 Nachm. 03/26/17 - $GLGSV,3,2,09,79,14,112,,65,02,012,,83,26,178,,71,16,278,*6B

5:29:42:393 Nachm. 03/26/17 - $GLGSV,3,3,09,72,18,329,*58

5:29:42:395 Nachm. 03/26/17 - $GPGGA,,,,,,0,,,,,,,,*66

5:29:42:396 Nachm. 03/26/17 - $GNGNS,,,,,,NN,,,,,,*53

5:29:42:397 Nachm. 03/26/17 - $GPVTG,,T,,M,,N,,K,N*2C

5:29:42:397 Nachm. 03/26/17 - $GPRMC,,V,,,,,,,,,,N*53

5:29:42:402 Nachm. 03/26/17 - $GPGSA,A,1,,,,,,,,,,,,,,,*1E

5:29:42:402 Nachm. 03/26/17 - $GNGSA,A,1,,,,,,,,,,,,,,,*00

5:29:43:389 Nachm. 03/26/17 - $GPGSV,3,1,12,12,73,061,24,24,41,147,13,25,56,272,21,32,35,274,21*78

5:29:43:390 Nachm. 03/26/17 - $GPGSV,3,2,12,02,28,111,,03,02,000,,06,26,064,,14,29,303,*7D

5:29:43:391 Nachm. 03/26/17 - $GPGSV,3,3,12,19,15,043,,22,00,338,,29,19,205,,31,10,306,*7B

5:29:43:392 Nachm. 03/26/17 - $GLGSV,3,1,09,82,64,109,23,80,71,082,10,81,33,036,14,73,49,309,*60

5:29:43:392 Nachm. 03/26/17 - $GLGSV,3,2,09,79,14,112,,65,02,012,,83,26,178,,71,16,278,*6B

5:29:43:393 Nachm. 03/26/17 - $GLGSV,3,3,09,72,18,329,*58

5:29:43:408 Nachm. 03/26/17 - $GPGGA,,,,,,0,,,,,,,,*66

5:29:43:409 Nachm. 03/26/17 - $GNGNS,,,,,,NN,,,,,,*53

5:29:43:409 Nachm. 03/26/17 - $GPVTG,,T,,M,,N,,K,N*2C

5:29:43:410 Nachm. 03/26/17 - $GPRMC,,V,,,,,,,,,,N*53

5:29:43:410 Nachm. 03/26/17 - $GPGSA,A,1,,,,,,,,,,,,,,,*1E

5:29:43:411 Nachm. 03/26/17 - $GNGSA,A,1,,,,,,,,,,,,,,,*00

5:29:44:387 Nachm. 03/26/17 - $GPGSV,3,1,12,12,73,061,25,14,29,303,12,24,41,147,13,25,56,272,23*73

5:29:44:389 Nachm. 03/26/17 - $GPGSV,3,2,12,32,35,274,22,02,28,111,,03,02,000,,06,26,064,*75

5:29:44:392 Nachm. 03/26/17 - $GPGSV,3,3,12,19,15,043,,22,00,338,,29,19,205,,31,10,306,*7B

5:29:44:394 Nachm. 03/26/17 - $GLGSV,3,1,09,82,64,109,22,80,71,082,10,81,33,036,10,71,16,278,16*6D

5:29:44:403 Nachm. 03/26/17 - $GLGSV,3,2,09,73,49,309,,79,14,112,,65,02,012,,83,26,178,*64

5:29:44:405 Nachm. 03/26/17 - $GLGSV,3,3,09,72,18,329,*58

5:29:44:410 Nachm. 03/26/17 - $GPGGA,,,,,,0,,,,,,,,*66

5:29:44:411 Nachm. 03/26/17 - $GNGNS,,,,,,NN,,,,,,*53

5:29:44:411 Nachm. 03/26/17 - $GPVTG,,T,,M,,N,,K,N*2C

5:29:44:411 Nachm. 03/26/17 - $GPRMC,,V,,,,,,,,,,N*53

5:29:44:412 Nachm. 03/26/17 - $GPGSA,A,1,,,,,,,,,,,,,,,*1E

5:29:44:412 Nachm. 03/26/17 - $GNGSA,A,1,,,,,,,,,,,,,,,*00

5:29:45:387 Nachm. 03/26/17 - $GPGSV,3,1,12,12,73,061,24,14,29,303,17,24,41,147,13,25,56,272,23*77

5:29:45:389 Nachm. 03/26/17 - $GPGSV,3,2,12,32,35,274,21,02,28,111,,03,02,000,,06,26,064,*76

5:29:45:390 Nachm. 03/26/17 - $GPGSV,3,3,12,19,15,043,,22,00,338,,29,19,205,,31,10,306,*7B

5:29:45:391 Nachm. 03/26/17 - $GLGSV,3,1,09,82,64,109,24,80,71,082,10,81,33,036,10,71,16,278,17*6A

5:29:45:391 Nachm. 03/26/17 - $GLGSV,3,2,09,73,49,309,,79,14,112,,65,02,012,,83,26,178,*64

5:29:45:392 Nachm. 03/26/17 - $GLGSV,3,3,09,72,18,329,*58

5:29:45:403 Nachm. 03/26/17 - $GPGGA,,,,,,0,,,,,,,,*66

5:29:45:406 Nachm. 03/26/17 - $GNGNS,,,,,,NN,,,,,,*53

5:29:45:407 Nachm. 03/26/17 - $GPVTG,,T,,M,,N,,K,N*2C

5:29:45:407 Nachm. 03/26/17 - $GPRMC,,V,,,,,,,,,,N*53

5:29:45:407 Nachm. 03/26/17 - $GPGSA,A,1,,,,,,,,,,,,,,,*1E

5:29:45:407 Nachm. 03/26/17 - $GNGSA,A,1,,,,,,,,,,,,,,,*00

5:29:46:388 Nachm. 03/26/17 - $GPGSV,3,1,12,12,73,061,23,14,29,303,17,24,41,147,13,25,56,272,19*79

5:29:46:390 Nachm. 03/26/17 - $GPGSV,3,2,12,32,35,274,23,02,28,111,,03,02,000,,06,26,064,*74

5:29:46:392 Nachm. 03/26/17 - $GPGSV,3,3,12,19,15,043,,22,00,338,,29,19,205,,31,10,306,*7B

5:29:46:394 Nachm. 03/26/17 - $GLGSV,3,1,09,82,64,109,22,80,71,082,10,81,33,036,10,71,16,278,16*6D

5:29:46:402 Nachm. 03/26/17 - $GLGSV,3,2,09,73,49,309,,79,14,112,,65,02,012,,83,26,178,*64

5:29:46:408 Nachm. 03/26/17 - $GLGSV,3,3,09,72,18,329,*58

5:29:46:411 Nachm. 03/26/17 - $GPGGA,,,,,,0,,,,,,,,*66

5:29:46:411 Nachm. 03/26/17 - $GNGNS,,,,,,NN,,,,,,*53

5:29:46:412 Nachm. 03/26/17 - $GPVTG,,T,,M,,N,,K,N*2C

5:29:46:412 Nachm. 03/26/17 - $GPRMC,,V,,,,,,,,,,N*53

5:29:46:413 Nachm. 03/26/17 - $GPGSA,A,1,,,,,,,,,,,,,,,*1E

5:29:46:413 Nachm. 03/26/17 - $GNGSA,A,1,,,,,,,,,,,,,,,*00

5:29:47:389 Nachm. 03/26/17 - $GPGSV,3,1,12,12,73,061,21,14,29,303,17,24,41,147,13,25,56,272,19*7B

5:29:47:390 Nachm. 03/26/17 - $GPGSV,3,2,12,32,35,274,22,02,28,111,,03,02,000,,06,26,064,*75

5:29:47:391 Nachm. 03/26/17 - $GPGSV,3,3,12,19,15,043,,22,00,338,,29,19,205,,31,10,306,*7B

5:29:47:391 Nachm. 03/26/17 - $GLGSV,3,1,09,82,64,109,21,80,71,082,10,81,33,036,10,71,16,278,17*6F

5:29:47:392 Nachm. 03/26/17 - $GLGSV,3,2,09,73,49,309,,79,14,112,,65,02,012,,83,26,178,*64

5:29:47:392 Nachm. 03/26/17 - $GLGSV,3,3,09,72,18,329,*58

5:29:47:393 Nachm. 03/26/17 - $GPGGA,,,,,,0,,,,,,,,*66

5:29:47:394 Nachm. 03/26/17 - $GNGNS,,,,,,NN,,,,,,*53

5:29:47:394 Nachm. 03/26/17 - $GPVTG,,T,,M,,N,,K,N*2C

5:29:47:395 Nachm. 03/26/17 - $GPRMC,,V,,,,,,,,,,N*53

5:29:47:395 Nachm. 03/26/17 - $GPGSA,A,1,,,,,,,,,,,,,,,*1E

5:29:47:398 Nachm. 03/26/17 - $GNGSA,A,1,,,,,,,,,,,,,,,*00

5:29:48:387 Nachm. 03/26/17 - $GPGSV,3,1,12,12,73,061,21,14,29,303,17,24,41,147,13,25,56,272,19*7B

5:29:48:388 Nachm. 03/26/17 - $GPGSV,3,2,12,32,35,274,20,02,28,111,,03,02,000,,06,26,064,*77

5:29:48:390 Nachm. 03/26/17 - $GPGSV,3,3,12,19,15,043,,22,00,338,,29,19,205,,31,10,306,*7B

5:29:48:393 Nachm. 03/26/17 - $GLGSV,3,1,09,82,64,109,22,80,71,082,10,81,33,036,10,71,16,278,16*6D

5:29:48:394 Nachm. 03/26/17 - $GLGSV,3,2,09,73,49,309,,79,14,112,,65,02,012,,83,26,178,*64

5:29:48:395 Nachm. 03/26/17 - $GLGSV,3,3,09,72,18,329,*58

5:29:48:411 Nachm. 03/26/17 - $GPGGA,152945.0,5208.390194,N,01138.447365,E,1,05,2.1,83.9,M,45.0,M,,*62

5:29:48:429 Nachm. 03/26/17 - $GNGNS,152945.0,5208.390194,N,01138.447365,E,AN,05,2.1,83.9,45.0,,*59

5:29:48:430 Nachm. 03/26/17 - $GPVTG,118.0,T,117.6,M,0.0,N,0.0,K,A*2A

5:29:48:430 Nachm. 03/26/17 - $GPRMC,152945.0,A,5208.390194,N,01138.447365,E,0.0,118.0,260317,0.4,E,A*03

5:29:48:430 Nachm. 03/26/17 - $GPGSA,A,2,12,14,24,25,32,,,,,,,,2.3,2.1,1.0*36

5:29:48:430 Nachm. 03/26/17 - $GNGSA,A,2,12,14,24,25,32,,,,,,,,2.3,2.1,1.0*28

5:29:48:432 Nachm. 03/26/17 - $GNGSA,A,2,,,,,,,,,,,,,2.3,2.1,1.0*2E

5:29:49:388 Nachm. 03/26/17 - $GPGSV,3,1,12,12,73,061,23,14,29,303,16,24,41,147,13,25,56,272,14*75

5:29:49:390 Nachm. 03/26/17 - $GPGSV,3,2,12,32,35,274,21,02,28,111,,03,02,000,,06,26,064,*76

5:29:49:395 Nachm. 03/26/17 - $GPGSV,3,3,12,19,15,043,,22,00,338,,29,19,205,,31,10,306,*7B

5:29:49:397 Nachm. 03/26/17 - $GLGSV,3,1,09,82,64,109,24,80,71,082,10,81,33,036,10,71,16,278,17*6A

5:29:49:398 Nachm. 03/26/17 - $GLGSV,3,2,09,73,49,309,,79,14,112,,65,02,012,,83,26,178,*64

5:29:49:400 Nachm. 03/26/17 - $GLGSV,3,3,09,72,18,329,*58

5:29:49:411 Nachm. 03/26/17 - $GPGGA,,,,,,0,,,,,,,,*66

5:29:49:415 Nachm. 03/26/17 - $GNGNS,,,,,,NN,,,,,,*53

5:29:49:416 Nachm. 03/26/17 - $GPVTG,,T,,M,,N,,K,N*2C

5:29:49:416 Nachm. 03/26/17 - $GPRMC,,V,,,,,,,,,,N*53

5:29:49:417 Nachm. 03/26/17 - $GPGSA,A,1,,,,,,,,,,,,,,,*1E

5:29:49:417 Nachm. 03/26/17 - $GNGSA,A,1,,,,,,,,,,,,,,,*00

5:29:50:390 Nachm. 03/26/17 - $GPGSV,3,1,12,12,73,061,22,14,29,303,16,24,41,147,13,25,56,272,16*76

5:29:50:391 Nachm. 03/26/17 - $GPGSV,3,2,12,32,35,274,20,02,28,111,,03,02,000,,06,26,064,*77

5:29:50:391 Nachm. 03/26/17 - $GPGSV,3,3,12,19,15,043,,22,00,338,,29,19,205,,31,10,306,*7B

5:29:50:392 Nachm. 03/26/17 - $GLGSV,3,1,09,82,64,109,24,80,71,082,10,81,33,036,10,71,16,278,17*6A

5:29:50:393 Nachm. 03/26/17 - $GLGSV,3,2,09,73,49,309,,79,14,112,,65,02,012,,83,26,178,*64

5:29:50:397 Nachm. 03/26/17 - $GLGSV,3,3,09,72,18,329,*58

5:29:50:405 Nachm. 03/26/17 - $GPGGA,,,,,,0,,,,,,,,*66

5:29:50:408 Nachm. 03/26/17 - $GNGNS,,,,,,NN,,,,,,*53

5:29:50:409 Nachm. 03/26/17 - $GPVTG,,T,,M,,N,,K,N*2C

5:29:50:409 Nachm. 03/26/17 - $GPRMC,,V,,,,,,,,,,N*53

5:29:50:409 Nachm. 03/26/17 - $GPGSA,A,1,,,,,,,,,,,,,,,*1E

5:29:50:409 Nachm. 03/26/17 - $GNGSA,A,1,,,,,,,,,,,,,,,*00

5:29:51:388 Nachm. 03/26/17 - $GPGSV,3,1,12,12,73,061,22,14,29,303,17,24,41,147,13,25,56,272,16*77

5:29:51:389 Nachm. 03/26/17 - $GPGSV,3,2,12,32,35,274,20,02,28,111,,03,02,000,,06,26,064,*77

5:29:51:390 Nachm. 03/26/17 - $GPGSV,3,3,12,19,15,043,,22,00,338,,29,19,205,,31,10,306,*7B

5:29:51:400 Nachm. 03/26/17 - $GLGSV,3,1,09,82,64,109,23,80,71,082,10,81,33,036,13,71,16,278,17*6E

5:29:51:401 Nachm. 03/26/17 - $GLGSV,3,2,09,73,49,309,,79,14,112,,65,02,012,,83,26,178,*64

5:29:51:402 Nachm. 03/26/17 - $GLGSV,3,3,09,72,18,329,*58

5:29:51:409 Nachm. 03/26/17 - $GPGGA,,,,,,0,,,,,,,,*66

5:29:51:410 Nachm. 03/26/17 - $GNGNS,,,,,,NN,,,,,,*53

5:29:51:411 Nachm. 03/26/17 - $GPVTG,,T,,M,,N,,K,N*2C

5:29:51:412 Nachm. 03/26/17 - $GPRMC,,V,,,,,,,,,,N*53

5:29:51:412 Nachm. 03/26/17 - $GPGSA,A,1,,,,,,,,,,,,,,,*1E

5:29:51:412 Nachm. 03/26/17 - $GNGSA,A,1,,,,,,,,,,,,,,,*00

5:29:52:389 Nachm. 03/26/17 - $GPGSV,3,1,12,12,73,061,22,14,29,303,17,24,41,147,13,25,56,272,16*77

5:29:52:390 Nachm. 03/26/17 - $GPGSV,3,2,12,32,35,274,20,02,28,111,,03,02,000,,06,26,064,*77

5:29:52:390 Nachm. 03/26/17 - $GPGSV,3,3,12,19,15,043,,22,00,338,,29,19,205,,31,10,306,*7B

5:29:52:393 Nachm. 03/26/17 - $GLGSV,3,1,09,82,64,109,24,80,71,082,10,81,33,036,13,71,16,278,17*69

5:29:52:400 Nachm. 03/26/17 - $GLGSV,3,2,09,73,49,309,,79,14,112,,65,02,012,,83,26,178,*64

5:29:52:407 Nachm. 03/26/17 - $GLGSV,3,3,09,72,18,329,*58

5:29:52:408 Nachm. 03/26/17 - $GPGGA,,,,,,0,,,,,,,,*66

5:29:52:409 Nachm. 03/26/17 - $GNGNS,,,,,,NN,,,,,,*53

5:29:52:409 Nachm. 03/26/17 - $GPVTG,,T,,M,,N,,K,N*2C

5:29:52:410 Nachm. 03/26/17 - $GPRMC,,V,,,,,,,,,,N*53

5:29:52:410 Nachm. 03/26/17 - $GPGSA,A,1,,,,,,,,,,,,,,,*1E

5:29:52:410 Nachm. 03/26/17 - $GNGSA,A,1,,,,,,,,,,,,,,,*00

5:29:53:388 Nachm. 03/26/17 - $GPGSV,3,1,12,12,73,061,21,14,29,303,17,24,41,147,13,25,56,272,14*76

5:29:53:390 Nachm. 03/26/17 - $GPGSV,3,2,12,32,35,274,19,02,28,111,,03,02,000,,06,26,064,*7D

5:29:53:393 Nachm. 03/26/17 - $GPGSV,3,3,12,19,15,043,,22,00,338,,29,19,205,,31,10,306,*7B

5:29:53:394 Nachm. 03/26/17 - $GLGSV,3,1,09,82,64,109,23,80,71,082,10,81,33,036,13,71,16,278,17*6E

5:29:53:395 Nachm. 03/26/17 - $GLGSV,3,2,09,73,49,309,,79,14,112,,65,02,012,,83,26,178,*64

5:29:53:404 Nachm. 03/26/17 - $GLGSV,3,3,09,72,18,329,*58

5:29:53:404 Nachm. 03/26/17 - $GPGGA,,,,,,0,,,,,,,,*66

5:29:53:411 Nachm. 03/26/17 - $GNGNS,,,,,,NN,,,,,,*53

5:29:53:418 Nachm. 03/26/17 - $GPVTG,,T,,M,,N,,K,N*2C

5:29:53:419 Nachm. 03/26/17 - $GPRMC,,V,,,,,,,,,,N*53

5:29:53:419 Nachm. 03/26/17 - $GPGSA,A,1,,,,,,,,,,,,,,,*1E

5:29:53:420 Nachm. 03/26/17 - $GNGSA,A,1,,,,,,,,,,,,,,,*00

5:29:54:387 Nachm. 03/26/17 - $GPGSV,3,1,12,12,73,061,23,14,29,303,16,24,41,147,10,25,56,272,14*76

5:29:54:388 Nachm. 03/26/17 - $GPGSV,3,2,12,32,35,274,19,02,28,111,,03,02,000,,06,26,064,*7D

5:29:54:391 Nachm. 03/26/17 - $GPGSV,3,3,12,19,15,043,,22,00,338,,29,19,205,,31,10,306,*7B

5:29:54:393 Nachm. 03/26/17 - $GLGSV,3,1,09,82,64,109,24,80,71,082,10,81,33,036,15,71,16,278,16*6E

5:29:54:394 Nachm. 03/26/17 - $GLGSV,3,2,09,73,49,309,,79,14,112,,65,02,012,,83,26,178,*64

5:29:54:395 Nachm. 03/26/17 - $GLGSV,3,3,09,72,18,329,*58

5:29:54:398 Nachm. 03/26/17 - $GPGGA,,,,,,0,,,,,,,,*66

5:29:54:404 Nachm. 03/26/17 - $GNGNS,,,,,,NN,,,,,,*53

5:29:54:405 Nachm. 03/26/17 - $GPVTG,,T,,M,,N,,K,N*2C

5:29:54:408 Nachm. 03/26/17 - $GPRMC,,V,,,,,,,,,,N*53

5:29:54:410 Nachm. 03/26/17 - $GPGSA,A,1,,,,,,,,,,,,,,,*1E

5:29:54:410 Nachm. 03/26/17 - $GNGSA,A,1,,,,,,,,,,,,,,,*00

5:29:55:387 Nachm. 03/26/17 - $GPGSV,3,1,12,12,73,061,23,14,29,303,16,24,41,147,10,25,56,272,16*74

5:29:55:388 Nachm. 03/26/17 - $GPGSV,3,2,12,32,35,274,19,02,28,111,,03,02,000,,06,26,064,*7D

5:29:55:390 Nachm. 03/26/17 - $GPGSV,3,3,12,19,15,043,,22,00,338,,29,19,205,,31,10,306,*7B

5:29:55:393 Nachm. 03/26/17 - $GLGSV,3,1,09,82,64,109,24,80,71,082,10,81,33,036,15,71,16,278,16*6E

5:29:55:395 Nachm. 03/26/17 - $GLGSV,3,2,09,73,49,309,,79,14,112,,65,02,012,,83,26,178,*64

5:29:55:401 Nachm. 03/26/17 - $GLGSV,3,3,09,72,18,329,*58

5:29:55:402 Nachm. 03/26/17 - $GPGGA,,,,,,0,,,,,,,,*66

5:29:55:402 Nachm. 03/26/17 - $GNGNS,,,,,,NN,,,,,,*53

5:29:55:407 Nachm. 03/26/17 - $GPVTG,,T,,M,,N,,K,N*2C

5:29:55:407 Nachm. 03/26/17 - $GPRMC,,V,,,,,,,,,,N*53

5:29:55:408 Nachm. 03/26/17 - $GPGSA,A,1,,,,,,,,,,,,,,,*1E

5:29:55:408 Nachm. 03/26/17 - $GNGSA,A,1,,,,,,,,,,,,,,,*00

5:29:56:389 Nachm. 03/26/17 - $GPGSV,3,1,12,12,73,061,21,14,29,303,16,24,41,147,10,25,56,272,16*76

5:29:56:390 Nachm. 03/26/17 - $GPGSV,3,2,12,32,35,274,17,02,28,111,,03,02,000,,06,26,064,*73

5:29:56:391 Nachm. 03/26/17 - $GPGSV,3,3,12,19,15,043,,22,00,338,,29,19,205,,31,10,306,*7B

5:29:56:391 Nachm. 03/26/17 - $GLGSV,3,1,09,82,64,109,24,80,71,082,10,81,33,036,15,71,16,278,16*6E

5:29:56:401 Nachm. 03/26/17 - $GLGSV,3,2,09,73,49,309,,79,14,112,,65,02,012,,83,26,178,*64

5:29:56:402 Nachm. 03/26/17 - $GLGSV,3,3,09,72,18,329,*58

5:29:56:403 Nachm. 03/26/17 - $GPGGA,,,,,,0,,,,,,,,*66

5:29:56:404 Nachm. 03/26/17 - $GNGNS,,,,,,NN,,,,,,*53

5:29:56:404 Nachm. 03/26/17 - $GPVTG,,T,,M,,N,,K,N*2C

5:29:56:405 Nachm. 03/26/17 - $GPRMC,,V,,,,,,,,,,N*53

5:29:56:406 Nachm. 03/26/17 - $GPGSA,A,1,,,,,,,,,,,,,,,*1E

5:29:56:406 Nachm. 03/26/17 - $GNGSA,A,1,,,,,,,,,,,,,,,*00

5:29:57:388 Nachm. 03/26/17 - $GPGSV,3,1,12,12,73,061,22,14,29,303,16,24,41,147,10,25,56,272,15*76

5:29:57:390 Nachm. 03/26/17 - $GPGSV,3,2,12,32,35,274,17,02,28,111,,03,02,000,,06,26,064,*73

5:29:57:393 Nachm. 03/26/17 - $GPGSV,3,3,12,19,15,043,,22,00,338,,29,19,205,,31,10,306,*7B

5:29:57:405 Nachm. 03/26/17 - $GLGSV,3,1,09,82,64,109,23,80,71,082,10,81,33,036,15,71,16,278,16*69

5:29:57:408 Nachm. 03/26/17 - $GLGSV,3,2,09,73,49,309,,79,14,112,,65,02,012,,83,26,178,*64

5:29:57:409 Nachm. 03/26/17 - $GLGSV,3,3,09,72,18,329,*58

5:29:57:409 Nachm. 03/26/17 - $GPGGA,,,,,,0,,,,,,,,*66

5:29:57:409 Nachm. 03/26/17 - $GNGNS,,,,,,NN,,,,,,*53

5:29:57:409 Nachm. 03/26/17 - $GPVTG,,T,,M,,N,,K,N*2C

5:29:57:410 Nachm. 03/26/17 - $GPRMC,,V,,,,,,,,,,N*53

5:29:57:410 Nachm. 03/26/17 - $GPGSA,A,1,,,,,,,,,,,,,,,*1E

5:29:57:410 Nachm. 03/26/17 - $GNGSA,A,1,,,,,,,,,,,,,,,*00


