5:36:56:386 Nachm. 03/26/17 - $GPGSV,3,1,12,02,30,108,22,06,26,061,21,12,70,066,20,14,30,299,12*77

5:36:56:386 Nachm. 03/26/17 - $GPGSV,3,2,12,19,12,043,20,24,38,147,20,25,58,275,17,29,22,206,19*73

5:36:56:387 Nachm. 03/26/17 - $GPGSV,3,3,12,31,13,307,13,32,34,270,20,03,02,357,,22,,,*4D

5:36:56:394 Nachm. 03/26/17 - $GLGSV,3,1,09,82,66,101,18,73,52,312,19,80,68,091,15,79,11,115,14*62

5:36:56:396 Nachm. 03/26/17 - $GLGSV,3,2,09,83,30,178,15,81,29,035,25,71,14,275,8,72,18,326,14*59

5:36:56:396 Nachm. 03/26/17 - $GLGSV,3,3,09,65,04,009,*52

5:36:56:403 Nachm. 03/26/17 - $GPGGA,153653.0,5208.367964,N,01138.431337,E,1,07,1.1,67.0,M,45.0,M,,*60

5:36:56:409 Nachm. 03/26/17 - $GNGNS,153653.0,5208.367964,N,01138.431337,E,AA,08,1.1,67.0,45.0,,*5B

5:36:56:410 Nachm. 03/26/17 - $GPVTG,118.0,T,117.6,M,0.0,N,0.0,K,A*2A

5:36:56:410 Nachm. 03/26/17 - $GPRMC,153653.0,A,5208.367964,N,01138.431337,E,0.0,118.0,260317,0.4,E,A*03

5:36:56:411 Nachm. 03/26/17 - $GPGSA,A,2,02,06,12,14,19,24,31,,,,,,1.4,1.1,0.9*31

5:36:56:412 Nachm. 03/26/17 - $GNGSA,A,2,02,06,12,14,19,24,31,,,,,,1.4,1.1,0.9*2F

5:36:56:413 Nachm. 03/26/17 - $GNGSA,A,2,73,,,,,,,,,,,,1.4,1.1,0.9*25

5:36:57:386 Nachm. 03/26/17 - $GPGSV,3,1,12,02,30,108,22,06,26,061,19,12,70,066,18,14,30,299,12*77

5:36:57:390 Nachm. 03/26/17 - $GPGSV,3,2,12,19,12,043,22,24,38,147,20,29,22,206,19,31,13,307,13*7B

5:36:57:391 Nachm. 03/26/17 - $GPGSV,3,3,12,32,34,270,20,03,02,357,,22,,,,25,58,275,*41

5:36:57:392 Nachm. 03/26/17 - $GLGSV,3,1,09,82,66,101,16,73,52,312,19,80,68,091,15,79,11,115,14*6C

5:36:57:403 Nachm. 03/26/17 - $GLGSV,3,2,09,83,30,178,16,81,29,035,25,71,14,275,8,72,18,326,14*5A

5:36:57:404 Nachm. 03/26/17 - $GLGSV,3,3,09,65,04,009,*52

5:36:57:404 Nachm. 03/26/17 - $GPGGA,153654.0,5208.367963,N,01138.431337,E,1,07,1.1,67.0,M,45.0,M,,*60

5:36:57:405 Nachm. 03/26/17 - $GNGNS,153654.0,5208.367963,N,01138.431337,E,AA,08,1.1,67.0,45.0,,*5B

5:36:57:405 Nachm. 03/26/17 - $GPVTG,118.0,T,117.6,M,0.0,N,0.0,K,A*2A

5:36:57:405 Nachm. 03/26/17 - $GPRMC,153654.0,A,5208.367963,N,01138.431337,E,0.0,118.0,260317,0.4,E,A*03

5:36:57:405 Nachm. 03/26/17 - $GPGSA,A,2,02,06,12,14,19,24,31,,,,,,1.4,1.1,0.9*31

5:36:57:406 Nachm. 03/26/17 - $GNGSA,A,2,02,06,12,14,19,24,31,,,,,,1.4,1.1,0.9*2F

5:36:57:406 Nachm. 03/26/17 - $GNGSA,A,2,73,,,,,,,,,,,,1.4,1.1,0.9*25

5:36:58:387 Nachm. 03/26/17 - $GPGSV,3,1,12,02,30,108,22,06,26,061,25,12,70,066,20,14,30,299,12*73

5:36:58:389 Nachm. 03/26/17 - $GPGSV,3,2,12,19,12,043,18,24,38,147,20,29,22,206,19,31,13,307,13*72

5:36:58:391 Nachm. 03/26/17 - $GPGSV,3,3,12,32,34,270,20,03,02,357,,22,,,,25,58,275,*41

5:36:58:392 Nachm. 03/26/17 - $GLGSV,3,1,09,82,66,101,16,73,52,312,19,80,68,091,15,79,11,115,7*5E

5:36:58:393 Nachm. 03/26/17 - $GLGSV,3,2,09,83,30,178,18,81,29,035,22,71,14,275,8,72,18,326,14*53

5:36:58:394 Nachm. 03/26/17 - $GLGSV,3,3,09,65,04,009,*52

5:36:58:398 Nachm. 03/26/17 - $GPGGA,153655.0,5208.367964,N,01138.431337,E,1,07,1.1,67.0,M,45.0,M,,*66

5:36:58:401 Nachm. 03/26/17 - $GNGNS,153655.0,5208.367964,N,01138.431337,E,AA,08,1.1,67.0,45.0,,*5D

5:36:58:402 Nachm. 03/26/17 - $GPVTG,118.0,T,117.6,M,0.0,N,0.0,K,A*2A

5:36:58:402 Nachm. 03/26/17 - $GPRMC,153655.0,A,5208.367964,N,01138.431337,E,0.0,118.0,260317,0.4,E,A*05

5:36:58:403 Nachm. 03/26/17 - $GPGSA,A,2,02,06,12,14,19,24,31,,,,,,1.4,1.1,0.9*31

5:36:58:405 Nachm. 03/26/17 - $GNGSA,A,2,02,06,12,14,19,24,31,,,,,,1.4,1.1,0.9*2F

5:36:58:405 Nachm. 03/26/17 - $GNGSA,A,2,73,,,,,,,,,,,,1.4,1.1,0.9*25

5:36:59:386 Nachm. 03/26/17 - $GPGSV,3,1,12,02,30,108,22,06,26,061,27,12,70,066,21,14,30,299,12*70

5:36:59:387 Nachm. 03/26/17 - $GPGSV,3,2,12,19,12,043,19,24,38,147,20,29,22,206,19,31,13,307,13*73

5:36:59:388 Nachm. 03/26/17 - $GPGSV,3,3,12,32,34,270,20,03,02,357,,22,,,,25,58,275,*41

5:36:59:388 Nachm. 03/26/17 - $GLGSV,3,1,09,82,66,101,16,73,52,312,19,80,68,091,15,79,11,115,7*5E

5:36:59:398 Nachm. 03/26/17 - $GLGSV,3,2,09,83,30,178,18,81,29,035,23,71,14,275,8,72,18,326,14*52

5:36:59:407 Nachm. 03/26/17 - $GLGSV,3,3,09,65,04,009,*52

5:36:59:407 Nachm. 03/26/17 - $GPGGA,153656.0,5208.367965,N,01138.431337,E,1,07,1.1,67.0,M,45.0,M,,*64

5:36:59:408 Nachm. 03/26/17 - $GNGNS,153656.0,5208.367965,N,01138.431337,E,AN,07,1.1,67.0,45.0,,*5F

5:36:59:408 Nachm. 03/26/17 - $GPVTG,118.0,T,117.6,M,0.0,N,0.0,K,A*2A

5:36:59:409 Nachm. 03/26/17 - $GPRMC,153656.0,A,5208.367965,N,01138.431337,E,0.0,118.0,260317,0.4,E,A*07

5:36:59:409 Nachm. 03/26/17 - $GPGSA,A,2,02,06,12,14,19,24,31,,,,,,1.4,1.1,0.9*31

5:36:59:410 Nachm. 03/26/17 - $GNGSA,A,2,02,06,12,14,19,24,31,,,,,,1.4,1.1,0.9*2F

5:36:59:410 Nachm. 03/26/17 - $GNGSA,A,2,,,,,,,,,,,,,1.4,1.1,0.9*21

5:37:00:388 Nachm. 03/26/17 - $GPGSV,3,1,12,02,30,108,22,06,26,061,21,12,70,066,21,14,30,299,12*76

5:37:00:389 Nachm. 03/26/17 - $GPGSV,3,2,12,19,12,043,23,24,38,147,20,29,22,206,19,31,13,307,13*7A

5:37:00:390 Nachm. 03/26/17 - $GPGSV,3,3,12,32,34,270,20,03,02,357,,22,,,,25,58,275,*41

5:37:00:390 Nachm. 03/26/17 - $GLGSV,3,1,09,82,66,101,16,73,52,312,19,80,68,091,15,79,11,115,7*5E

5:37:00:391 Nachm. 03/26/17 - $GLGSV,3,2,09,83,30,178,19,81,29,035,23,71,14,275,8,72,18,326,14*53

5:37:00:392 Nachm. 03/26/17 - $GLGSV,3,3,09,65,04,009,*52

5:37:00:404 Nachm. 03/26/17 - $GPGGA,153657.0,5208.367964,N,01138.431337,E,1,07,1.1,67.0,M,45.0,M,,*64

5:37:00:405 Nachm. 03/26/17 - $GNGNS,153657.0,5208.367964,N,01138.431337,E,AN,07,1.1,67.0,45.0,,*5F

5:37:00:406 Nachm. 03/26/17 - $GPVTG,118.0,T,117.6,M,0.0,N,0.0,K,A*2A

5:37:00:406 Nachm. 03/26/17 - $GPRMC,153657.0,A,5208.367964,N,01138.431337,E,0.0,118.0,260317,0.4,E,A*07

5:37:00:407 Nachm. 03/26/17 - $GPGSA,A,2,02,06,12,14,19,24,31,,,,,,1.4,1.1,0.9*31

5:37:00:407 Nachm. 03/26/17 - $GNGSA,A,2,02,06,12,14,19,24,31,,,,,,1.4,1.1,0.9*2F

5:37:00:407 Nachm. 03/26/17 - $GNGSA,A,2,,,,,,,,,,,,,1.4,1.1,0.9*21

5:37:01:388 Nachm. 03/26/17 - $GPGSV,3,1,12,02,30,108,22,06,26,061,23,12,70,066,16,14,30,299,12*70

5:37:01:389 Nachm. 03/26/17 - $GPGSV,3,2,12,19,12,043,25,24,38,147,13,29,22,206,13,31,13,307,13*76

5:37:01:390 Nachm. 03/26/17 - $GPGSV,3,3,12,32,34,270,20,03,02,357,,22,,,,25,58,275,*41

5:37:01:392 Nachm. 03/26/17 - $GLGSV,3,1,09,82,66,101,20,73,52,312,19,80,68,091,15,79,11,115,7*5B

5:37:01:401 Nachm. 03/26/17 - $GLGSV,3,2,09,83,30,178,21,81,29,035,23,71,14,275,8,72,18,326,14*58

5:37:01:407 Nachm. 03/26/17 - $GLGSV,3,3,09,65,04,009,*52

5:37:01:407 Nachm. 03/26/17 - $GPGGA,153658.0,5208.367961,N,01138.431337,E,1,07,1.1,67.1,M,45.0,M,,*6F

5:37:01:408 Nachm. 03/26/17 - $GNGNS,153658.0,5208.367961,N,01138.431337,E,AN,07,1.1,67.1,45.0,,*54

5:37:01:408 Nachm. 03/26/17 - $GPVTG,118.0,T,117.6,M,0.0,N,0.0,K,A*2A

5:37:01:408 Nachm. 03/26/17 - $GPRMC,153658.0,A,5208.367961,N,01138.431337,E,0.0,118.0,260317,0.4,E,A*0D

5:37:01:409 Nachm. 03/26/17 - $GPGSA,A,2,02,06,12,14,19,24,31,,,,,,1.4,1.1,0.9*31

5:37:01:409 Nachm. 03/26/17 - $GNGSA,A,2,02,06,12,14,19,24,31,,,,,,1.4,1.1,0.9*2F

5:37:01:414 Nachm. 03/26/17 - $GNGSA,A,2,,,,,,,,,,,,,1.4,1.1,0.9*21

5:37:02:387 Nachm. 03/26/17 - $GPGSV,3,1,12,02,30,108,22,06,26,061,26,12,70,066,17,14,30,299,12*74

5:37:02:388 Nachm. 03/26/17 - $GPGSV,3,2,12,19,12,043,23,24,38,147,13,29,22,206,13,31,13,307,13*70

5:37:02:389 Nachm. 03/26/17 - $GPGSV,3,3,12,32,34,270,20,03,02,357,,22,,,,25,58,275,*41

5:37:02:400 Nachm. 03/26/17 - $GLGSV,3,1,09,82,66,101,21,73,52,312,19,80,68,091,15,79,11,115,7*5A

5:37:02:400 Nachm. 03/26/17 - $GLGSV,3,2,09,83,30,178,21,81,29,035,23,71,14,275,8,72,18,326,14*58

5:37:02:401 Nachm. 03/26/17 - $GLGSV,3,3,09,65,04,009,*52

5:37:02:402 Nachm. 03/26/17 - $GPGGA,153659.0,5208.367961,N,01138.431338,E,1,05,2.6,67.0,M,45.0,M,,*66

5:37:02:402 Nachm. 03/26/17 - $GNGNS,153659.0,5208.367961,N,01138.431338,E,AN,05,2.6,67.0,45.0,,*5D

5:37:02:403 Nachm. 03/26/17 - $GPVTG,118.0,T,117.6,M,0.0,N,0.0,K,A*2A

5:37:02:403 Nachm. 03/26/17 - $GPRMC,153659.0,A,5208.367961,N,01138.431338,E,0.0,118.0,260317,0.4,E,A*03

5:37:02:404 Nachm. 03/26/17 - $GPGSA,A,2,02,06,12,19,24,,,,,,,,2.8,2.6,1.0*35

5:37:02:404 Nachm. 03/26/17 - $GNGSA,A,2,02,06,12,19,24,,,,,,,,2.8,2.6,1.0*2B

5:37:02:405 Nachm. 03/26/17 - $GNGSA,A,2,,,,,,,,,,,,,2.8,2.6,1.0*22

5:37:03:388 Nachm. 03/26/17 - $GPGSV,3,1,12,02,30,108,22,06,26,061,26,12,70,066,18,14,30,299,12*7B

5:37:03:388 Nachm. 03/26/17 - $GPGSV,3,2,12,19,12,043,21,24,38,147,13,29,22,206,13,31,13,307,13*72

5:37:03:389 Nachm. 03/26/17 - $GPGSV,3,3,12,32,34,270,20,03,02,357,,22,,,,25,58,275,*41

5:37:03:394 Nachm. 03/26/17 - $GLGSV,3,1,09,82,66,101,21,73,52,312,11,80,68,091,15,79,11,115,7*52

5:37:03:395 Nachm. 03/26/17 - $GLGSV,3,2,09,83,30,178,21,81,29,035,23,71,14,275,8,72,18,326,14*58

5:37:03:397 Nachm. 03/26/17 - $GLGSV,3,3,09,65,04,009,*52

5:37:03:398 Nachm. 03/26/17 - $GPGGA,153700.0,5208.367960,N,01138.431338,E,1,04,1.7,67.1,M,45.0,M,,*68

5:37:03:407 Nachm. 03/26/17 - $GNGNS,153700.0,5208.367960,N,01138.431338,E,AA,05,1.7,67.1,45.0,,*5D

5:37:03:408 Nachm. 03/26/17 - $GPVTG,118.0,T,117.6,M,0.0,N,0.0,K,A*2A

5:37:03:409 Nachm. 03/26/17 - $GPRMC,153700.0,A,5208.367960,N,01138.431338,E,0.0,118.0,260317,0.4,E,A*0F

5:37:03:409 Nachm. 03/26/17 - $GPGSA,A,2,06,12,19,24,,,,,,,,,2.0,1.7,0.9*35

5:37:03:410 Nachm. 03/26/17 - $GNGSA,A,2,06,12,19,24,,,,,,,,,2.0,1.7,0.9*2B

5:37:03:410 Nachm. 03/26/17 - $GNGSA,A,2,73,,,,,,,,,,,,2.0,1.7,0.9*24

5:37:04:387 Nachm. 03/26/17 - $GPGSV,3,1,12,02,30,108,12,06,26,061,25,12,70,066,17,14,30,299,12*74

5:37:04:388 Nachm. 03/26/17 - $GPGSV,3,2,12,19,12,043,23,24,38,147,13,29,22,206,13,31,13,307,13*70

5:37:04:389 Nachm. 03/26/17 - $GPGSV,3,3,12,32,34,270,20,03,02,357,,22,,,,25,58,275,*41

5:37:04:390 Nachm. 03/26/17 - $GLGSV,3,1,09,82,66,101,14,73,52,312,11,80,68,091,15,79,11,115,7*54

5:37:04:400 Nachm. 03/26/17 - $GLGSV,3,2,09,83,30,178,18,81,29,035,24,71,14,275,8,72,18,326,14*55

5:37:04:402 Nachm. 03/26/17 - $GLGSV,3,3,09,65,04,009,*52

5:37:04:405 Nachm. 03/26/17 - $GPGGA,153701.0,5208.367958,N,01138.431339,E,1,05,1.6,67.1,M,45.0,M,,*63

5:37:04:406 Nachm. 03/26/17 - $GNGNS,153701.0,5208.367958,N,01138.431339,E,AA,06,1.6,67.1,45.0,,*54

5:37:04:407 Nachm. 03/26/17 - $GPVTG,118.0,T,117.6,M,0.0,N,0.0,K,A*2A

5:37:04:407 Nachm. 03/26/17 - $GPRMC,153701.0,A,5208.367958,N,01138.431339,E,0.0,118.0,260317,0.4,E,A*04

5:37:04:407 Nachm. 03/26/17 - $GPGSA,A,2,02,06,12,19,24,,,,,,,,1.8,1.6,0.9*3D

5:37:04:408 Nachm. 03/26/17 - $GNGSA,A,2,02,06,12,19,24,,,,,,,,1.8,1.6,0.9*23

5:37:04:408 Nachm. 03/26/17 - $GNGSA,A,2,73,,,,,,,,,,,,1.8,1.6,0.9*2E

5:37:05:387 Nachm. 03/26/17 - $GPGSV,3,1,12,02,30,108,12,06,26,061,24,12,70,066,17,14,30,299,12*75

5:37:05:388 Nachm. 03/26/17 - $GPGSV,3,2,12,19,12,043,23,24,38,147,13,29,22,206,13,31,13,307,13*70

5:37:05:392 Nachm. 03/26/17 - $GPGSV,3,3,12,32,34,270,20,03,02,357,,22,,,,25,58,275,*41

5:37:05:393 Nachm. 03/26/17 - $GLGSV,3,1,09,82,66,101,18,73,52,312,11,80,68,091,15,79,11,115,7*58

5:37:05:393 Nachm. 03/26/17 - $GLGSV,3,2,09,83,30,178,20,81,29,035,22,71,14,275,8,72,18,326,14*58

5:37:05:395 Nachm. 03/26/17 - $GLGSV,3,3,09,65,04,009,*52

5:37:05:404 Nachm. 03/26/17 - $GPGGA,153702.0,5208.367956,N,01138.431338,E,1,05,1.6,67.1,M,45.0,M,,*6F

5:37:05:409 Nachm. 03/26/17 - $GNGNS,153702.0,5208.367956,N,01138.431338,E,AA,06,1.6,67.1,45.0,,*58

5:37:05:409 Nachm. 03/26/17 - $GPVTG,118.0,T,117.6,M,0.0,N,0.0,K,A*2A

5:37:05:409 Nachm. 03/26/17 - $GPRMC,153702.0,A,5208.367956,N,01138.431338,E,0.0,118.0,260317,0.4,E,A*08

5:37:05:409 Nachm. 03/26/17 - $GPGSA,A,2,02,06,12,19,24,,,,,,,,1.8,1.6,0.9*3D

5:37:05:410 Nachm. 03/26/17 - $GNGSA,A,2,02,06,12,19,24,,,,,,,,1.8,1.6,0.9*23

5:37:05:410 Nachm. 03/26/17 - $GNGSA,A,2,73,,,,,,,,,,,,1.8,1.6,0.9*2E

5:37:06:387 Nachm. 03/26/17 - $GPGSV,3,1,12,02,30,108,12,06,26,061,23,12,70,066,16,14,30,299,12*73

5:37:06:388 Nachm. 03/26/17 - $GPGSV,3,2,12,19,12,043,26,24,38,147,13,29,22,206,14,31,13,307,13*72

5:37:06:390 Nachm. 03/26/17 - $GPGSV,3,3,12,32,34,270,20,03,02,357,,22,,,,25,58,275,*41

5:37:06:394 Nachm. 03/26/17 - $GLGSV,3,1,09,82,66,101,18,73,52,312,13,80,68,091,15,79,11,115,7*5A

5:37:06:402 Nachm. 03/26/17 - $GLGSV,3,2,09,83,30,178,19,81,29,035,21,71,14,275,8,72,18,326,14*51

5:37:06:406 Nachm. 03/26/17 - $GLGSV,3,3,09,65,04,009,*52

5:37:06:407 Nachm. 03/26/17 - $GPGGA,153703.0,5208.367955,N,01138.431339,E,1,05,1.6,67.1,M,45.0,M,,*6C

5:37:06:407 Nachm. 03/26/17 - $GNGNS,153703.0,5208.367955,N,01138.431339,E,AA,06,1.6,67.1,45.0,,*5B

5:37:06:408 Nachm. 03/26/17 - $GPVTG,118.0,T,117.6,M,0.0,N,0.0,K,A*2A

5:37:06:408 Nachm. 03/26/17 - $GPRMC,153703.0,A,5208.367955,N,01138.431339,E,0.0,118.0,260317,0.4,E,A*0B

5:37:06:408 Nachm. 03/26/17 - $GPGSA,A,2,02,06,12,19,24,,,,,,,,1.8,1.6,0.9*3D

5:37:06:409 Nachm. 03/26/17 - $GNGSA,A,2,02,06,12,19,24,,,,,,,,1.8,1.6,0.9*23

5:37:06:409 Nachm. 03/26/17 - $GNGSA,A,2,73,,,,,,,,,,,,1.8,1.6,0.9*2E

5:37:07:386 Nachm. 03/26/17 - $GPGSV,3,1,12,02,30,108,15,06,26,061,25,12,70,066,16,14,30,299,7*46

5:37:07:389 Nachm. 03/26/17 - $GPGSV,3,2,12,19,12,043,25,24,38,147,13,29,22,206,14,31,13,307,13*71

5:37:07:390 Nachm. 03/26/17 - $GPGSV,3,3,12,03,02,357,,22,,,,25,58,275,,32,34,270,*43

5:37:07:391 Nachm. 03/26/17 - $GLGSV,3,1,09,82,66,101,18,73,52,312,13,80,68,091,15,79,11,115,7*5A

5:37:07:392 Nachm. 03/26/17 - $GLGSV,3,2,09,83,30,178,19,81,29,035,19,71,14,275,8,72,18,326,14*5A

5:37:07:393 Nachm. 03/26/17 - $GLGSV,3,3,09,65,04,009,*52

5:37:07:394 Nachm. 03/26/17 - $GPGGA,153704.0,5208.367954,N,01138.431339,E,1,06,1.2,67.1,M,45.0,M,,*6D

5:37:07:399 Nachm. 03/26/17 - $GNGNS,153704.0,5208.367954,N,01138.431339,E,AA,07,1.2,67.1,45.0,,*58

5:37:07:403 Nachm. 03/26/17 - $GPVTG,118.0,T,117.6,M,0.0,N,0.0,K,A*2A

5:37:07:403 Nachm. 03/26/17 - $GPRMC,153704.0,A,5208.367954,N,01138.431339,E,0.0,118.0,260317,0.4,E,A*0D

5:37:07:403 Nachm. 03/26/17 - $GPGSA,A,2,02,06,12,14,19,24,,,,,,,1.5,1.2,0.9*31

5:37:07:403 Nachm. 03/26/17 - $GNGSA,A,2,02,06,12,14,19,24,,,,,,,1.5,1.2,0.9*2F

5:37:07:404 Nachm. 03/26/17 - $GNGSA,A,2,73,,,,,,,,,,,,1.5,1.2,0.9*27

5:37:08:386 Nachm. 03/26/17 - $GPGSV,3,1,12,02,30,108,15,06,26,061,24,12,70,066,16,14,30,299,7*47

5:37:08:390 Nachm. 03/26/17 - $GPGSV,3,2,12,19,12,043,26,24,38,147,13,29,22,206,14,31,13,307,13*72

5:37:08:393 Nachm. 03/26/17 - $GPGSV,3,3,12,03,02,357,,22,,,,25,58,275,,32,34,270,*43

5:37:08:394 Nachm. 03/26/17 - $GLGSV,3,1,09,82,66,101,18,73,52,312,13,80,68,091,7,79,11,115,7*69

5:37:08:395 Nachm. 03/26/17 - $GLGSV,3,2,09,83,30,178,18,81,29,035,21,71,14,275,8,72,18,326,14*50

5:37:08:402 Nachm. 03/26/17 - $GLGSV,3,3,09,65,04,009,*52

5:37:08:403 Nachm. 03/26/17 - $GPGGA,153705.0,5208.367954,N,01138.431339,E,1,06,1.2,67.1,M,45.0,M,,*6C

5:37:08:403 Nachm. 03/26/17 - $GNGNS,153705.0,5208.367954,N,01138.431339,E,AA,07,1.2,67.1,45.0,,*59

5:37:08:408 Nachm. 03/26/17 - $GPVTG,118.0,T,117.6,M,0.0,N,0.0,K,A*2A

5:37:08:409 Nachm. 03/26/17 - $GPRMC,153705.0,A,5208.367954,N,01138.431339,E,0.0,118.0,260317,0.4,E,A*0C

5:37:08:412 Nachm. 03/26/17 - $GPGSA,A,2,02,06,12,14,19,24,,,,,,,1.5,1.2,0.9*31

5:37:08:413 Nachm. 03/26/17 - $GNGSA,A,2,02,06,12,14,19,24,,,,,,,1.5,1.2,0.9*2F

5:37:08:413 Nachm. 03/26/17 - $GNGSA,A,2,73,,,,,,,,,,,,1.5,1.2,0.9*27

5:37:09:387 Nachm. 03/26/17 - $GPGSV,3,1,12,02,30,108,15,06,26,061,26,12,70,066,16,14,30,299,7*45

5:37:09:388 Nachm. 03/26/17 - $GPGSV,3,2,12,19,12,043,25,24,38,147,13,29,22,206,14,31,13,307,13*71

5:37:09:389 Nachm. 03/26/17 - $GPGSV,3,3,12,03,02,357,,22,,,,25,58,275,,32,34,270,*43

5:37:09:389 Nachm. 03/26/17 - $GLGSV,3,1,09,82,66,101,18,73,52,312,13,80,68,091,7,79,11,115,7*69

5:37:09:389 Nachm. 03/26/17 - $GLGSV,3,2,09,83,30,178,18,81,29,035,22,71,14,275,8,72,18,326,14*53

5:37:09:389 Nachm. 03/26/17 - $GLGSV,3,3,09,65,04,009,*52

5:37:09:390 Nachm. 03/26/17 - $GPGGA,153706.0,5208.367953,N,01138.431339,E,1,06,1.2,67.1,M,45.0,M,,*68

5:37:09:392 Nachm. 03/26/17 - $GNGNS,153706.0,5208.367953,N,01138.431339,E,AA,07,1.2,67.1,45.0,,*5D

5:37:09:395 Nachm. 03/26/17 - $GPVTG,118.0,T,117.6,M,0.0,N,0.0,K,A*2A

5:37:09:397 Nachm. 03/26/17 - $GPRMC,153706.0,A,5208.367953,N,01138.431339,E,0.0,118.0,260317,0.4,E,A*08

5:37:09:398 Nachm. 03/26/17 - $GPGSA,A,2,02,06,12,14,19,24,,,,,,,1.5,1.2,0.9*31

5:37:09:398 Nachm. 03/26/17 - $GNGSA,A,2,02,06,12,14,19,24,,,,,,,1.5,1.2,0.9*2F

5:37:09:399 Nachm. 03/26/17 - $GNGSA,A,2,73,,,,,,,,,,,,1.5,1.2,0.9*27

5:37:10:388 Nachm. 03/26/17 - $GPGSV,3,1,12,02,30,108,15,06,26,061,26,12,70,066,16,14,30,299,7*45

5:37:10:389 Nachm. 03/26/17 - $GPGSV,3,2,12,19,12,043,25,24,38,147,13,29,22,206,14,31,13,307,13*71

5:37:10:389 Nachm. 03/26/17 - $GPGSV,3,3,12,03,02,357,,22,,,,25,58,275,,32,34,270,*43

5:37:10:394 Nachm. 03/26/17 - $GLGSV,3,1,09,82,66,101,18,73,52,312,13,80,68,091,7,79,11,115,7*69

5:37:10:396 Nachm. 03/26/17 - $GLGSV,3,2,09,83,30,178,18,81,29,035,20,71,14,275,8,72,18,326,14*51

5:37:10:398 Nachm. 03/26/17 - $GLGSV,3,3,09,65,04,009,*52

5:37:10:402 Nachm. 03/26/17 - $GPGGA,153707.0,5208.367954,N,01138.431339,E,1,06,1.2,67.1,M,45.0,M,,*6E

5:37:10:409 Nachm. 03/26/17 - $GNGNS,153707.0,5208.367954,N,01138.431339,E,AA,07,1.2,67.1,45.0,,*5B

5:37:10:410 Nachm. 03/26/17 - $GPVTG,118.0,T,117.6,M,0.0,N,0.0,K,A*2A

5:37:10:411 Nachm. 03/26/17 - $GPRMC,153707.0,A,5208.367954,N,01138.431339,E,0.0,118.0,260317,0.4,E,A*0E

5:37:10:412 Nachm. 03/26/17 - $GPGSA,A,2,02,06,12,14,19,24,,,,,,,1.5,1.2,0.9*31

5:37:10:413 Nachm. 03/26/17 - $GNGSA,A,2,02,06,12,14,19,24,,,,,,,1.5,1.2,0.9*2F

5:37:10:414 Nachm. 03/26/17 - $GNGSA,A,2,73,,,,,,,,,,,,1.5,1.2,0.9*27

5:37:11:388 Nachm. 03/26/17 - $GPGSV,3,1,12,02,30,108,15,06,26,061,26,12,70,066,16,14,30,299,7*45

5:37:11:389 Nachm. 03/26/17 - $GPGSV,3,2,12,19,12,043,24,24,38,147,13,29,22,206,14,31,13,307,13*70

5:37:11:390 Nachm. 03/26/17 - $GPGSV,3,3,12,03,02,357,,22,,,,25,58,275,,32,34,270,*43

5:37:11:395 Nachm. 03/26/17 - $GLGSV,3,1,09,82,66,101,18,73,52,312,12,80,68,091,7,79,11,115,7*68

5:37:11:397 Nachm. 03/26/17 - $GLGSV,3,2,09,83,30,178,18,81,29,035,22,71,14,275,8,72,18,326,14*53

5:37:11:397 Nachm. 03/26/17 - $GLGSV,3,3,09,65,04,009,*52

5:37:11:403 Nachm. 03/26/17 - $GPGGA,153708.0,5208.367954,N,01138.431339,E,1,06,1.2,67.1,M,45.0,M,,*61

5:37:11:406 Nachm. 03/26/17 - $GNGNS,153708.0,5208.367954,N,01138.431339,E,AA,07,1.2,67.1,45.0,,*54

5:37:11:410 Nachm. 03/26/17 - $GPVTG,118.0,T,117.6,M,0.0,N,0.0,K,A*2A

5:37:11:415 Nachm. 03/26/17 - $GPRMC,153708.0,A,5208.367954,N,01138.431339,E,0.0,118.0,260317,0.4,E,A*01

5:37:11:415 Nachm. 03/26/17 - $GPGSA,A,2,02,06,12,14,19,24,,,,,,,1.5,1.2,0.9*31

5:37:11:415 Nachm. 03/26/17 - $GNGSA,A,2,02,06,12,14,19,24,,,,,,,1.5,1.2,0.9*2F

5:37:11:416 Nachm. 03/26/17 - $GNGSA,A,2,73,,,,,,,,,,,,1.5,1.2,0.9*27

5:37:12:386 Nachm. 03/26/17 - $GPGSV,3,1,12,02,30,108,15,06,26,061,26,12,70,066,16,14,30,299,7*45

5:37:12:389 Nachm. 03/26/17 - $GPGSV,3,2,12,19,12,043,24,24,38,147,13,29,22,206,14,31,13,307,13*70

5:37:12:391 Nachm. 03/26/17 - $GPGSV,3,3,12,03,02,357,,22,,,,25,58,275,,32,34,270,*43

5:37:12:391 Nachm. 03/26/17 - $GLGSV,3,1,09,82,66,101,18,73,52,312,12,80,68,091,7,79,11,115,7*68

5:37:12:392 Nachm. 03/26/17 - $GLGSV,3,2,09,83,30,178,18,81,29,035,22,71,14,275,8,72,18,326,14*53

5:37:12:393 Nachm. 03/26/17 - $GLGSV,3,3,09,65,04,009,*52

5:37:12:401 Nachm. 03/26/17 - $GPGGA,153709.0,5208.367954,N,01138.431339,E,1,06,1.2,67.1,M,45.0,M,,*60

5:37:12:403 Nachm. 03/26/17 - $GNGNS,153709.0,5208.367954,N,01138.431339,E,AA,07,1.2,67.1,45.0,,*55

5:37:12:404 Nachm. 03/26/17 - $GPVTG,118.0,T,117.6,M,0.0,N,0.0,K,A*2A

5:37:12:404 Nachm. 03/26/17 - $GPRMC,153709.0,A,5208.367954,N,01138.431339,E,0.0,118.0,260317,0.4,E,A*00

5:37:12:405 Nachm. 03/26/17 - $GPGSA,A,2,02,06,12,14,19,24,,,,,,,1.5,1.2,0.9*31

5:37:12:409 Nachm. 03/26/17 - $GNGSA,A,2,02,06,12,14,19,24,,,,,,,1.5,1.2,0.9*2F

5:37:12:410 Nachm. 03/26/17 - $GNGSA,A,2,73,,,,,,,,,,,,1.5,1.2,0.9*27

5:37:13:387 Nachm. 03/26/17 - $GPGSV,3,1,12,02,30,108,15,06,26,061,26,12,70,066,16,14,30,299,7*45

5:37:13:389 Nachm. 03/26/17 - $GPGSV,3,2,12,19,12,043,24,24,38,147,13,29,22,206,14,31,13,307,13*70

5:37:13:394 Nachm. 03/26/17 - $GPGSV,3,3,12,03,02,357,,22,,,,25,58,275,,32,34,270,*43

5:37:13:402 Nachm. 03/26/17 - $GLGSV,3,1,09,82,66,101,18,73,52,312,12,80,68,091,7,79,11,115,7*68

5:37:13:406 Nachm. 03/26/17 - $GLGSV,3,2,09,83,30,178,17,81,29,035,22,71,14,275,8,72,18,326,14*5C

5:37:13:407 Nachm. 03/26/17 - $GLGSV,3,3,09,65,04,009,*52

5:37:13:408 Nachm. 03/26/17 - $GPGGA,153710.0,5208.367955,N,01138.431340,E,1,05,1.2,67.1,M,45.0,M,,*64

5:37:13:408 Nachm. 03/26/17 - $GNGNS,153710.0,5208.367955,N,01138.431340,E,AA,06,1.2,67.1,45.0,,*53

5:37:13:409 Nachm. 03/26/17 - $GPVTG,118.0,T,117.6,M,0.0,N,0.0,K,A*2A

5:37:13:410 Nachm. 03/26/17 - $GPRMC,153710.0,A,5208.367955,N,01138.431340,E,0.0,118.0,260317,0.4,E,A*07

5:37:13:411 Nachm. 03/26/17 - $GPGSA,A,2,02,06,14,19,24,,,,,,,,1.5,1.2,1.0*3A

5:37:13:417 Nachm. 03/26/17 - $GNGSA,A,2,02,06,14,19,24,,,,,,,,1.5,1.2,1.0*24

5:37:13:417 Nachm. 03/26/17 - $GNGSA,A,2,73,,,,,,,,,,,,1.5,1.2,1.0*2F

5:37:14:387 Nachm. 03/26/17 - $GPGSV,3,1,12,02,30,108,12,06,26,061,26,12,70,066,16,14,30,299,7*42

5:37:14:389 Nachm. 03/26/17 - $GPGSV,3,2,12,19,12,043,24,24,38,147,13,29,22,206,14,31,13,307,13*70

5:37:14:389 Nachm. 03/26/17 - $GPGSV,3,3,12,03,02,357,,22,,,,25,58,275,,32,34,270,*43

5:37:14:390 Nachm. 03/26/17 - $GLGSV,3,1,09,82,66,101,18,73,52,312,12,80,68,091,7,79,11,115,7*68

5:37:14:391 Nachm. 03/26/17 - $GLGSV,3,2,09,83,30,178,17,81,29,035,21,71,14,275,8,72,18,326,14*5F

5:37:14:402 Nachm. 03/26/17 - $GLGSV,3,3,09,65,04,009,*52

5:37:14:408 Nachm. 03/26/17 - $GPGGA,153711.0,5208.367955,N,01138.431340,E,1,04,1.6,67.1,M,45.0,M,,*60

5:37:14:408 Nachm. 03/26/17 - $GNGNS,153711.0,5208.367955,N,01138.431340,E,AA,05,1.6,67.1,45.0,,*55

5:37:14:409 Nachm. 03/26/17 - $GPVTG,118.0,T,117.6,M,0.0,N,0.0,K,A*2A

5:37:14:409 Nachm. 03/26/17 - $GPRMC,153711.0,A,5208.367955,N,01138.431340,E,0.0,118.0,260317,0.4,E,A*06

5:37:14:410 Nachm. 03/26/17 - $GPGSA,A,2,02,06,19,24,,,,,,,,,1.9,1.6,1.0*37

5:37:14:410 Nachm. 03/26/17 - $GNGSA,A,2,02,06,19,24,,,,,,,,,1.9,1.6,1.0*29

5:37:14:410 Nachm. 03/26/17 - $GNGSA,A,2,73,,,,,,,,,,,,1.9,1.6,1.0*27

5:37:15:386 Nachm. 03/26/17 - $GPGSV,3,1,12,02,30,108,12,06,26,061,26,12,70,066,16,14,30,299,7*42

5:37:15:389 Nachm. 03/26/17 - $GPGSV,3,2,12,19,12,043,25,24,38,147,13,29,22,206,14,31,13,307,13*71

5:37:15:390 Nachm. 03/26/17 - $GPGSV,3,3,12,03,02,357,,22,,,,25,58,275,,32,34,270,*43

5:37:15:392 Nachm. 03/26/17 - $GLGSV,3,1,09,82,66,101,18,73,52,312,12,80,68,091,7,79,11,115,7*68

5:37:15:393 Nachm. 03/26/17 - $GLGSV,3,2,09,83,30,178,16,81,29,035,23,71,14,275,8,72,18,326,14*5C

5:37:15:396 Nachm. 03/26/17 - $GLGSV,3,3,09,65,04,009,*52

5:37:15:403 Nachm. 03/26/17 - $GPGGA,153712.0,5208.367955,N,01138.431340,E,1,03,2.0,67.1,M,45.0,M,,*61

5:37:15:405 Nachm. 03/26/17 - $GNGNS,153712.0,5208.367955,N,01138.431340,E,AA,04,2.0,67.1,45.0,,*52

5:37:15:406 Nachm. 03/26/17 - $GPVTG,118.0,T,117.6,M,0.0,N,0.0,K,A*2A

5:37:15:406 Nachm. 03/26/17 - $GPRMC,153712.0,A,5208.367955,N,01138.431340,E,0.0,118.0,260317,0.4,E,A*05

5:37:15:407 Nachm. 03/26/17 - $GPGSA,A,2,02,06,19,,,,,,,,,,2.2,2.0,1.0*3C

5:37:15:407 Nachm. 03/26/17 - $GNGSA,A,2,02,06,19,,,,,,,,,,2.2,2.0,1.0*22

5:37:15:408 Nachm. 03/26/17 - $GNGSA,A,2,73,,,,,,,,,,,,2.2,2.0,1.0*2A

5:37:16:385 Nachm. 03/26/17 - $GPGSV,3,1,12,02,30,108,12,06,26,061,27,12,70,066,16,14,30,299,7*43

5:37:16:387 Nachm. 03/26/17 - $GPGSV,3,2,12,19,12,043,24,24,38,147,13,29,22,206,14,03,02,357,*76

5:37:16:387 Nachm. 03/26/17 - $GPGSV,3,3,12,22,,,,25,58,275,,31,13,307,,32,34,270,*47

5:37:16:387 Nachm. 03/26/17 - $GLGSV,3,1,09,82,66,101,18,73,52,312,12,80,68,091,7,79,11,115,7*68

5:37:16:396 Nachm. 03/26/17 - $GLGSV,3,2,09,83,30,178,16,81,29,035,22,71,14,275,8,72,18,326,14*5D

5:37:16:396 Nachm. 03/26/17 - $GLGSV,3,3,09,65,04,009,*52

5:37:16:397 Nachm. 03/26/17 - $GPGGA,153713.0,5208.367956,N,01138.431340,E,1,03,2.0,67.1,M,45.0,M,,*63

5:37:16:399 Nachm. 03/26/17 - $GNGNS,153713.0,5208.367956,N,01138.431340,E,AA,04,2.0,67.1,45.0,,*50

5:37:16:416 Nachm. 03/26/17 - $GPVTG,118.0,T,117.6,M,0.0,N,0.0,K,A*2A

5:37:16:416 Nachm. 03/26/17 - $GPRMC,153713.0,A,5208.367956,N,01138.431340,E,0.0,118.0,260317,0.4,E,A*07

5:37:16:416 Nachm. 03/26/17 - $GPGSA,A,2,02,06,19,,,,,,,,,,2.2,2.0,1.0*3C

5:37:16:417 Nachm. 03/26/17 - $GNGSA,A,2,02,06,19,,,,,,,,,,2.2,2.0,1.0*22

5:37:16:417 Nachm. 03/26/17 - $GNGSA,A,2,73,,,,,,,,,,,,2.2,2.0,1.0*2A

5:37:17:387 Nachm. 03/26/17 - $GPGSV,3,1,12,02,30,108,15,06,26,061,27,12,70,066,16,14,30,299,7*44

5:37:17:389 Nachm. 03/26/17 - $GPGSV,3,2,12,19,12,043,24,24,38,147,13,29,22,206,13,03,02,357,*71

5:37:17:390 Nachm. 03/26/17 - $GPGSV,3,3,12,22,,,,25,58,275,,31,13,307,,32,34,270,*47

5:37:17:392 Nachm. 03/26/17 - $GLGSV,3,1,09,82,66,101,7,73,52,312,12,80,68,091,7,83,30,178,16*6B

5:37:17:392 Nachm. 03/26/17 - $GLGSV,3,2,09,81,29,035,22,71,14,275,8,72,18,326,14,,11,115,*59

5:37:17:393 Nachm. 03/26/17 - $GLGSV,3,3,09,65,04,009,*52

5:37:17:397 Nachm. 03/26/17 - $GPGGA,153714.0,5208.367956,N,01138.431340,E,1,04,1.6,67.1,M,45.0,M,,*66

5:37:17:397 Nachm. 03/26/17 - $GNGNS,153714.0,5208.367956,N,01138.431340,E,AA,05,1.6,67.1,45.0,,*53

5:37:17:397 Nachm. 03/26/17 - $GPVTG,118.0,T,117.6,M,0.0,N,0.0,K,A*2A

5:37:17:398 Nachm. 03/26/17 - $GPRMC,153714.0,A,5208.367956,N,01138.431340,E,0.0,118.0,260317,0.4,E,A*00

5:37:17:403 Nachm. 03/26/17 - $GPGSA,A,2,02,06,19,24,,,,,,,,,1.9,1.6,1.0*37

5:37:17:404 Nachm. 03/26/17 - $GNGSA,A,2,02,06,19,24,,,,,,,,,1.9,1.6,1.0*29

5:37:17:404 Nachm. 03/26/17 - $GNGSA,A,2,73,,,,,,,,,,,,1.9,1.6,1.0*27

5:37:18:384 Nachm. 03/26/17 - $GPGSV,3,1,12,02,30,108,18,06,26,061,25,12,70,066,14,14,30,299,7*49

5:37:18:385 Nachm. 03/26/17 - $GPGSV,3,2,12,19,12,043,27,24,38,147,13,29,22,206,13,03,02,357,*72

5:37:18:385 Nachm. 03/26/17 - $GPGSV,3,3,12,22,,,,25,58,275,,31,13,307,,32,34,270,*47

5:37:18:386 Nachm. 03/26/17 - $GLGSV,3,1,09,82,66,101,22,73,52,312,12,80,68,091,7,83,30,178,16*5C

5:37:18:386 Nachm. 03/26/17 - $GLGSV,3,2,09,81,29,035,23,71,14,275,8,72,18,326,14,79,11,115,*56

5:37:18:386 Nachm. 03/26/17 - $GLGSV,3,3,09,65,04,009,*52

5:37:18:386 Nachm. 03/26/17 - $GPGGA,153715.0,5208.367954,N,01138.431339,E,1,05,2.6,67.1,M,45.0,M,,*69

5:37:18:387 Nachm. 03/26/17 - $GNGNS,153715.0,5208.367954,N,01138.431339,E,AN,05,2.6,67.1,45.0,,*52

5:37:18:387 Nachm. 03/26/17 - $GPVTG,118.0,T,117.6,M,0.0,N,0.0,K,A*2A

5:37:18:387 Nachm. 03/26/17 - $GPRMC,153715.0,A,5208.367954,N,01138.431339,E,0.0,118.0,260317,0.4,E,A*0D

5:37:18:389 Nachm. 03/26/17 - $GPGSA,A,2,02,06,12,19,24,,,,,,,,2.8,2.6,1.0*35

5:37:18:389 Nachm. 03/26/17 - $GNGSA,A,2,02,06,12,19,24,,,,,,,,2.8,2.6,1.0*2B

5:37:18:391 Nachm. 03/26/17 - $GNGSA,A,2,,,,,,,,,,,,,2.8,2.6,1.0*22

5:37:19:387 Nachm. 03/26/17 - $GPGSV,3,1,12,02,30,108,20,06,26,061,22,12,70,066,25,14,30,299,7*47

5:37:19:388 Nachm. 03/26/17 - $GPGSV,3,2,12,19,12,043,23,24,38,147,13,29,22,206,18,03,02,357,*7D

5:37:19:392 Nachm. 03/26/17 - $GPGSV,3,3,12,22,,,,25,58,275,,31,13,307,,32,34,270,*47

5:37:19:393 Nachm. 03/26/17 - $GLGSV,3,1,09,82,66,101,22,73,52,312,12,80,68,091,10,83,30,178,16*6A

5:37:19:394 Nachm. 03/26/17 - $GLGSV,3,2,09,81,29,035,22,71,14,275,8,72,18,326,14,79,11,115,*57

5:37:19:397 Nachm. 03/26/17 - $GLGSV,3,3,09,65,04,009,*52

5:37:19:398 Nachm. 03/26/17 - $GPGGA,153716.0,5208.367949,N,01138.431338,E,1,05,2.6,67.1,M,45.0,M,,*67

5:37:19:406 Nachm. 03/26/17 - $GNGNS,153716.0,5208.367949,N,01138.431338,E,AN,05,2.6,67.1,45.0,,*5C

5:37:19:408 Nachm. 03/26/17 - $GPVTG,118.0,T,117.6,M,0.0,N,0.0,K,A*2A

5:37:19:410 Nachm. 03/26/17 - $GPRMC,153716.0,A,5208.367949,N,01138.431338,E,0.0,118.0,260317,0.4,E,A*03

5:37:19:411 Nachm. 03/26/17 - $GPGSA,A,2,02,06,12,19,24,,,,,,,,2.8,2.6,1.0*35

5:37:19:411 Nachm. 03/26/17 - $GNGSA,A,2,02,06,12,19,24,,,,,,,,2.8,2.6,1.0*2B

5:37:19:412 Nachm. 03/26/17 - $GNGSA,A,2,,,,,,,,,,,,,2.8,2.6,1.0*22

5:37:20:387 Nachm. 03/26/17 - $GPGSV,3,1,12,02,30,108,22,06,26,061,21,12,70,066,26,14,30,299,7*45

5:37:20:388 Nachm. 03/26/17 - $GPGSV,3,2,12,19,12,043,26,24,38,147,13,29,22,206,18,03,02,357,*78

5:37:20:389 Nachm. 03/26/17 - $GPGSV,3,3,12,22,,,,25,58,275,,31,13,307,,32,34,270,*47

5:37:20:389 Nachm. 03/26/17 - $GLGSV,3,1,09,82,66,101,24,73,52,312,12,80,68,091,16,83,30,178,14*68

5:37:20:390 Nachm. 03/26/17 - $GLGSV,3,2,09,81,29,035,24,71,14,275,8,72,18,326,14,79,11,115,*51

5:37:20:390 Nachm. 03/26/17 - $GLGSV,3,3,09,65,04,009,*52

5:37:20:397 Nachm. 03/26/17 - $GPGGA,153717.0,5208.367943,N,01138.431335,E,1,05,2.6,67.1,M,45.0,M,,*61

5:37:20:404 Nachm. 03/26/17 - $GNGNS,153717.0,5208.367943,N,01138.431335,E,AN,05,2.6,67.1,45.0,,*5A

5:37:20:407 Nachm. 03/26/17 - $GPVTG,118.0,T,117.6,M,0.0,N,0.0,K,A*2A

5:37:20:407 Nachm. 03/26/17 - $GPRMC,153717.0,A,5208.367943,N,01138.431335,E,0.0,118.0,260317,0.4,E,A*05

5:37:20:407 Nachm. 03/26/17 - $GPGSA,A,2,02,06,12,19,24,,,,,,,,2.8,2.6,1.0*35

5:37:20:407 Nachm. 03/26/17 - $GNGSA,A,2,02,06,12,19,24,,,,,,,,2.8,2.6,1.0*2B

5:37:20:408 Nachm. 03/26/17 - $GNGSA,A,2,,,,,,,,,,,,,2.8,2.6,1.0*22

5:37:21:387 Nachm. 03/26/17 - $GPGSV,3,1,12,02,30,108,21,06,26,060,22,12,69,066,21,14,30,299,7*4B

5:37:21:388 Nachm. 03/26/17 - $GPGSV,3,2,12,19,12,043,27,24,38,147,13,29,23,206,18,03,02,357,*78

5:37:21:391 Nachm. 03/26/17 - $GPGSV,3,3,12,22,,,,25,59,275,,31,13,307,,32,34,270,*46

5:37:21:391 Nachm. 03/26/17 - $GLGSV,3,1,09,82,66,099,24,73,53,312,12,80,68,092,16,83,30,178,14*6A

5:37:21:392 Nachm. 03/26/17 - $GLGSV,3,2,09,81,29,033,25,71,13,275,8,72,18,324,14,79,10,115,*52

5:37:21:393 Nachm. 03/26/17 - $GLGSV,3,3,09,65,04,009,*52

5:37:21:393 Nachm. 03/26/17 - $GPGGA,153718.0,5208.367946,N,01138.431336,E,1,05,2.6,67.1,M,45.0,M,,*68

5:37:21:404 Nachm. 03/26/17 - $GNGNS,153718.0,5208.367946,N,01138.431336,E,AN,05,2.6,67.1,45.0,,*53

5:37:21:404 Nachm. 03/26/17 - $GPVTG,118.0,T,117.6,M,0.0,N,0.0,K,A*2A

5:37:21:411 Nachm. 03/26/17 - $GPRMC,153718.0,A,5208.367946,N,01138.431336,E,0.0,118.0,260317,0.4,E,A*0C

5:37:21:412 Nachm. 03/26/17 - $GPGSA,A,2,02,06,12,19,24,,,,,,,,2.8,2.6,1.0*35

5:37:21:412 Nachm. 03/26/17 - $GNGSA,A,2,02,06,12,19,24,,,,,,,,2.8,2.6,1.0*2B

5:37:21:413 Nachm. 03/26/17 - $GNGSA,A,2,,,,,,,,,,,,,2.8,2.6,1.0*22

5:37:22:387 Nachm. 03/26/17 - $GPGSV,3,1,12,02,30,108,20,06,26,060,29,12,69,066,22,14,30,299,7*42

5:37:22:388 Nachm. 03/26/17 - $GPGSV,3,2,12,19,12,043,24,24,38,147,14,29,23,206,18,03,02,357,*7C

5:37:22:391 Nachm. 03/26/17 - $GPGSV,3,3,12,22,,,,25,59,275,,31,13,307,,32,34,270,*46

5:37:22:392 Nachm. 03/26/17 - $GLGSV,3,1,09,82,66,099,19,73,53,312,12,80,68,092,16,83,30,178,14*64

5:37:22:393 Nachm. 03/26/17 - $GLGSV,3,2,09,81,29,033,19,71,13,275,8,72,18,324,14,79,10,115,*5D

5:37:22:396 Nachm. 03/26/17 - $GLGSV,3,3,09,65,04,009,*52

5:37:22:404 Nachm. 03/26/17 - $GPGGA,153719.0,5208.367941,N,01138.431334,E,1,05,2.6,67.1,M,45.0,M,,*6C

5:37:22:407 Nachm. 03/26/17 - $GNGNS,153719.0,5208.367941,N,01138.431334,E,AN,05,2.6,67.1,45.0,,*57

5:37:22:408 Nachm. 03/26/17 - $GPVTG,118.0,T,117.6,M,0.0,N,0.0,K,A*2A

5:37:22:409 Nachm. 03/26/17 - $GPRMC,153719.0,A,5208.367941,N,01138.431334,E,0.0,118.0,260317,0.4,E,A*08

5:37:22:409 Nachm. 03/26/17 - $GPGSA,A,2,02,06,12,19,24,,,,,,,,2.8,2.6,1.0*35

5:37:22:410 Nachm. 03/26/17 - $GNGSA,A,2,02,06,12,19,24,,,,,,,,2.8,2.6,1.0*2B

5:37:22:410 Nachm. 03/26/17 - $GNGSA,A,2,,,,,,,,,,,,,2.8,2.6,1.0*22


