5:38:10:384 Nachm. 03/26/17 - $GPGSV,3,1,12,02,30,108,26,12,69,067,23,14,30,299,28,19,12,043,18*73

5:38:10:385 Nachm. 03/26/17 - $GPGSV,3,2,12,24,38,147,26,25,59,275,30,29,23,206,33,31,13,307,19*7A

5:38:10:386 Nachm. 03/26/17 - $GPGSV,3,3,12,32,34,270,32,03,02,357,,06,26,060,,22,,,*4C

5:38:10:386 Nachm. 03/26/17 - $GLGSV,3,1,09,82,66,099,24,73,53,312,28,80,68,092,19,79,10,115,23*64

5:38:10:387 Nachm. 03/26/17 - $GLGSV,3,2,09,83,30,178,21,81,29,033,17,71,13,275,30,72,18,324,12*61

5:38:10:394 Nachm. 03/26/17 - $GLGSV,3,3,09,65,04,009,*52

5:38:10:398 Nachm. 03/26/17 - $GPGGA,153807.0,5208.350543,N,01138.428949,E,1,08,1.1,67.4,M,45.0,M,,*62

5:38:10:399 Nachm. 03/26/17 - $GNGNS,153807.0,5208.350543,N,01138.428949,E,AA,09,1.1,67.4,45.0,,*57

5:38:10:402 Nachm. 03/26/17 - $GPVTG,224.0,T,223.6,M,0.0,N,0.0,K,A*22

5:38:10:405 Nachm. 03/26/17 - $GPRMC,153807.0,A,5208.350543,N,01138.428949,E,0.0,224.0,260317,0.4,E,A*06

5:38:10:405 Nachm. 03/26/17 - $GPGSA,A,2,02,12,14,19,24,25,31,32,,,,,1.4,1.1,0.9*31

5:38:10:406 Nachm. 03/26/17 - $GNGSA,A,2,02,12,14,19,24,25,31,32,,,,,1.4,1.1,0.9*2F

5:38:10:407 Nachm. 03/26/17 - $GNGSA,A,2,73,,,,,,,,,,,,1.4,1.1,0.9*25

5:38:11:384 Nachm. 03/26/17 - $GPGSV,3,1,12,02,30,108,27,12,69,067,20,14,30,299,28,19,12,043,18*71

5:38:11:386 Nachm. 03/26/17 - $GPGSV,3,2,12,24,38,147,22,25,59,275,26,29,23,206,23,31,13,307,19*78

5:38:11:391 Nachm. 03/26/17 - $GPGSV,3,3,12,32,34,270,30,03,02,357,,06,26,060,,22,,,*4E

5:38:11:392 Nachm. 03/26/17 - $GLGSV,3,1,09,82,66,099,23,73,53,312,27,80,68,092,19,79,10,115,23*6C

5:38:11:408 Nachm. 03/26/17 - $GLGSV,3,2,09,83,30,178,22,81,29,033,17,71,13,275,27,72,18,324,12*64

5:38:11:409 Nachm. 03/26/17 - $GLGSV,3,3,09,65,04,009,*52

5:38:11:409 Nachm. 03/26/17 - $GPGGA,153808.0,5208.350410,N,01138.428887,E,1,08,1.1,67.1,M,45.0,M,,*6C

5:38:11:409 Nachm. 03/26/17 - $GNGNS,153808.0,5208.350410,N,01138.428887,E,AA,09,1.1,67.1,45.0,,*59

5:38:11:409 Nachm. 03/26/17 - $GPVTG,224.0,T,223.6,M,0.0,N,0.0,K,A*22

5:38:11:410 Nachm. 03/26/17 - $GPRMC,153808.0,A,5208.350410,N,01138.428887,E,0.0,224.0,260317,0.4,E,A*0D

5:38:11:410 Nachm. 03/26/17 - $GPGSA,A,2,02,12,14,19,24,25,31,32,,,,,1.4,1.1,0.9*31

5:38:11:411 Nachm. 03/26/17 - $GNGSA,A,2,02,12,14,19,24,25,31,32,,,,,1.4,1.1,0.9*2F

5:38:11:411 Nachm. 03/26/17 - $GNGSA,A,2,73,,,,,,,,,,,,1.4,1.1,0.9*25

5:38:12:386 Nachm. 03/26/17 - $GPGSV,3,1,12,02,30,108,27,12,69,067,22,14,30,299,27,19,12,043,18*7C

5:38:12:387 Nachm. 03/26/17 - $GPGSV,3,2,12,24,38,147,22,25,59,275,26,29,23,206,22,31,13,307,19*79

5:38:12:391 Nachm. 03/26/17 - $GPGSV,3,3,12,32,34,270,30,03,02,357,,06,26,060,,22,,,*4E

5:38:12:396 Nachm. 03/26/17 - $GLGSV,3,1,09,82,66,099,24,73,53,312,26,80,68,092,19,79,10,115,23*6A

5:38:12:399 Nachm. 03/26/17 - $GLGSV,3,2,09,83,30,178,24,81,29,033,17,71,13,275,28,72,18,324,12*6D

5:38:12:408 Nachm. 03/26/17 - $GLGSV,3,3,09,65,04,009,*52

5:38:12:416 Nachm. 03/26/17 - $GPGGA,153809.0,5208.350156,N,01138.428571,E,1,08,1.1,67.3,M,45.0,M,,*6C

5:38:12:417 Nachm. 03/26/17 - $GNGNS,153809.0,5208.350156,N,01138.428571,E,AA,09,1.1,67.3,45.0,,*59

5:38:12:418 Nachm. 03/26/17 - $GPVTG,224.0,T,223.6,M,0.0,N,0.0,K,A*22

5:38:12:418 Nachm. 03/26/17 - $GPRMC,153809.0,A,5208.350156,N,01138.428571,E,0.0,224.0,260317,0.4,E,A*0F

5:38:12:419 Nachm. 03/26/17 - $GPGSA,A,2,02,12,14,19,24,25,31,32,,,,,1.4,1.1,0.9*31

5:38:12:419 Nachm. 03/26/17 - $GNGSA,A,2,02,12,14,19,24,25,31,32,,,,,1.4,1.1,0.9*2F

5:38:12:420 Nachm. 03/26/17 - $GNGSA,A,2,73,,,,,,,,,,,,1.4,1.1,0.9*25

5:38:13:386 Nachm. 03/26/17 - $GPGSV,3,1,12,02,30,108,26,12,69,067,22,14,30,299,27,19,12,043,13*76

5:38:13:387 Nachm. 03/26/17 - $GPGSV,3,2,12,24,38,147,17,25,59,275,27,29,23,206,24,31,13,307,19*78

5:38:13:388 Nachm. 03/26/17 - $GPGSV,3,3,12,32,34,270,31,03,02,357,,06,26,060,,22,,,*4F

5:38:13:392 Nachm. 03/26/17 - $GLGSV,3,1,09,82,66,099,25,73,53,312,28,80,68,092,14,79,10,115,22*69

5:38:13:400 Nachm. 03/26/17 - $GLGSV,3,2,09,83,30,178,24,81,29,033,17,71,13,275,29,72,18,324,12*6C

5:38:13:402 Nachm. 03/26/17 - $GLGSV,3,3,09,65,04,009,*52

5:38:13:403 Nachm. 03/26/17 - $GPGGA,153810.0,5208.349790,N,01138.428195,E,1,08,1.1,67.1,M,45.0,M,,*6C

5:38:13:408 Nachm. 03/26/17 - $GNGNS,153810.0,5208.349790,N,01138.428195,E,AA,09,1.1,67.1,45.0,,*59

5:38:13:414 Nachm. 03/26/17 - $GPVTG,224.0,T,223.6,M,0.0,N,0.0,K,A*22

5:38:13:415 Nachm. 03/26/17 - $GPRMC,153810.0,A,5208.349790,N,01138.428195,E,0.0,224.0,260317,0.4,E,A*0D

5:38:13:417 Nachm. 03/26/17 - $GPGSA,A,2,02,12,14,19,24,25,31,32,,,,,1.4,1.1,0.9*31

5:38:13:417 Nachm. 03/26/17 - $GNGSA,A,2,02,12,14,19,24,25,31,32,,,,,1.4,1.1,0.9*2F

5:38:13:417 Nachm. 03/26/17 - $GNGSA,A,2,73,,,,,,,,,,,,1.4,1.1,0.9*25

5:38:14:387 Nachm. 03/26/17 - $GPGSV,3,1,12,02,30,108,27,12,69,067,21,14,30,299,28,19,12,043,17*7F

5:38:14:388 Nachm. 03/26/17 - $GPGSV,3,2,12,24,38,147,17,25,59,275,28,29,23,206,26,31,13,307,15*79

5:38:14:390 Nachm. 03/26/17 - $GPGSV,3,3,12,32,34,270,31,03,02,357,,06,26,060,,22,,,*4F

5:38:14:397 Nachm. 03/26/17 - $GLGSV,3,1,09,82,66,099,25,73,53,312,27,80,68,092,16,79,10,115,23*65

5:38:14:398 Nachm. 03/26/17 - $GLGSV,3,2,09,83,30,178,25,81,29,033,17,71,13,275,29,72,18,324,12*6D

5:38:14:399 Nachm. 03/26/17 - $GLGSV,3,3,09,65,04,009,*52

5:38:14:406 Nachm. 03/26/17 - $GPGGA,153811.0,5208.349723,N,01138.428297,E,1,08,1.1,66.7,M,45.0,M,,*63

5:38:14:407 Nachm. 03/26/17 - $GNGNS,153811.0,5208.349723,N,01138.428297,E,AA,09,1.1,66.7,45.0,,*56

5:38:14:407 Nachm. 03/26/17 - $GPVTG,224.0,T,223.6,M,0.0,N,0.0,K,A*22

5:38:14:408 Nachm. 03/26/17 - $GPRMC,153811.0,A,5208.349723,N,01138.428297,E,0.0,224.0,260317,0.4,E,A*05

5:38:14:408 Nachm. 03/26/17 - $GPGSA,A,2,02,12,14,19,24,25,31,32,,,,,1.4,1.1,0.9*31

5:38:14:409 Nachm. 03/26/17 - $GNGSA,A,2,02,12,14,19,24,25,31,32,,,,,1.4,1.1,0.9*2F

5:38:14:409 Nachm. 03/26/17 - $GNGSA,A,2,73,,,,,,,,,,,,1.4,1.1,0.9*25

5:38:15:386 Nachm. 03/26/17 - $GPGSV,3,1,12,02,30,108,27,12,69,067,22,14,30,299,28,19,12,043,17*7C

5:38:15:387 Nachm. 03/26/17 - $GPGSV,3,2,12,24,38,147,17,25,59,275,29,29,23,206,27,31,13,307,15*79

5:38:15:387 Nachm. 03/26/17 - $GPGSV,3,3,12,32,34,270,31,03,02,357,,06,26,060,,22,,,*4F

5:38:15:391 Nachm. 03/26/17 - $GLGSV,3,1,09,82,66,099,24,73,53,312,27,80,68,092,17,79,10,115,23*65

5:38:15:394 Nachm. 03/26/17 - $GLGSV,3,2,09,83,30,178,26,81,29,033,17,71,13,275,28,72,18,324,12*6F

5:38:15:396 Nachm. 03/26/17 - $GLGSV,3,3,09,65,04,009,*52

5:38:15:397 Nachm. 03/26/17 - $GPGGA,153812.0,5208.349628,N,01138.428402,E,1,08,1.1,66.4,M,45.0,M,,*63

5:38:15:399 Nachm. 03/26/17 - $GNGNS,153812.0,5208.349628,N,01138.428402,E,AA,09,1.1,66.4,45.0,,*56

5:38:15:400 Nachm. 03/26/17 - $GPVTG,224.0,T,223.6,M,0.0,N,0.0,K,A*22

5:38:15:401 Nachm. 03/26/17 - $GPRMC,153812.0,A,5208.349628,N,01138.428402,E,0.0,224.0,260317,0.4,E,A*06

5:38:15:401 Nachm. 03/26/17 - $GPGSA,A,2,02,12,14,19,24,25,31,32,,,,,1.4,1.1,0.9*31

5:38:15:401 Nachm. 03/26/17 - $GNGSA,A,2,02,12,14,19,24,25,31,32,,,,,1.4,1.1,0.9*2F

5:38:15:401 Nachm. 03/26/17 - $GNGSA,A,2,73,,,,,,,,,,,,1.4,1.1,0.9*25

5:38:16:388 Nachm. 03/26/17 - $GPGSV,3,1,12,02,30,106,26,12,69,067,23,14,30,299,26,19,12,043,17*7C

5:38:16:391 Nachm. 03/26/17 - $GPGSV,3,2,12,24,38,147,16,25,59,275,29,29,23,206,28,31,13,307,15*77

5:38:16:391 Nachm. 03/26/17 - $GPGSV,3,3,12,32,34,270,29,03,02,357,,06,26,060,,22,,,*46

5:38:16:392 Nachm. 03/26/17 - $GLGSV,3,1,09,82,66,099,24,73,53,312,26,80,68,092,19,79,10,115,24*6D

5:38:16:393 Nachm. 03/26/17 - $GLGSV,3,2,09,83,30,178,26,81,29,033,17,71,13,275,29,72,18,324,12*6E

5:38:16:420 Nachm. 03/26/17 - $GLGSV,3,3,09,65,04,009,*52

5:38:16:443 Nachm. 03/26/17 - $GPGGA,153813.0,5208.349584,N,01138.428394,E,1,08,1.1,66.3,M,45.0,M,,*68

5:38:16:444 Nachm. 03/26/17 - $GNGNS,153813.0,5208.349584,N,01138.428394,E,AA,09,1.1,66.3,45.0,,*5D

5:38:16:444 Nachm. 03/26/17 - $GPVTG,224.0,T,223.6,M,0.0,N,0.0,K,A*22

5:38:16:447 Nachm. 03/26/17 - $GPRMC,153813.0,A,5208.349584,N,01138.428394,E,0.0,224.0,260317,0.4,E,A*0A

5:38:16:447 Nachm. 03/26/17 - $GPGSA,A,2,02,12,14,19,24,25,31,32,,,,,1.4,1.1,0.9*31

5:38:16:447 Nachm. 03/26/17 - $GNGSA,A,2,02,12,14,19,24,25,31,32,,,,,1.4,1.1,0.9*2F

5:38:16:447 Nachm. 03/26/17 - $GNGSA,A,2,73,,,,,,,,,,,,1.4,1.1,0.9*25

5:38:17:388 Nachm. 03/26/17 - $GPGSV,3,1,12,02,30,106,26,12,69,067,20,14,30,299,23,19,12,043,16*7B

5:38:17:389 Nachm. 03/26/17 - $GPGSV,3,2,12,24,38,147,16,25,59,275,28,29,23,206,27,31,13,307,15*79

5:38:17:390 Nachm. 03/26/17 - $GPGSV,3,3,12,32,34,270,27,03,02,357,,06,26,060,,22,,,*48

5:38:17:390 Nachm. 03/26/17 - $GLGSV,3,1,09,82,66,099,22,73,53,312,24,80,68,092,17,79,10,115,24*67

5:38:17:391 Nachm. 03/26/17 - $GLGSV,3,2,09,83,30,178,26,81,29,033,17,71,13,275,26,72,18,324,12*61

5:38:17:392 Nachm. 03/26/17 - $GLGSV,3,3,09,65,04,009,*52

5:38:17:403 Nachm. 03/26/17 - $GPGGA,153814.0,5208.349530,N,01138.428358,E,1,08,1.1,66.2,M,45.0,M,,*61

5:38:17:405 Nachm. 03/26/17 - $GNGNS,153814.0,5208.349530,N,01138.428358,E,AA,09,1.1,66.2,45.0,,*54

5:38:17:410 Nachm. 03/26/17 - $GPVTG,224.0,T,223.6,M,0.0,N,0.0,K,A*22

5:38:17:411 Nachm. 03/26/17 - $GPRMC,153814.0,A,5208.349530,N,01138.428358,E,0.0,224.0,260317,0.4,E,A*02

5:38:17:412 Nachm. 03/26/17 - $GPGSA,A,2,02,12,14,19,24,25,31,32,,,,,1.4,1.1,0.9*31

5:38:17:412 Nachm. 03/26/17 - $GNGSA,A,2,02,12,14,19,24,25,31,32,,,,,1.4,1.1,0.9*2F

5:38:17:413 Nachm. 03/26/17 - $GNGSA,A,2,73,,,,,,,,,,,,1.4,1.1,0.9*25

5:38:18:389 Nachm. 03/26/17 - $GPGSV,3,1,12,02,30,106,27,12,69,067,21,14,30,299,25,19,12,043,18*73

5:38:18:395 Nachm. 03/26/17 - $GPGSV,3,2,12,24,38,147,19,25,59,275,28,29,23,206,28,31,13,307,15*79

5:38:18:397 Nachm. 03/26/17 - $GPGSV,3,3,12,32,34,270,29,03,02,357,,06,26,060,,22,,,*46

5:38:18:399 Nachm. 03/26/17 - $GLGSV,3,1,09,82,66,099,22,73,53,312,25,80,68,092,18,79,10,115,25*68

5:38:18:400 Nachm. 03/26/17 - $GLGSV,3,2,09,83,30,178,26,81,29,033,17,71,13,275,27,72,18,324,12*60

5:38:18:402 Nachm. 03/26/17 - $GLGSV,3,3,09,65,04,009,*52

5:38:18:403 Nachm. 03/26/17 - $GPGGA,153815.0,5208.349534,N,01138.428353,E,1,08,1.1,66.2,M,45.0,M,,*6F

5:38:18:409 Nachm. 03/26/17 - $GNGNS,153815.0,5208.349534,N,01138.428353,E,AA,09,1.1,66.2,45.0,,*5A

5:38:18:414 Nachm. 03/26/17 - $GPVTG,224.0,T,223.6,M,0.0,N,0.0,K,A*22

5:38:18:415 Nachm. 03/26/17 - $GPRMC,153815.0,A,5208.349534,N,01138.428353,E,0.0,224.0,260317,0.4,E,A*0C

5:38:18:415 Nachm. 03/26/17 - $GPGSA,A,2,02,12,14,19,24,25,31,32,,,,,1.4,1.1,0.9*31

5:38:18:416 Nachm. 03/26/17 - $GNGSA,A,2,02,12,14,19,24,25,31,32,,,,,1.4,1.1,0.9*2F

5:38:18:416 Nachm. 03/26/17 - $GNGSA,A,2,73,,,,,,,,,,,,1.4,1.1,0.9*25

5:38:19:388 Nachm. 03/26/17 - $GPGSV,3,1,12,02,30,106,26,12,69,067,19,14,30,299,26,19,12,043,18*7A

5:38:19:390 Nachm. 03/26/17 - $GPGSV,3,2,12,24,38,147,19,25,59,275,28,29,23,206,28,31,13,307,15*79

5:38:19:395 Nachm. 03/26/17 - $GPGSV,3,3,12,32,34,270,29,03,02,357,,06,26,060,,22,,,*46

5:38:19:397 Nachm. 03/26/17 - $GLGSV,3,1,09,82,66,099,25,73,53,312,24,80,68,092,16,79,10,115,23*66

5:38:19:426 Nachm. 03/26/17 - $GLGSV,3,2,09,83,30,178,26,81,29,033,17,71,13,275,28,72,18,324,12*6F

5:38:19:435 Nachm. 03/26/17 - $GLGSV,3,3,09,65,04,009,*52

5:38:19:435 Nachm. 03/26/17 - $GPGGA,153816.0,5208.349535,N,01138.428359,E,1,08,1.1,66.2,M,45.0,M,,*67

5:38:19:436 Nachm. 03/26/17 - $GNGNS,153816.0,5208.349535,N,01138.428359,E,AA,09,1.1,66.2,45.0,,*52

5:38:19:437 Nachm. 03/26/17 - $GPVTG,224.0,T,223.6,M,0.0,N,0.0,K,A*22

5:38:19:438 Nachm. 03/26/17 - $GPRMC,153816.0,A,5208.349535,N,01138.428359,E,0.0,224.0,260317,0.4,E,A*04

5:38:19:438 Nachm. 03/26/17 - $GPGSA,A,2,02,12,14,19,24,25,31,32,,,,,1.4,1.1,0.9*31

5:38:19:439 Nachm. 03/26/17 - $GNGSA,A,2,02,12,14,19,24,25,31,32,,,,,1.4,1.1,0.9*2F

5:38:19:440 Nachm. 03/26/17 - $GNGSA,A,2,73,,,,,,,,,,,,1.4,1.1,0.9*25

5:38:20:385 Nachm. 03/26/17 - $GPGSV,3,1,12,02,30,106,25,12,69,067,21,14,30,299,25,19,12,043,16*7F

5:38:20:391 Nachm. 03/26/17 - $GPGSV,3,2,12,24,38,147,19,25,59,275,28,29,23,206,28,31,13,307,15*79

5:38:20:396 Nachm. 03/26/17 - $GPGSV,3,3,12,32,34,270,28,03,02,357,,06,26,060,,22,,,*47

5:38:20:399 Nachm. 03/26/17 - $GLGSV,3,1,09,82,66,099,26,73,53,312,24,80,68,092,16,79,10,115,22*64

5:38:20:399 Nachm. 03/26/17 - $GLGSV,3,2,09,83,30,178,26,81,29,033,17,71,13,275,28,72,18,324,12*6F

5:38:20:399 Nachm. 03/26/17 - $GLGSV,3,3,09,65,04,009,*52

5:38:20:400 Nachm. 03/26/17 - $GPGGA,153817.0,5208.349488,N,01138.428323,E,1,08,1.1,66.2,M,45.0,M,,*6C

5:38:20:400 Nachm. 03/26/17 - $GNGNS,153817.0,5208.349488,N,01138.428323,E,AA,09,1.1,66.2,45.0,,*59

5:38:20:400 Nachm. 03/26/17 - $GPVTG,224.0,T,223.6,M,0.0,N,0.0,K,A*22

5:38:20:401 Nachm. 03/26/17 - $GPRMC,153817.0,A,5208.349488,N,01138.428323,E,0.0,224.0,260317,0.4,E,A*0F

5:38:20:401 Nachm. 03/26/17 - $GPGSA,A,2,02,12,14,19,24,25,31,32,,,,,1.4,1.1,0.9*31

5:38:20:401 Nachm. 03/26/17 - $GNGSA,A,2,02,12,14,19,24,25,31,32,,,,,1.4,1.1,0.9*2F

5:38:20:402 Nachm. 03/26/17 - $GNGSA,A,2,73,,,,,,,,,,,,1.4,1.1,0.9*25

5:38:21:386 Nachm. 03/26/17 - $GPGSV,3,1,12,02,30,106,26,12,69,067,20,14,30,299,25,19,12,043,16*7D

5:38:21:387 Nachm. 03/26/17 - $GPGSV,3,2,12,24,38,147,19,25,59,275,28,29,23,206,29,31,13,307,15*78

5:38:21:388 Nachm. 03/26/17 - $GPGSV,3,3,12,32,34,270,28,03,02,357,,06,26,060,,22,,,*47

5:38:21:400 Nachm. 03/26/17 - $GLGSV,3,1,09,82,66,099,25,73,53,312,23,80,68,092,16,79,10,115,19*68

5:38:21:402 Nachm. 03/26/17 - $GLGSV,3,2,09,83,30,178,25,81,29,033,17,71,13,275,28,72,18,324,12*6C

5:38:21:404 Nachm. 03/26/17 - $GLGSV,3,3,09,65,04,009,*52

5:38:21:405 Nachm. 03/26/17 - $GPGGA,153818.0,5208.349488,N,01138.428329,E,1,07,1.1,66.2,M,45.0,M,,*66

5:38:21:413 Nachm. 03/26/17 - $GNGNS,153818.0,5208.349488,N,01138.428329,E,AA,08,1.1,66.2,45.0,,*5D

5:38:21:413 Nachm. 03/26/17 - $GPVTG,224.0,T,223.6,M,0.0,N,0.0,K,A*22

5:38:21:414 Nachm. 03/26/17 - $GPRMC,153818.0,A,5208.349488,N,01138.428329,E,0.0,224.0,260317,0.4,E,A*0A

5:38:21:414 Nachm. 03/26/17 - $GPGSA,A,2,02,12,14,19,24,25,32,,,,,,1.4,1.1,0.9*33

5:38:21:415 Nachm. 03/26/17 - $GNGSA,A,2,02,12,14,19,24,25,32,,,,,,1.4,1.1,0.9*2D

5:38:21:415 Nachm. 03/26/17 - $GNGSA,A,2,73,,,,,,,,,,,,1.4,1.1,0.9*25

5:38:22:387 Nachm. 03/26/17 - $GPGSV,3,1,12,02,30,106,26,12,69,067,20,14,30,299,25,19,12,043,16*7D

5:38:22:388 Nachm. 03/26/17 - $GPGSV,3,2,12,24,38,147,19,25,59,275,28,29,23,206,28,31,13,307,15*79

5:38:22:389 Nachm. 03/26/17 - $GPGSV,3,3,12,32,34,270,29,03,02,357,,06,26,060,,22,,,*46

5:38:22:391 Nachm. 03/26/17 - $GLGSV,3,1,09,82,66,099,25,73,53,312,23,80,68,092,15,79,10,115,19*6B

5:38:22:392 Nachm. 03/26/17 - $GLGSV,3,2,09,83,30,178,25,81,29,033,17,71,13,274,29,72,18,324,12*6C

5:38:22:407 Nachm. 03/26/17 - $GLGSV,3,3,09,65,04,009,*52

5:38:22:407 Nachm. 03/26/17 - $GPGGA,153819.0,5208.349454,N,01138.428305,E,1,07,1.1,66.3,M,45.0,M,,*69

5:38:22:407 Nachm. 03/26/17 - $GNGNS,153819.0,5208.349454,N,01138.428305,E,AA,08,1.1,66.3,45.0,,*52

5:38:22:407 Nachm. 03/26/17 - $GPVTG,224.0,T,223.6,M,0.0,N,0.0,K,A*22

5:38:22:408 Nachm. 03/26/17 - $GPRMC,153819.0,A,5208.349454,N,01138.428305,E,0.0,224.0,260317,0.4,E,A*04

5:38:22:408 Nachm. 03/26/17 - $GPGSA,A,2,02,12,14,19,24,25,32,,,,,,1.4,1.1,0.9*33

5:38:22:408 Nachm. 03/26/17 - $GNGSA,A,2,02,12,14,19,24,25,32,,,,,,1.4,1.1,0.9*2D

5:38:22:408 Nachm. 03/26/17 - $GNGSA,A,2,73,,,,,,,,,,,,1.4,1.1,0.9*25

5:38:23:386 Nachm. 03/26/17 - $GPGSV,3,1,12,02,30,106,25,12,69,067,20,14,30,299,24,19,12,043,18*71

5:38:23:388 Nachm. 03/26/17 - $GPGSV,3,2,12,24,38,147,19,25,59,275,26,29,23,206,27,31,13,307,12*7F

5:38:23:389 Nachm. 03/26/17 - $GPGSV,3,3,12,32,34,270,30,03,02,357,,06,26,060,,22,,,*4E

5:38:23:391 Nachm. 03/26/17 - $GLGSV,3,1,09,82,66,099,24,73,53,312,23,80,68,092,15,79,10,115,21*61

5:38:23:392 Nachm. 03/26/17 - $GLGSV,3,2,09,83,30,178,24,81,29,033,17,71,13,274,28,72,18,324,12*6C

5:38:23:392 Nachm. 03/26/17 - $GLGSV,3,3,09,65,04,009,*52

5:38:23:398 Nachm. 03/26/17 - $GPGGA,153820.0,5208.349424,N,01138.428280,E,1,08,1.1,66.3,M,45.0,M,,*67

5:38:23:399 Nachm. 03/26/17 - $GNGNS,153820.0,5208.349424,N,01138.428280,E,AA,09,1.1,66.3,45.0,,*52

5:38:23:400 Nachm. 03/26/17 - $GPVTG,224.0,T,223.6,M,0.0,N,0.0,K,A*22

5:38:23:400 Nachm. 03/26/17 - $GPRMC,153820.0,A,5208.349424,N,01138.428280,E,0.0,224.0,260317,0.4,E,A*05

5:38:23:401 Nachm. 03/26/17 - $GPGSA,A,2,02,12,14,19,24,25,31,32,,,,,1.4,1.1,0.9*31

5:38:23:401 Nachm. 03/26/17 - $GNGSA,A,2,02,12,14,19,24,25,31,32,,,,,1.4,1.1,0.9*2F

5:38:23:402 Nachm. 03/26/17 - $GNGSA,A,2,73,,,,,,,,,,,,1.4,1.1,0.9*25

5:38:24:387 Nachm. 03/26/17 - $GPGSV,3,1,12,02,30,106,26,12,69,067,19,14,30,299,25,19,12,043,18*79

5:38:24:388 Nachm. 03/26/17 - $GPGSV,3,2,12,24,38,147,19,25,59,275,27,29,23,206,25,31,13,307,12*7C

5:38:24:392 Nachm. 03/26/17 - $GPGSV,3,3,12,32,34,270,29,03,02,357,,06,26,060,,22,,,*46

5:38:24:393 Nachm. 03/26/17 - $GLGSV,3,1,09,82,66,099,21,73,53,312,23,80,68,092,15,79,10,115,20*65

5:38:24:394 Nachm. 03/26/17 - $GLGSV,3,2,09,83,30,178,25,81,29,033,17,71,13,274,27,72,18,324,12*62

5:38:24:394 Nachm. 03/26/17 - $GLGSV,3,3,09,65,04,009,*52

5:38:24:401 Nachm. 03/26/17 - $GPGGA,153821.0,5208.349426,N,01138.428284,E,1,08,1.1,66.3,M,45.0,M,,*60

5:38:24:402 Nachm. 03/26/17 - $GNGNS,153821.0,5208.349426,N,01138.428284,E,AA,09,1.1,66.3,45.0,,*55

5:38:24:403 Nachm. 03/26/17 - $GPVTG,224.0,T,223.6,M,0.0,N,0.0,K,A*22

5:38:24:404 Nachm. 03/26/17 - $GPRMC,153821.0,A,5208.349426,N,01138.428284,E,0.0,224.0,260317,0.4,E,A*02

5:38:24:405 Nachm. 03/26/17 - $GPGSA,A,2,02,12,14,19,24,25,31,32,,,,,1.4,1.1,0.9*31

5:38:24:405 Nachm. 03/26/17 - $GNGSA,A,2,02,12,14,19,24,25,31,32,,,,,1.4,1.1,0.9*2F

5:38:24:406 Nachm. 03/26/17 - $GNGSA,A,2,73,,,,,,,,,,,,1.4,1.1,0.9*25

5:38:25:387 Nachm. 03/26/17 - $GPGSV,3,1,12,02,30,106,25,12,69,067,22,14,30,299,26,19,12,043,17*7E

5:38:25:387 Nachm. 03/26/17 - $GPGSV,3,2,12,24,38,147,19,25,59,275,28,29,23,206,26,31,13,307,12*70

5:38:25:391 Nachm. 03/26/17 - $GPGSV,3,3,12,32,34,270,30,03,02,357,,06,26,060,,22,,,*4E

5:38:25:400 Nachm. 03/26/17 - $GLGSV,3,1,09,82,66,099,24,73,53,312,24,80,68,092,13,79,10,115,20*61

5:38:25:402 Nachm. 03/26/17 - $GLGSV,3,2,09,83,30,178,25,81,29,033,17,71,13,274,27,72,18,324,12*62

5:38:25:403 Nachm. 03/26/17 - $GLGSV,3,3,09,65,04,009,*52

5:38:25:405 Nachm. 03/26/17 - $GPGGA,153822.0,5208.349384,N,01138.428250,E,1,07,1.4,66.3,M,45.0,M,,*6F

5:38:25:407 Nachm. 03/26/17 - $GNGNS,153822.0,5208.349384,N,01138.428250,E,AA,08,1.4,66.3,45.0,,*54

5:38:25:407 Nachm. 03/26/17 - $GPVTG,224.0,T,223.6,M,0.0,N,0.0,K,A*22

5:38:25:408 Nachm. 03/26/17 - $GPRMC,153822.0,A,5208.349384,N,01138.428250,E,0.0,224.0,260317,0.4,E,A*07

5:38:25:408 Nachm. 03/26/17 - $GPGSA,A,2,02,12,14,19,25,31,32,,,,,,1.6,1.4,0.9*30

5:38:25:409 Nachm. 03/26/17 - $GNGSA,A,2,02,12,14,19,25,31,32,,,,,,1.6,1.4,0.9*2E

5:38:25:409 Nachm. 03/26/17 - $GNGSA,A,2,73,,,,,,,,,,,,1.6,1.4,0.9*22

5:38:26:388 Nachm. 03/26/17 - $GPGSV,3,1,12,02,30,106,26,12,69,067,22,14,30,299,24,19,12,043,17*7F

5:38:26:388 Nachm. 03/26/17 - $GPGSV,3,2,12,24,38,147,19,25,59,275,27,29,23,206,26,31,13,307,12*7F

5:38:26:391 Nachm. 03/26/17 - $GPGSV,3,3,12,32,34,270,29,03,02,357,,06,26,060,,22,,,*46

5:38:26:394 Nachm. 03/26/17 - $GLGSV,3,1,09,82,66,099,22,73,53,312,22,80,68,092,13,79,10,115,20*61

5:38:26:395 Nachm. 03/26/17 - $GLGSV,3,2,09,83,30,178,26,81,29,033,17,71,13,274,27,72,18,324,13*60

5:38:26:396 Nachm. 03/26/17 - $GLGSV,3,3,09,65,04,009,*52

5:38:26:398 Nachm. 03/26/17 - $GPGGA,153823.0,5208.349384,N,01138.428255,E,1,07,1.4,66.3,M,45.0,M,,*6B

5:38:26:405 Nachm. 03/26/17 - $GNGNS,153823.0,5208.349384,N,01138.428255,E,AA,08,1.4,66.3,45.0,,*50

5:38:26:409 Nachm. 03/26/17 - $GPVTG,224.0,T,223.6,M,0.0,N,0.0,K,A*22

5:38:26:410 Nachm. 03/26/17 - $GPRMC,153823.0,A,5208.349384,N,01138.428255,E,0.0,224.0,260317,0.4,E,A*03

5:38:26:410 Nachm. 03/26/17 - $GPGSA,A,2,02,12,14,19,25,31,32,,,,,,1.6,1.4,0.9*30

5:38:26:410 Nachm. 03/26/17 - $GNGSA,A,2,02,12,14,19,25,31,32,,,,,,1.6,1.4,0.9*2E

5:38:26:410 Nachm. 03/26/17 - $GNGSA,A,2,73,,,,,,,,,,,,1.6,1.4,0.9*22

5:38:27:386 Nachm. 03/26/17 - $GPGSV,3,1,12,02,30,106,26,12,69,067,22,14,30,299,26,19,12,043,16*7C

5:38:27:387 Nachm. 03/26/17 - $GPGSV,3,2,12,24,38,147,19,25,59,275,27,29,23,206,25,31,13,307,12*7C

5:38:27:391 Nachm. 03/26/17 - $GPGSV,3,3,12,32,34,270,30,03,02,357,,06,26,060,,22,,,*4E

5:38:27:392 Nachm. 03/26/17 - $GLGSV,3,1,09,82,66,099,23,73,53,312,23,80,68,092,13,79,10,115,20*61

5:38:27:401 Nachm. 03/26/17 - $GLGSV,3,2,09,83,30,178,26,81,29,033,17,71,13,274,26,72,18,324,13*61

5:38:27:407 Nachm. 03/26/17 - $GLGSV,3,3,09,65,04,009,*52

5:38:27:408 Nachm. 03/26/17 - $GPGGA,153824.0,5208.349344,N,01138.428224,E,1,07,1.4,66.4,M,45.0,M,,*61

5:38:27:409 Nachm. 03/26/17 - $GNGNS,153824.0,5208.349344,N,01138.428224,E,AA,08,1.4,66.4,45.0,,*5A

5:38:27:409 Nachm. 03/26/17 - $GPVTG,224.0,T,223.6,M,0.0,N,0.0,K,A*22

5:38:27:410 Nachm. 03/26/17 - $GPRMC,153824.0,A,5208.349344,N,01138.428224,E,0.0,224.0,260317,0.4,E,A*0E

5:38:27:411 Nachm. 03/26/17 - $GPGSA,A,2,02,12,14,19,25,31,32,,,,,,1.6,1.4,0.9*30

5:38:27:411 Nachm. 03/26/17 - $GNGSA,A,2,02,12,14,19,25,31,32,,,,,,1.6,1.4,0.9*2E

5:38:27:412 Nachm. 03/26/17 - $GNGSA,A,2,73,,,,,,,,,,,,1.6,1.4,0.9*22

5:38:28:386 Nachm. 03/26/17 - $GPGSV,3,1,12,02,30,106,26,12,69,067,22,14,30,299,25,19,12,043,16*7F

5:38:28:397 Nachm. 03/26/17 - $GPGSV,3,2,12,24,38,147,14,25,59,275,26,29,23,206,26,31,13,307,12*73

5:38:28:399 Nachm. 03/26/17 - $GPGSV,3,3,12,32,34,270,29,03,02,357,,06,26,060,,22,,,*46

5:38:28:405 Nachm. 03/26/17 - $GLGSV,3,1,09,82,66,099,22,73,53,312,22,80,68,092,13,79,10,115,20*61

5:38:28:411 Nachm. 03/26/17 - $GLGSV,3,2,09,83,30,178,23,81,29,033,17,71,13,274,25,72,18,324,13*67

5:38:28:412 Nachm. 03/26/17 - $GLGSV,3,3,09,65,04,009,*52

5:38:28:412 Nachm. 03/26/17 - $GPGGA,153825.0,5208.349341,N,01138.428222,E,1,08,1.1,66.4,M,45.0,M,,*69

5:38:28:413 Nachm. 03/26/17 - $GNGNS,153825.0,5208.349341,N,01138.428222,E,AA,09,1.1,66.4,45.0,,*5C

5:38:28:413 Nachm. 03/26/17 - $GPVTG,224.0,T,223.6,M,0.0,N,0.0,K,A*22

5:38:28:413 Nachm. 03/26/17 - $GPRMC,153825.0,A,5208.349341,N,01138.428222,E,0.0,224.0,260317,0.4,E,A*0C

5:38:28:413 Nachm. 03/26/17 - $GPGSA,A,2,02,12,14,19,24,25,31,32,,,,,1.4,1.1,0.9*31

5:38:28:416 Nachm. 03/26/17 - $GNGSA,A,2,02,12,14,19,24,25,31,32,,,,,1.4,1.1,0.9*2F

5:38:28:417 Nachm. 03/26/17 - $GNGSA,A,2,73,,,,,,,,,,,,1.4,1.1,0.9*25

5:38:29:386 Nachm. 03/26/17 - $GPGSV,3,1,12,02,30,106,27,12,69,067,23,14,30,299,26,19,12,043,17*7D

5:38:29:387 Nachm. 03/26/17 - $GPGSV,3,2,12,24,38,147,19,25,59,275,26,29,23,206,27,31,13,307,12*7F

5:38:29:390 Nachm. 03/26/17 - $GPGSV,3,3,12,32,34,270,29,03,02,357,,06,26,060,,22,,,*46

5:38:29:391 Nachm. 03/26/17 - $GLGSV,3,1,09,82,66,099,23,73,53,312,22,80,68,092,16,79,10,115,19*6F

5:38:29:404 Nachm. 03/26/17 - $GLGSV,3,2,09,83,30,178,22,81,29,033,17,71,13,274,25,72,18,324,13*66

5:38:29:404 Nachm. 03/26/17 - $GLGSV,3,3,09,65,04,009,*52

5:38:29:405 Nachm. 03/26/17 - $GPGGA,153826.0,5208.349314,N,01138.428191,E,1,08,1.1,66.4,M,45.0,M,,*61

5:38:29:408 Nachm. 03/26/17 - $GNGNS,153826.0,5208.349314,N,01138.428191,E,AA,09,1.1,66.4,45.0,,*54

5:38:29:409 Nachm. 03/26/17 - $GPVTG,224.0,T,223.6,M,0.0,N,0.0,K,A*22

5:38:29:410 Nachm. 03/26/17 - $GPRMC,153826.0,A,5208.349314,N,01138.428191,E,0.0,224.0,260317,0.4,E,A*04

5:38:29:410 Nachm. 03/26/17 - $GPGSA,A,2,02,12,14,19,24,25,31,32,,,,,1.4,1.1,0.9*31

5:38:29:411 Nachm. 03/26/17 - $GNGSA,A,2,02,12,14,19,24,25,31,32,,,,,1.4,1.1,0.9*2F

5:38:29:411 Nachm. 03/26/17 - $GNGSA,A,2,73,,,,,,,,,,,,1.4,1.1,0.9*25

5:38:30:385 Nachm. 03/26/17 - $GPGSV,3,1,12,02,30,106,26,12,69,067,24,14,30,299,26,19,12,043,17*7B

5:38:30:387 Nachm. 03/26/17 - $GPGSV,3,2,12,24,38,147,19,25,59,275,26,29,23,206,26,31,13,307,12*7E

5:38:30:387 Nachm. 03/26/17 - $GPGSV,3,3,12,32,34,270,29,03,02,357,,06,26,060,,22,,,*46

5:38:30:388 Nachm. 03/26/17 - $GLGSV,3,1,09,82,66,099,23,73,54,312,23,80,68,092,19,79,10,115,19*66

5:38:30:398 Nachm. 03/26/17 - $GLGSV,3,2,09,83,30,178,21,81,29,033,17,71,13,274,24,72,18,324,13*64

5:38:30:399 Nachm. 03/26/17 - $GLGSV,3,3,09,65,04,009,*52

5:38:30:401 Nachm. 03/26/17 - $GPGGA,153827.0,5208.349320,N,01138.428193,E,1,07,1.1,66.4,M,45.0,M,,*6A

5:38:30:402 Nachm. 03/26/17 - $GNGNS,153827.0,5208.349320,N,01138.428193,E,AA,08,1.1,66.4,45.0,,*51

5:38:30:407 Nachm. 03/26/17 - $GPVTG,224.0,T,223.6,M,0.0,N,0.0,K,A*22

5:38:30:408 Nachm. 03/26/17 - $GPRMC,153827.0,A,5208.349320,N,01138.428193,E,0.0,224.0,260317,0.4,E,A*00

5:38:30:411 Nachm. 03/26/17 - $GPGSA,A,2,02,12,14,19,24,25,32,,,,,,1.4,1.1,0.9*33

5:38:30:412 Nachm. 03/26/17 - $GNGSA,A,2,02,12,14,19,24,25,32,,,,,,1.4,1.1,0.9*2D

5:38:30:412 Nachm. 03/26/17 - $GNGSA,A,2,73,,,,,,,,,,,,1.4,1.1,0.9*25

5:38:31:386 Nachm. 03/26/17 - $GPGSV,3,1,12,02,30,106,26,12,69,067,25,14,30,299,26,19,12,043,17*7A

5:38:31:388 Nachm. 03/26/17 - $GPGSV,3,2,12,24,38,147,18,25,59,275,26,29,23,206,26,31,13,307,12*7F

5:38:31:391 Nachm. 03/26/17 - $GPGSV,3,3,12,32,34,270,29,03,02,357,,06,26,060,,22,,,*46

5:38:31:392 Nachm. 03/26/17 - $GLGSV,3,1,09,82,66,099,22,73,54,312,24,80,68,092,19,79,10,115,19*60

5:38:31:393 Nachm. 03/26/17 - $GLGSV,3,2,09,83,30,178,23,81,29,033,17,71,13,274,25,72,18,324,13*67

5:38:31:394 Nachm. 03/26/17 - $GLGSV,3,3,09,65,04,009,*52

5:38:31:395 Nachm. 03/26/17 - $GPGGA,153828.0,5208.349287,N,01138.428167,E,1,07,1.1,66.4,M,45.0,M,,*62

5:38:31:399 Nachm. 03/26/17 - $GNGNS,153828.0,5208.349287,N,01138.428167,E,AA,08,1.1,66.4,45.0,,*59

5:38:31:404 Nachm. 03/26/17 - $GPVTG,224.0,T,223.6,M,0.0,N,0.0,K,A*22

5:38:31:405 Nachm. 03/26/17 - $GPRMC,153828.0,A,5208.349287,N,01138.428167,E,0.0,224.0,260317,0.4,E,A*08

5:38:31:406 Nachm. 03/26/17 - $GPGSA,A,2,02,12,14,19,24,25,32,,,,,,1.4,1.1,0.9*33

5:38:31:406 Nachm. 03/26/17 - $GNGSA,A,2,02,12,14,19,24,25,32,,,,,,1.4,1.1,0.9*2D

5:38:31:407 Nachm. 03/26/17 - $GNGSA,A,2,73,,,,,,,,,,,,1.4,1.1,0.9*25

5:38:32:385 Nachm. 03/26/17 - $GPGSV,3,1,12,02,30,106,27,12,69,067,23,14,30,299,27,19,12,043,17*7C

5:38:32:387 Nachm. 03/26/17 - $GPGSV,3,2,12,24,38,147,18,25,59,275,27,29,23,206,24,31,13,307,12*7C

5:38:32:388 Nachm. 03/26/17 - $GPGSV,3,3,12,32,34,270,30,03,02,357,,06,26,060,,22,,,*4E

5:38:32:388 Nachm. 03/26/17 - $GLGSV,3,1,09,82,66,099,23,73,54,312,25,80,68,092,19,79,10,115,17*6E

5:38:32:389 Nachm. 03/26/17 - $GLGSV,3,2,09,83,30,178,24,81,29,033,17,71,13,274,24,72,18,324,13*61

5:38:32:394 Nachm. 03/26/17 - $GLGSV,3,3,09,65,04,009,*52

5:38:32:396 Nachm. 03/26/17 - $GPGGA,153829.0,5208.349285,N,01138.428164,E,1,07,1.1,66.4,M,45.0,M,,*62

5:38:32:397 Nachm. 03/26/17 - $GNGNS,153829.0,5208.349285,N,01138.428164,E,AA,08,1.1,66.4,45.0,,*59

5:38:32:397 Nachm. 03/26/17 - $GPVTG,224.0,T,223.6,M,0.0,N,0.0,K,A*22

5:38:32:398 Nachm. 03/26/17 - $GPRMC,153829.0,A,5208.349285,N,01138.428164,E,0.0,224.0,260317,0.4,E,A*08

5:38:32:398 Nachm. 03/26/17 - $GPGSA,A,2,02,12,14,19,24,25,32,,,,,,1.4,1.1,0.9*33

5:38:32:399 Nachm. 03/26/17 - $GNGSA,A,2,02,12,14,19,24,25,32,,,,,,1.4,1.1,0.9*2D

5:38:32:400 Nachm. 03/26/17 - $GNGSA,A,2,73,,,,,,,,,,,,1.4,1.1,0.9*25

5:38:33:388 Nachm. 03/26/17 - $GPGSV,3,1,12,02,30,106,27,12,69,067,23,14,30,299,27,19,12,043,17*7C

5:38:33:389 Nachm. 03/26/17 - $GPGSV,3,2,12,24,38,147,18,25,59,275,27,29,23,206,22,31,13,307,12*7A

5:38:33:390 Nachm. 03/26/17 - $GPGSV,3,3,12,32,34,270,30,03,02,357,,06,26,060,,22,,,*4E

5:38:33:394 Nachm. 03/26/17 - $GLGSV,3,1,09,82,66,099,21,73,54,312,26,80,68,092,19,79,10,115,17*6F

5:38:33:396 Nachm. 03/26/17 - $GLGSV,3,2,09,83,30,178,26,81,29,033,17,71,13,274,24,72,18,324,12*62

5:38:33:397 Nachm. 03/26/17 - $GLGSV,3,3,09,65,04,009,*52

5:38:33:405 Nachm. 03/26/17 - $GPGGA,153830.0,5208.349282,N,01138.428163,E,1,07,1.1,66.4,M,45.0,M,,*6A

5:38:33:406 Nachm. 03/26/17 - $GNGNS,153830.0,5208.349282,N,01138.428163,E,AA,08,1.1,66.4,45.0,,*51

5:38:33:412 Nachm. 03/26/17 - $GPVTG,224.0,T,223.6,M,0.0,N,0.0,K,A*22

5:38:33:412 Nachm. 03/26/17 - $GPRMC,153830.0,A,5208.349282,N,01138.428163,E,0.0,224.0,260317,0.4,E,A*00

5:38:33:414 Nachm. 03/26/17 - $GPGSA,A,2,02,12,14,19,24,25,32,,,,,,1.4,1.1,0.9*33

5:38:33:414 Nachm. 03/26/17 - $GNGSA,A,2,02,12,14,19,24,25,32,,,,,,1.4,1.1,0.9*2D

5:38:33:415 Nachm. 03/26/17 - $GNGSA,A,2,73,,,,,,,,,,,,1.4,1.1,0.9*25

5:38:34:387 Nachm. 03/26/17 - $GPGSV,3,1,12,02,30,106,25,12,69,067,23,14,30,299,27,19,12,043,16*7F

5:38:34:390 Nachm. 03/26/17 - $GPGSV,3,2,12,24,38,147,18,25,59,275,25,29,24,206,22,31,13,307,12*7F

5:38:34:392 Nachm. 03/26/17 - $GPGSV,3,3,12,32,34,270,30,03,02,357,,06,26,060,,22,,,*4E

5:38:34:401 Nachm. 03/26/17 - $GLGSV,3,1,09,82,66,099,22,73,54,312,26,80,68,092,19,79,10,115,18*63

5:38:34:409 Nachm. 03/26/17 - $GLGSV,3,2,09,83,30,178,26,81,29,033,17,71,13,274,23,72,18,324,12*65

5:38:34:413 Nachm. 03/26/17 - $GLGSV,3,3,09,65,04,009,*52

5:38:34:415 Nachm. 03/26/17 - $GPGGA,153831.0,5208.349091,N,01138.428048,E,1,08,0.9,66.3,M,45.0,M,,*62

5:38:34:417 Nachm. 03/26/17 - $GNGNS,153831.0,5208.349091,N,01138.428048,E,AA,09,0.9,66.3,45.0,,*57

5:38:34:426 Nachm. 03/26/17 - $GPVTG,224.0,T,223.6,M,0.0,N,0.0,K,A*22

5:38:34:427 Nachm. 03/26/17 - $GPRMC,153831.0,A,5208.349091,N,01138.428048,E,0.0,224.0,260317,0.4,E,A*09

5:38:34:427 Nachm. 03/26/17 - $GPGSA,A,2,02,12,14,19,24,25,29,32,,,,,1.3,0.9,0.9*36

5:38:34:427 Nachm. 03/26/17 - $GNGSA,A,2,02,12,14,19,24,25,29,32,,,,,1.3,0.9,0.9*28

5:38:34:428 Nachm. 03/26/17 - $GNGSA,A,2,73,,,,,,,,,,,,1.3,0.9,0.9*2B

5:38:35:387 Nachm. 03/26/17 - $GPGSV,3,1,12,02,30,106,26,12,69,067,23,14,30,299,26,19,12,043,16*7D

5:38:35:388 Nachm. 03/26/17 - $GPGSV,3,2,12,24,38,147,15,25,59,275,26,29,24,206,23,31,13,307,12*70

5:38:35:394 Nachm. 03/26/17 - $GPGSV,3,3,12,32,34,270,28,03,02,357,,06,26,060,,22,,,*47

5:38:35:395 Nachm. 03/26/17 - $GLGSV,3,1,09,82,66,099,21,73,54,312,26,80,68,092,15,79,10,115,18*6C

5:38:35:396 Nachm. 03/26/17 - $GLGSV,3,2,09,83,30,178,25,81,29,033,17,71,13,274,23,72,18,324,12*66

5:38:35:397 Nachm. 03/26/17 - $GLGSV,3,3,09,65,04,009,*52

5:38:35:402 Nachm. 03/26/17 - $GPGGA,153832.0,5208.349053,N,01138.428030,E,1,08,0.9,66.3,M,45.0,M,,*60

5:38:35:402 Nachm. 03/26/17 - $GNGNS,153832.0,5208.349053,N,01138.428030,E,AA,09,0.9,66.3,45.0,,*55

5:38:35:403 Nachm. 03/26/17 - $GPVTG,224.0,T,223.6,M,0.0,N,0.0,K,A*22

5:38:35:407 Nachm. 03/26/17 - $GPRMC,153832.0,A,5208.349053,N,01138.428030,E,0.0,224.0,260317,0.4,E,A*0B

5:38:35:407 Nachm. 03/26/17 - $GPGSA,A,2,02,12,14,19,24,25,29,32,,,,,1.3,0.9,0.9*36

5:38:35:407 Nachm. 03/26/17 - $GNGSA,A,2,02,12,14,19,24,25,29,32,,,,,1.3,0.9,0.9*28

5:38:35:407 Nachm. 03/26/17 - $GNGSA,A,2,73,,,,,,,,,,,,1.3,0.9,0.9*2B

5:38:36:389 Nachm. 03/26/17 - $GPGSV,3,1,12,02,30,106,25,12,69,067,24,14,30,299,24,19,12,043,17*7A

5:38:36:390 Nachm. 03/26/17 - $GPGSV,3,2,12,24,38,147,21,25,59,275,26,29,24,206,24,31,13,307,12*70

5:38:36:394 Nachm. 03/26/17 - $GPGSV,3,3,12,32,34,270,28,03,02,357,,06,26,060,,22,,,*47

5:38:36:396 Nachm. 03/26/17 - $GLGSV,3,1,09,82,66,099,22,73,54,312,26,80,68,092,18,79,10,115,20*69

5:38:36:397 Nachm. 03/26/17 - $GLGSV,3,2,09,83,30,178,23,81,29,033,17,71,13,274,24,72,18,324,12*67

5:38:36:399 Nachm. 03/26/17 - $GLGSV,3,3,09,65,04,009,*52

5:38:36:406 Nachm. 03/26/17 - $GPGGA,153833.0,5208.348967,N,01138.427979,E,1,08,0.9,66.3,M,45.0,M,,*65

5:38:36:407 Nachm. 03/26/17 - $GNGNS,153833.0,5208.348967,N,01138.427979,E,AA,09,0.9,66.3,45.0,,*50

5:38:36:407 Nachm. 03/26/17 - $GPVTG,224.0,T,223.6,M,0.0,N,0.0,K,A*22

5:38:36:408 Nachm. 03/26/17 - $GPRMC,153833.0,A,5208.348967,N,01138.427979,E,0.0,224.0,260317,0.4,E,A*0E

5:38:36:408 Nachm. 03/26/17 - $GPGSA,A,2,02,12,14,19,24,25,29,32,,,,,1.3,0.9,0.9*36

5:38:36:409 Nachm. 03/26/17 - $GNGSA,A,2,02,12,14,19,24,25,29,32,,,,,1.3,0.9,0.9*28

5:38:36:409 Nachm. 03/26/17 - $GNGSA,A,2,73,,,,,,,,,,,,1.3,0.9,0.9*2B

5:38:37:385 Nachm. 03/26/17 - $GPGSV,3,1,12,02,30,106,26,12,69,067,23,14,30,299,24,19,12,043,17*7E

5:38:37:386 Nachm. 03/26/17 - $GPGSV,3,2,12,24,38,147,21,25,59,275,27,29,24,206,24,31,13,307,12*71

5:38:37:387 Nachm. 03/26/17 - $GPGSV,3,3,12,32,34,270,28,03,02,357,,06,26,060,,22,,,*47

5:38:37:388 Nachm. 03/26/17 - $GLGSV,3,1,09,82,66,099,24,73,54,312,27,80,68,092,19,79,10,115,21*6E

5:38:37:388 Nachm. 03/26/17 - $GLGSV,3,2,09,83,30,178,25,81,29,033,17,71,13,274,23,72,18,324,12*66

5:38:37:390 Nachm. 03/26/17 - $GLGSV,3,3,09,65,04,009,*52

5:38:37:390 Nachm. 03/26/17 - $GPGGA,153834.0,5208.348922,N,01138.427954,E,1,08,0.9,66.2,M,45.0,M,,*6D

5:38:37:392 Nachm. 03/26/17 - $GNGNS,153834.0,5208.348922,N,01138.427954,E,AA,09,0.9,66.2,45.0,,*58

5:38:37:399 Nachm. 03/26/17 - $GPVTG,224.0,T,223.6,M,0.0,N,0.0,K,A*22

5:38:37:400 Nachm. 03/26/17 - $GPRMC,153834.0,A,5208.348922,N,01138.427954,E,0.0,224.0,260317,0.4,E,A*07

5:38:37:401 Nachm. 03/26/17 - $GPGSA,A,2,02,12,14,19,24,25,29,32,,,,,1.3,0.9,0.9*36

5:38:37:401 Nachm. 03/26/17 - $GNGSA,A,2,02,12,14,19,24,25,29,32,,,,,1.3,0.9,0.9*28

5:38:37:402 Nachm. 03/26/17 - $GNGSA,A,2,73,,,,,,,,,,,,1.3,0.9,0.9*2B

5:38:38:388 Nachm. 03/26/17 - $GPGSV,3,1,12,02,30,106,26,12,69,067,24,14,30,299,23,19,12,043,16*7F

5:38:38:389 Nachm. 03/26/17 - $GPGSV,3,2,12,24,38,147,21,25,59,275,27,29,24,206,25,31,13,307,12*70

5:38:38:389 Nachm. 03/26/17 - $GPGSV,3,3,12,32,34,270,28,03,02,357,,06,26,060,,22,,,*47

5:38:38:394 Nachm. 03/26/17 - $GLGSV,3,1,09,82,66,099,24,73,54,312,26,80,68,092,19,79,10,115,18*65

5:38:38:396 Nachm. 03/26/17 - $GLGSV,3,2,09,83,30,178,24,81,29,033,17,71,13,274,22,72,18,324,12*66

5:38:38:397 Nachm. 03/26/17 - $GLGSV,3,3,09,65,04,009,*52

5:38:38:397 Nachm. 03/26/17 - $GPGGA,153835.0,5208.348860,N,01138.427915,E,1,08,0.9,66.2,M,45.0,M,,*6E

5:38:38:400 Nachm. 03/26/17 - $GNGNS,153835.0,5208.348860,N,01138.427915,E,AA,09,0.9,66.2,45.0,,*5B

5:38:38:401 Nachm. 03/26/17 - $GPVTG,224.0,T,223.6,M,0.0,N,0.0,K,A*22

5:38:38:402 Nachm. 03/26/17 - $GPRMC,153835.0,A,5208.348860,N,01138.427915,E,0.0,224.0,260317,0.4,E,A*04

5:38:38:402 Nachm. 03/26/17 - $GPGSA,A,2,02,12,14,19,24,25,29,32,,,,,1.3,0.9,0.9*36

5:38:38:402 Nachm. 03/26/17 - $GNGSA,A,2,02,12,14,19,24,25,29,32,,,,,1.3,0.9,0.9*28

5:38:38:402 Nachm. 03/26/17 - $GNGSA,A,2,73,,,,,,,,,,,,1.3,0.9,0.9*2B

5:38:39:386 Nachm. 03/26/17 - $GPGSV,3,1,12,02,30,106,25,12,69,067,23,14,30,299,24,19,12,043,16*7C

5:38:39:387 Nachm. 03/26/17 - $GPGSV,3,2,12,24,38,147,21,25,59,275,25,29,24,206,25,31,13,307,12*72

5:38:39:392 Nachm. 03/26/17 - $GPGSV,3,3,12,32,34,270,28,03,02,357,,06,26,060,,22,,,*47

5:38:39:393 Nachm. 03/26/17 - $GLGSV,3,1,09,82,66,099,25,73,54,312,25,80,68,092,19,79,10,115,21*6D

5:38:39:395 Nachm. 03/26/17 - $GLGSV,3,2,09,83,30,178,25,81,29,033,17,71,13,274,23,72,18,324,12*66

5:38:39:396 Nachm. 03/26/17 - $GLGSV,3,3,09,65,04,009,*52

5:38:39:397 Nachm. 03/26/17 - $GPGGA,153836.0,5208.348829,N,01138.427898,E,1,08,0.9,66.2,M,45.0,M,,*64

5:38:39:398 Nachm. 03/26/17 - $GNGNS,153836.0,5208.348829,N,01138.427898,E,AA,09,0.9,66.2,45.0,,*51

5:38:39:398 Nachm. 03/26/17 - $GPVTG,224.0,T,223.6,M,0.0,N,0.0,K,A*22

5:38:39:399 Nachm. 03/26/17 - $GPRMC,153836.0,A,5208.348829,N,01138.427898,E,0.0,224.0,260317,0.4,E,A*0E

5:38:39:399 Nachm. 03/26/17 - $GPGSA,A,2,02,12,14,19,24,25,29,32,,,,,1.3,0.9,0.9*36

5:38:39:399 Nachm. 03/26/17 - $GNGSA,A,2,02,12,14,19,24,25,29,32,,,,,1.3,0.9,0.9*28

5:38:39:400 Nachm. 03/26/17 - $GNGSA,A,2,73,,,,,,,,,,,,1.3,0.9,0.9*2B

5:38:40:384 Nachm. 03/26/17 - $GPGSV,3,1,12,02,30,106,26,12,69,067,23,14,30,299,23,19,12,043,16*78

5:38:40:386 Nachm. 03/26/17 - $GPGSV,3,2,12,24,38,147,23,25,59,275,27,29,24,206,25,31,13,307,12*72

5:38:40:386 Nachm. 03/26/17 - $GPGSV,3,3,12,32,34,270,28,03,02,357,,06,26,060,,22,,,*47

5:38:40:387 Nachm. 03/26/17 - $GLGSV,3,1,09,82,66,099,24,73,54,312,25,80,68,092,15,79,10,115,20*61

5:38:40:387 Nachm. 03/26/17 - $GLGSV,3,2,09,83,30,178,26,81,29,033,17,71,13,274,24,72,18,324,12*62

5:38:40:387 Nachm. 03/26/17 - $GLGSV,3,3,09,65,04,009,*52

5:38:40:387 Nachm. 03/26/17 - $GPGGA,153837.0,5208.348765,N,01138.427859,E,1,08,0.9,66.1,M,45.0,M,,*6C

5:38:40:390 Nachm. 03/26/17 - $GNGNS,153837.0,5208.348765,N,01138.427859,E,AA,09,0.9,66.1,45.0,,*59

5:38:40:392 Nachm. 03/26/17 - $GPVTG,224.0,T,223.6,M,0.0,N,0.0,K,A*22

5:38:40:395 Nachm. 03/26/17 - $GPRMC,153837.0,A,5208.348765,N,01138.427859,E,0.0,224.0,260317,0.4,E,A*05

5:38:40:395 Nachm. 03/26/17 - $GPGSA,A,2,02,12,14,19,24,25,29,32,,,,,1.3,0.9,0.9*36

5:38:40:396 Nachm. 03/26/17 - $GNGSA,A,2,02,12,14,19,24,25,29,32,,,,,1.3,0.9,0.9*28

5:38:40:397 Nachm. 03/26/17 - $GNGSA,A,2,73,,,,,,,,,,,,1.3,0.9,0.9*2B

5:38:41:384 Nachm. 03/26/17 - $GPGSV,3,1,12,02,30,106,23,12,69,067,22,14,30,299,21,19,12,043,14*7C

5:38:41:386 Nachm. 03/26/17 - $GPGSV,3,2,12,24,38,147,19,25,59,275,25,29,24,206,24,31,13,307,12*78

5:38:41:386 Nachm. 03/26/17 - $GPGSV,3,3,12,32,34,270,26,03,02,357,,06,26,060,,22,,,*49

5:38:41:386 Nachm. 03/26/17 - $GLGSV,3,1,09,82,66,099,22,73,54,312,24,80,68,092,15,79,10,115,21*67

5:38:41:386 Nachm. 03/26/17 - $GLGSV,3,2,09,83,30,178,24,81,29,033,17,71,13,274,22,72,18,324,12*66

5:38:41:386 Nachm. 03/26/17 - $GLGSV,3,3,09,65,04,009,*52

5:38:41:386 Nachm. 03/26/17 - $GPGGA,153838.0,5208.348735,N,01138.427838,E,1,08,0.9,66.1,M,45.0,M,,*61

5:38:41:387 Nachm. 03/26/17 - $GNGNS,153838.0,5208.348735,N,01138.427838,E,AA,09,0.9,66.1,45.0,,*54

5:38:41:387 Nachm. 03/26/17 - $GPVTG,224.0,T,223.6,M,0.0,N,0.0,K,A*22

5:38:41:387 Nachm. 03/26/17 - $GPRMC,153838.0,A,5208.348735,N,01138.427838,E,0.0,224.0,260317,0.4,E,A*08

5:38:41:388 Nachm. 03/26/17 - $GPGSA,A,2,02,12,14,19,24,25,29,32,,,,,1.3,0.9,0.9*36

5:38:41:388 Nachm. 03/26/17 - $GNGSA,A,2,02,12,14,19,24,25,29,32,,,,,1.3,0.9,0.9*28

5:38:41:388 Nachm. 03/26/17 - $GNGSA,A,2,73,,,,,,,,,,,,1.3,0.9,0.9*2B

5:38:42:384 Nachm. 03/26/17 - $GPGSV,3,1,12,02,30,106,25,12,69,067,23,14,30,299,24,19,12,043,14*7E

5:38:42:385 Nachm. 03/26/17 - $GPGSV,3,2,12,24,38,147,22,25,59,275,26,29,24,206,25,31,13,307,12*72

5:38:42:386 Nachm. 03/26/17 - $GPGSV,3,3,12,32,34,270,27,03,02,357,,06,26,060,,22,,,*48

5:38:42:388 Nachm. 03/26/17 - $GLGSV,3,1,09,82,66,099,24,73,54,312,26,80,68,092,16,79,10,115,22*63

5:38:42:388 Nachm. 03/26/17 - $GLGSV,3,2,09,83,30,178,26,81,29,033,17,71,13,274,22,72,18,324,12*64

5:38:42:388 Nachm. 03/26/17 - $GLGSV,3,3,09,65,04,009,*52

5:38:42:389 Nachm. 03/26/17 - $GPGGA,153839.0,5208.348698,N,01138.427815,E,1,08,0.9,66.1,M,45.0,M,,*69

5:38:42:389 Nachm. 03/26/17 - $GNGNS,153839.0,5208.348698,N,01138.427815,E,AA,09,0.9,66.1,45.0,,*5C

5:38:42:389 Nachm. 03/26/17 - $GPVTG,224.0,T,223.6,M,0.0,N,0.0,K,A*22

5:38:42:389 Nachm. 03/26/17 - $GPRMC,153839.0,A,5208.348698,N,01138.427815,E,0.0,224.0,260317,0.4,E,A*00

5:38:42:389 Nachm. 03/26/17 - $GPGSA,A,2,02,12,14,19,24,25,29,32,,,,,1.3,0.9,0.9*36

5:38:42:390 Nachm. 03/26/17 - $GNGSA,A,2,02,12,14,19,24,25,29,32,,,,,1.3,0.9,0.9*28

5:38:42:390 Nachm. 03/26/17 - $GNGSA,A,2,73,,,,,,,,,,,,1.3,0.9,0.9*2B

5:38:43:385 Nachm. 03/26/17 - $GPGSV,3,1,12,02,30,106,26,12,69,067,24,14,30,299,22,19,12,043,14*7C

5:38:43:387 Nachm. 03/26/17 - $GPGSV,3,2,12,24,38,147,23,25,59,275,25,29,24,206,25,31,13,307,12*70

5:38:43:396 Nachm. 03/26/17 - $GPGSV,3,3,12,32,34,270,27,03,02,357,,06,26,060,,22,,,*48

5:38:43:397 Nachm. 03/26/17 - $GLGSV,3,1,09,82,66,099,23,73,54,312,26,80,68,092,17,79,10,115,23*64

5:38:43:397 Nachm. 03/26/17 - $GLGSV,3,2,09,83,30,178,26,81,29,033,17,71,13,274,23,72,18,324,10*67

5:38:43:398 Nachm. 03/26/17 - $GLGSV,3,3,09,65,04,009,*52

5:38:43:398 Nachm. 03/26/17 - $GPGGA,153840.0,5208.348669,N,01138.427797,E,1,08,0.9,66.0,M,45.0,M,,*6D

5:38:43:401 Nachm. 03/26/17 - $GNGNS,153840.0,5208.348669,N,01138.427797,E,AA,09,0.9,66.0,45.0,,*58

5:38:43:401 Nachm. 03/26/17 - $GPVTG,224.0,T,223.6,M,0.0,N,0.0,K,A*22

5:38:43:402 Nachm. 03/26/17 - $GPRMC,153840.0,A,5208.348669,N,01138.427797,E,0.0,224.0,260317,0.4,E,A*05

5:38:43:402 Nachm. 03/26/17 - $GPGSA,A,2,02,12,14,19,24,25,29,32,,,,,1.3,0.9,0.9*36

5:38:43:403 Nachm. 03/26/17 - $GNGSA,A,2,02,12,14,19,24,25,29,32,,,,,1.3,0.9,0.9*28

5:38:43:403 Nachm. 03/26/17 - $GNGSA,A,2,73,,,,,,,,,,,,1.3,0.9,0.9*2B

5:38:44:385 Nachm. 03/26/17 - $GPGSV,3,1,12,02,30,106,26,12,69,067,22,14,30,299,27,19,12,043,14*7F

5:38:44:387 Nachm. 03/26/17 - $GPGSV,3,2,12,24,38,147,19,25,59,275,28,29,24,206,23,31,13,307,12*72

5:38:44:388 Nachm. 03/26/17 - $GPGSV,3,3,12,32,34,270,32,03,02,357,,06,26,060,,22,,,*4C

5:38:44:389 Nachm. 03/26/17 - $GLGSV,3,1,09,82,66,099,24,73,54,312,28,80,68,092,17,79,10,115,22*6C

5:38:44:389 Nachm. 03/26/17 - $GLGSV,3,2,09,83,30,178,24,81,29,033,17,71,13,274,28,72,18,324,10*6E

5:38:44:390 Nachm. 03/26/17 - $GLGSV,3,3,09,65,04,009,*52

5:38:44:391 Nachm. 03/26/17 - $GPGGA,153841.0,5208.348661,N,01138.427788,E,1,09,0.9,66.0,M,45.0,M,,*6B

5:38:44:400 Nachm. 03/26/17 - $GNGNS,153841.0,5208.348661,N,01138.427788,E,AA,10,0.9,66.0,45.0,,*57

5:38:44:402 Nachm. 03/26/17 - $GPVTG,224.0,T,223.6,M,0.0,N,0.0,K,A*22

5:38:44:403 Nachm. 03/26/17 - $GPRMC,153841.0,A,5208.348661,N,01138.427788,E,0.0,224.0,260317,0.4,E,A*02

5:38:44:403 Nachm. 03/26/17 - $GPGSA,A,2,02,12,14,19,24,25,29,31,32,,,,1.2,0.9,0.8*34

5:38:44:403 Nachm. 03/26/17 - $GNGSA,A,2,02,12,14,19,24,25,29,31,32,,,,1.2,0.9,0.8*2A

5:38:44:403 Nachm. 03/26/17 - $GNGSA,A,2,73,,,,,,,,,,,,1.2,0.9,0.8*2B

5:38:45:387 Nachm. 03/26/17 - $GPGSV,3,1,12,02,30,106,20,12,69,067,22,14,30,299,31,19,12,043,14*7E

5:38:45:389 Nachm. 03/26/17 - $GPGSV,3,2,12,24,38,147,19,25,59,275,30,29,24,206,25,31,13,307,23*7F

5:38:45:397 Nachm. 03/26/17 - $GPGSV,3,3,12,32,34,270,32,03,02,357,,06,26,060,,22,,,*4C

5:38:45:399 Nachm. 03/26/17 - $GLGSV,3,1,09,82,66,099,23,73,54,312,31,80,68,092,17,79,10,115,17*65

5:38:45:404 Nachm. 03/26/17 - $GLGSV,3,2,09,83,30,178,18,81,29,033,17,71,13,274,29,72,18,324,10*60

5:38:45:404 Nachm. 03/26/17 - $GLGSV,3,3,09,65,04,009,*52

5:38:45:405 Nachm. 03/26/17 - $GPGGA,153842.0,5208.348854,N,01138.427866,E,1,09,0.9,65.9,M,45.0,M,,*65

5:38:45:406 Nachm. 03/26/17 - $GNGNS,153842.0,5208.348854,N,01138.427866,E,AA,10,0.9,65.9,45.0,,*59

5:38:45:407 Nachm. 03/26/17 - $GPVTG,224.0,T,223.6,M,0.0,N,0.0,K,A*22

5:38:45:407 Nachm. 03/26/17 - $GPRMC,153842.0,A,5208.348854,N,01138.427866,E,0.0,224.0,260317,0.4,E,A*06

5:38:45:408 Nachm. 03/26/17 - $GPGSA,A,2,02,12,14,19,24,25,29,31,32,,,,1.2,0.9,0.8*34

5:38:45:409 Nachm. 03/26/17 - $GNGSA,A,2,02,12,14,19,24,25,29,31,32,,,,1.2,0.9,0.8*2A

5:38:45:409 Nachm. 03/26/17 - $GNGSA,A,2,73,,,,,,,,,,,,1.2,0.9,0.8*2B


