5:34:48:385 Nachm. 03/26/17 - $GPGSV,3,1,12,06,26,061,16,12,70,064,26,14,30,300,24,24,39,147,14*70

5:34:48:387 Nachm. 03/26/17 - $GPGSV,3,2,12,25,58,274,22,31,12,306,15,32,35,271,18,02,29,108,*7A

5:34:48:387 Nachm. 03/26/17 - $GPGSV,3,3,12,03,02,357,,19,13,043,,22,,,,29,22,206,*48

5:34:48:388 Nachm. 03/26/17 - $GLGSV,3,1,09,82,66,102,18,73,52,312,15,83,29,178,18,81,30,035,23*63

5:34:48:388 Nachm. 03/26/17 - $GLGSV,3,2,09,72,18,326,22,80,69,090,,79,11,113,,65,03,011,*65

5:34:48:389 Nachm. 03/26/17 - $GLGSV,3,3,09,71,14,275,*5F

5:34:48:389 Nachm. 03/26/17 - $GPGGA,,,,,,0,,,,,,,,*66

5:34:48:396 Nachm. 03/26/17 - $GNGNS,,,,,,NN,,,,,,*53

5:34:48:402 Nachm. 03/26/17 - $GPVTG,,T,,M,,N,,K,N*2C

5:34:48:403 Nachm. 03/26/17 - $GPRMC,,V,,,,,,,,,,N*53

5:34:48:403 Nachm. 03/26/17 - $GPGSA,A,1,,,,,,,,,,,,,,,*1E

5:34:48:404 Nachm. 03/26/17 - $GNGSA,A,1,,,,,,,,,,,,,,,*00

5:34:49:384 Nachm. 03/26/17 - $GPGSV,3,1,12,06,26,061,15,12,70,064,26,14,30,300,24,24,39,147,14*73

5:34:49:386 Nachm. 03/26/17 - $GPGSV,3,2,12,25,58,274,29,31,12,306,14,32,35,271,18,02,29,108,*70

5:34:49:389 Nachm. 03/26/17 - $GPGSV,3,3,12,03,02,357,,19,13,043,,22,,,,29,22,206,*48

5:34:49:390 Nachm. 03/26/17 - $GLGSV,3,1,09,82,66,102,14,73,52,312,22,83,29,178,18,81,30,035,23*6B

5:34:49:391 Nachm. 03/26/17 - $GLGSV,3,2,09,71,14,275,24,72,18,326,22,80,69,090,,79,11,113,*60

5:34:49:397 Nachm. 03/26/17 - $GLGSV,3,3,09,65,03,011,*5C

5:34:49:397 Nachm. 03/26/17 - $GPGGA,,,,,,0,,,,,,,,*66

5:34:49:398 Nachm. 03/26/17 - $GNGNS,,,,,,NN,,,,,,*53

5:34:49:398 Nachm. 03/26/17 - $GPVTG,,T,,M,,N,,K,N*2C

5:34:49:398 Nachm. 03/26/17 - $GPRMC,,V,,,,,,,,,,N*53

5:34:49:399 Nachm. 03/26/17 - $GPGSA,A,1,,,,,,,,,,,,,,,*1E

5:34:49:408 Nachm. 03/26/17 - $GNGSA,A,1,,,,,,,,,,,,,,,*00

5:34:50:385 Nachm. 03/26/17 - $GPGSV,3,1,12,06,26,061,15,12,70,064,24,14,30,300,20,24,39,147,14*75

5:34:50:386 Nachm. 03/26/17 - $GPGSV,3,2,12,25,58,274,33,31,12,306,15,32,35,271,22,02,29,108,*73

5:34:50:386 Nachm. 03/26/17 - $GPGSV,3,3,12,03,02,357,,19,13,043,,22,,,,29,22,206,*48

5:34:50:386 Nachm. 03/26/17 - $GLGSV,3,1,09,82,66,102,14,73,52,312,20,80,69,090,13,83,29,178,13*63

5:34:50:389 Nachm. 03/26/17 - $GLGSV,3,2,09,81,30,035,12,71,14,275,22,72,18,326,22,79,11,113,*67

5:34:50:394 Nachm. 03/26/17 - $GLGSV,3,3,09,65,03,011,*5C

5:34:50:394 Nachm. 03/26/17 - $GPGGA,,,,,,0,,,,,,,,*66

5:34:50:395 Nachm. 03/26/17 - $GNGNS,,,,,,NN,,,,,,*53

5:34:50:395 Nachm. 03/26/17 - $GPVTG,,T,,M,,N,,K,N*2C

5:34:50:395 Nachm. 03/26/17 - $GPRMC,,V,,,,,,,,,,N*53

5:34:50:395 Nachm. 03/26/17 - $GPGSA,A,1,,,,,,,,,,,,,,,*1E

5:34:50:396 Nachm. 03/26/17 - $GNGSA,A,1,,,,,,,,,,,,,,,*00

5:34:51:387 Nachm. 03/26/17 - $GPGSV,3,1,12,06,26,061,15,12,70,064,21,14,30,300,16,24,39,147,14*75

5:34:51:392 Nachm. 03/26/17 - $GPGSV,3,2,12,25,58,274,34,31,12,306,15,32,35,271,28,02,29,108,*7E

5:34:51:394 Nachm. 03/26/17 - $GPGSV,3,3,12,03,02,357,,19,13,043,,22,,,,29,22,206,*48

5:34:51:397 Nachm. 03/26/17 - $GLGSV,3,1,09,82,66,102,14,73,52,312,24,80,69,090,13,83,29,178,13*67

5:34:51:399 Nachm. 03/26/17 - $GLGSV,3,2,09,81,30,035,12,71,14,275,23,72,18,326,22,79,11,113,*66

5:34:51:411 Nachm. 03/26/17 - $GLGSV,3,3,09,65,03,011,*5C

5:34:51:412 Nachm. 03/26/17 - $GPGGA,153448.0,5208.398362,N,01138.459397,E,1,06,1.3,33.0,M,45.0,M,,*62

5:34:51:412 Nachm. 03/26/17 - $GNGNS,153448.0,5208.398362,N,01138.459397,E,AN,06,1.3,33.0,45.0,,*59

5:34:51:413 Nachm. 03/26/17 - $GPVTG,118.0,T,117.6,M,0.0,N,0.0,K,A*2A

5:34:51:415 Nachm. 03/26/17 - $GPRMC,153448.0,A,5208.398362,N,01138.459397,E,0.0,118.0,260317,0.4,E,A*03

5:34:51:415 Nachm. 03/26/17 - $GPGSA,A,2,06,12,14,24,25,32,,,,,,,1.6,1.3,0.9*3F

5:34:51:416 Nachm. 03/26/17 - $GNGSA,A,2,06,12,14,24,25,32,,,,,,,1.6,1.3,0.9*21

5:34:51:417 Nachm. 03/26/17 - $GNGSA,A,2,,,,,,,,,,,,,1.6,1.3,0.9*21

5:34:52:389 Nachm. 03/26/17 - $GPGSV,3,1,12,06,26,061,14,12,70,064,21,14,30,300,19,24,39,147,13*7C

5:34:52:393 Nachm. 03/26/17 - $GPGSV,3,2,12,25,58,274,32,31,12,306,16,32,35,271,31,02,29,108,*73

5:34:52:397 Nachm. 03/26/17 - $GPGSV,3,3,12,03,02,357,,19,13,043,,22,,,,29,22,206,*48

5:34:52:398 Nachm. 03/26/17 - $GLGSV,3,1,09,82,66,102,14,73,52,312,27,80,69,090,13,83,29,178,13*64

5:34:52:400 Nachm. 03/26/17 - $GLGSV,3,2,09,81,30,035,12,71,14,275,20,72,18,326,22,79,11,113,*65

5:34:52:402 Nachm. 03/26/17 - $GLGSV,3,3,09,65,03,011,*5C

5:34:52:403 Nachm. 03/26/17 - $GPGGA,153449.0,5208.398980,N,01138.458328,E,1,06,1.3,38.6,M,45.0,M,,*6D

5:34:52:405 Nachm. 03/26/17 - $GNGNS,153449.0,5208.398980,N,01138.458328,E,AN,06,1.3,38.6,45.0,,*56

5:34:52:410 Nachm. 03/26/17 - $GPVTG,118.0,T,117.6,M,0.0,N,0.0,K,A*2A

5:34:52:413 Nachm. 03/26/17 - $GPRMC,153449.0,A,5208.398980,N,01138.458328,E,0.0,118.0,260317,0.4,E,A*01

5:34:52:414 Nachm. 03/26/17 - $GPGSA,A,2,06,12,14,24,25,32,,,,,,,1.6,1.3,0.9*3F

5:34:52:414 Nachm. 03/26/17 - $GNGSA,A,2,06,12,14,24,25,32,,,,,,,1.6,1.3,0.9*21

5:34:52:415 Nachm. 03/26/17 - $GNGSA,A,2,,,,,,,,,,,,,1.6,1.3,0.9*21

5:34:53:391 Nachm. 03/26/17 - $GPGSV,3,1,12,06,26,061,14,12,70,064,22,14,30,300,23,24,39,147,13*76

5:34:53:392 Nachm. 03/26/17 - $GPGSV,3,2,12,25,58,274,31,31,12,306,19,32,35,271,31,02,29,108,*7F

5:34:53:393 Nachm. 03/26/17 - $GPGSV,3,3,12,03,02,357,,19,13,043,,22,,,,29,22,206,*48

5:34:53:400 Nachm. 03/26/17 - $GLGSV,3,1,09,82,66,102,14,73,52,312,26,80,69,090,13,83,29,178,15*63

5:34:53:401 Nachm. 03/26/17 - $GLGSV,3,2,09,81,30,035,12,71,14,275,18,72,18,326,22,79,11,113,*6E

5:34:53:402 Nachm. 03/26/17 - $GLGSV,3,3,09,65,03,011,*5C

5:34:53:404 Nachm. 03/26/17 - $GPGGA,153450.0,5208.398783,N,01138.457088,E,1,06,1.3,43.9,M,45.0,M,,*6D

5:34:53:409 Nachm. 03/26/17 - $GNGNS,153450.0,5208.398783,N,01138.457088,E,AN,06,1.3,43.9,45.0,,*56

5:34:53:411 Nachm. 03/26/17 - $GPVTG,118.0,T,117.6,M,0.0,N,0.0,K,A*2A

5:34:53:411 Nachm. 03/26/17 - $GPRMC,153450.0,A,5208.398783,N,01138.457088,E,0.0,118.0,260317,0.4,E,A*02

5:34:53:411 Nachm. 03/26/17 - $GPGSA,A,2,06,12,14,24,25,32,,,,,,,1.6,1.3,0.9*3F

5:34:53:415 Nachm. 03/26/17 - $GNGSA,A,2,06,12,14,24,25,32,,,,,,,1.6,1.3,0.9*21

5:34:53:415 Nachm. 03/26/17 - $GNGSA,A,2,,,,,,,,,,,,,1.6,1.3,0.9*21

5:34:54:387 Nachm. 03/26/17 - $GPGSV,3,1,12,02,29,108,18,06,26,061,14,12,70,064,22,14,30,300,21*71

5:34:54:388 Nachm. 03/26/17 - $GPGSV,3,2,12,24,39,147,13,25,58,274,32,31,12,306,21,32,35,271,32*78

5:34:54:391 Nachm. 03/26/17 - $GPGSV,3,3,12,03,02,357,,19,13,043,,22,,,,29,22,206,*48

5:34:54:392 Nachm. 03/26/17 - $GLGSV,3,1,09,82,66,102,15,73,52,312,26,80,69,090,13,83,29,178,17*60

5:34:54:393 Nachm. 03/26/17 - $GLGSV,3,2,09,81,30,035,12,71,14,275,17,72,18,326,11,79,11,113,*61

5:34:54:395 Nachm. 03/26/17 - $GLGSV,3,3,09,65,03,011,*5C

5:34:54:396 Nachm. 03/26/17 - $GPGGA,153451.0,5208.400061,N,01138.456318,E,1,07,1.3,47.1,M,45.0,M,,*67

5:34:54:404 Nachm. 03/26/17 - $GNGNS,153451.0,5208.400061,N,01138.456318,E,AN,07,1.3,47.1,45.0,,*5C

5:34:54:406 Nachm. 03/26/17 - $GPVTG,118.0,T,117.6,M,0.0,N,0.0,K,A*2A

5:34:54:411 Nachm. 03/26/17 - $GPRMC,153451.0,A,5208.400061,N,01138.456318,E,0.0,118.0,260317,0.4,E,A*05

5:34:54:412 Nachm. 03/26/17 - $GPGSA,A,2,02,06,12,14,24,25,32,,,,,,1.6,1.3,0.9*3D

5:34:54:413 Nachm. 03/26/17 - $GNGSA,A,2,02,06,12,14,24,25,32,,,,,,1.6,1.3,0.9*23

5:34:54:413 Nachm. 03/26/17 - $GNGSA,A,2,,,,,,,,,,,,,1.6,1.3,0.9*21

5:34:55:388 Nachm. 03/26/17 - $GPGSV,3,1,12,02,29,108,18,06,26,061,14,12,70,064,23,14,30,300,19*7B

5:34:55:389 Nachm. 03/26/17 - $GPGSV,3,2,12,24,39,147,13,25,58,274,31,31,12,306,20,32,35,271,31*79

5:34:55:392 Nachm. 03/26/17 - $GPGSV,3,3,12,03,02,357,,19,13,043,,22,,,,29,22,206,*48

5:34:55:393 Nachm. 03/26/17 - $GLGSV,3,1,09,82,66,102,15,73,52,312,24,80,69,090,13,83,29,178,19*6C

5:34:55:394 Nachm. 03/26/17 - $GLGSV,3,2,09,81,30,035,12,71,14,275,18,72,18,326,11,79,11,113,*6E

5:34:55:395 Nachm. 03/26/17 - $GLGSV,3,3,09,65,03,011,*5C

5:34:55:396 Nachm. 03/26/17 - $GPGGA,153452.0,5208.401179,N,01138.455437,E,1,07,1.3,51.1,M,45.0,M,,*63

5:34:55:404 Nachm. 03/26/17 - $GNGNS,153452.0,5208.401179,N,01138.455437,E,AN,07,1.3,51.1,45.0,,*58

5:34:55:405 Nachm. 03/26/17 - $GPVTG,118.0,T,117.6,M,0.0,N,0.0,K,A*2A

5:34:55:410 Nachm. 03/26/17 - $GPRMC,153452.0,A,5208.401179,N,01138.455437,E,0.0,118.0,260317,0.4,E,A*06

5:34:55:412 Nachm. 03/26/17 - $GPGSA,A,2,02,06,12,14,24,25,32,,,,,,1.6,1.3,0.9*3D

5:34:55:412 Nachm. 03/26/17 - $GNGSA,A,2,02,06,12,14,24,25,32,,,,,,1.6,1.3,0.9*23

5:34:55:413 Nachm. 03/26/17 - $GNGSA,A,2,,,,,,,,,,,,,1.6,1.3,0.9*21

5:34:56:387 Nachm. 03/26/17 - $GPGSV,3,1,12,02,29,108,18,06,26,061,14,12,70,064,22,14,30,300,18*7B

5:34:56:390 Nachm. 03/26/17 - $GPGSV,3,2,12,24,39,147,13,25,58,274,30,31,12,306,18,32,35,271,31*73

5:34:56:391 Nachm. 03/26/17 - $GPGSV,3,3,12,03,02,357,,19,13,043,,22,,,,29,22,206,*48

5:34:56:392 Nachm. 03/26/17 - $GLGSV,3,1,09,82,66,102,15,73,52,312,23,80,69,090,13,83,29,178,19*6B

5:34:56:401 Nachm. 03/26/17 - $GLGSV,3,2,09,81,30,035,12,71,14,275,18,72,18,326,15,79,11,113,*6A

5:34:56:403 Nachm. 03/26/17 - $GLGSV,3,3,09,65,03,011,*5C

5:34:56:404 Nachm. 03/26/17 - $GPGGA,153453.0,5208.401892,N,01138.454787,E,1,07,1.3,53.7,M,45.0,M,,*63

5:34:56:406 Nachm. 03/26/17 - $GNGNS,153453.0,5208.401892,N,01138.454787,E,AN,07,1.3,53.7,45.0,,*58

5:34:56:407 Nachm. 03/26/17 - $GPVTG,118.0,T,117.6,M,0.0,N,0.0,K,A*2A

5:34:56:407 Nachm. 03/26/17 - $GPRMC,153453.0,A,5208.401892,N,01138.454787,E,0.0,118.0,260317,0.4,E,A*02

5:34:56:407 Nachm. 03/26/17 - $GPGSA,A,2,02,06,12,14,24,25,32,,,,,,1.6,1.3,0.9*3D

5:34:56:407 Nachm. 03/26/17 - $GNGSA,A,2,02,06,12,14,24,25,32,,,,,,1.6,1.3,0.9*23

5:34:56:408 Nachm. 03/26/17 - $GNGSA,A,2,,,,,,,,,,,,,1.6,1.3,0.9*21

5:34:57:388 Nachm. 03/26/17 - $GPGSV,3,1,12,02,29,108,18,06,26,061,14,12,70,064,21,14,30,300,19*79

5:34:57:389 Nachm. 03/26/17 - $GPGSV,3,2,12,24,39,147,13,25,58,274,31,31,12,306,20,32,35,271,31*79

5:34:57:391 Nachm. 03/26/17 - $GPGSV,3,3,12,03,02,357,,19,13,043,,22,,,,29,22,206,*48

5:34:57:394 Nachm. 03/26/17 - $GLGSV,3,1,09,82,66,102,15,73,52,312,24,80,69,090,13,83,29,178,16*63

5:34:57:404 Nachm. 03/26/17 - $GLGSV,3,2,09,81,30,035,12,71,14,275,19,72,18,326,15,79,11,113,*6B

5:34:57:407 Nachm. 03/26/17 - $GLGSV,3,3,09,65,03,011,*5C

5:34:57:407 Nachm. 03/26/17 - $GPGGA,153454.0,5208.401930,N,01138.454513,E,1,07,1.3,54.5,M,45.0,M,,*67

5:34:57:407 Nachm. 03/26/17 - $GNGNS,153454.0,5208.401930,N,01138.454513,E,AN,07,1.3,54.5,45.0,,*5C

5:34:57:407 Nachm. 03/26/17 - $GPVTG,118.0,T,117.6,M,0.0,N,0.0,K,A*2A

5:34:57:408 Nachm. 03/26/17 - $GPRMC,153454.0,A,5208.401930,N,01138.454513,E,0.0,118.0,260317,0.4,E,A*03

5:34:57:408 Nachm. 03/26/17 - $GPGSA,A,2,02,06,12,14,24,25,32,,,,,,1.6,1.3,0.9*3D

5:34:57:408 Nachm. 03/26/17 - $GNGSA,A,2,02,06,12,14,24,25,32,,,,,,1.6,1.3,0.9*23

5:34:57:408 Nachm. 03/26/17 - $GNGSA,A,2,,,,,,,,,,,,,1.6,1.3,0.9*21

5:34:58:386 Nachm. 03/26/17 - $GPGSV,3,1,12,02,29,108,18,06,26,061,14,12,70,064,20,14,30,300,17*76

5:34:58:387 Nachm. 03/26/17 - $GPGSV,3,2,12,19,13,043,14,24,39,147,13,25,58,274,31,31,12,306,21*71

5:34:58:387 Nachm. 03/26/17 - $GPGSV,3,3,12,32,35,271,31,03,02,357,,22,,,,29,22,206,*44

5:34:58:388 Nachm. 03/26/17 - $GLGSV,3,1,09,82,66,102,15,73,52,312,24,80,69,090,12,83,29,178,16*62

5:34:58:389 Nachm. 03/26/17 - $GLGSV,3,2,09,81,30,035,12,71,14,275,22,72,18,326,15,79,11,113,*63

5:34:58:389 Nachm. 03/26/17 - $GLGSV,3,3,09,65,03,011,*5C

5:34:58:389 Nachm. 03/26/17 - $GPGGA,153455.0,5208.402119,N,01138.454386,E,1,08,1.1,55.1,M,45.0,M,,*64

5:34:58:390 Nachm. 03/26/17 - $GNGNS,153455.0,5208.402119,N,01138.454386,E,AN,08,1.1,55.1,45.0,,*5F

5:34:58:391 Nachm. 03/26/17 - $GPVTG,118.0,T,117.6,M,0.0,N,0.0,K,A*2A

5:34:58:392 Nachm. 03/26/17 - $GPRMC,153455.0,A,5208.402119,N,01138.454386,E,0.0,118.0,260317,0.4,E,A*08

5:34:58:392 Nachm. 03/26/17 - $GPGSA,A,2,02,06,12,14,19,24,25,32,,,,,1.4,1.1,0.9*35

5:34:58:396 Nachm. 03/26/17 - $GNGSA,A,2,02,06,12,14,19,24,25,32,,,,,1.4,1.1,0.9*2B

5:34:58:397 Nachm. 03/26/17 - $GNGSA,A,2,,,,,,,,,,,,,1.4,1.1,0.9*21

5:34:59:385 Nachm. 03/26/17 - $GPGSV,3,1,12,02,29,108,18,06,26,061,14,12,70,064,18,14,30,300,16*7C

5:34:59:385 Nachm. 03/26/17 - $GPGSV,3,2,12,19,13,043,14,24,39,147,13,25,58,274,31,31,12,306,20*70

5:34:59:385 Nachm. 03/26/17 - $GPGSV,3,3,12,32,35,271,31,03,02,357,,22,,,,29,22,206,*44

5:34:59:387 Nachm. 03/26/17 - $GLGSV,3,1,09,82,66,102,15,73,52,312,24,80,69,090,12,83,29,178,16*62

5:34:59:387 Nachm. 03/26/17 - $GLGSV,3,2,09,81,30,035,11,71,14,275,19,72,18,326,17,79,11,113,*6A

5:34:59:387 Nachm. 03/26/17 - $GLGSV,3,3,09,65,03,011,*5C

5:34:59:388 Nachm. 03/26/17 - $GPGGA,153456.0,5208.402192,N,01138.454336,E,1,08,1.1,55.3,M,45.0,M,,*6D

5:34:59:388 Nachm. 03/26/17 - $GNGNS,153456.0,5208.402192,N,01138.454336,E,AN,08,1.1,55.3,45.0,,*56

5:34:59:390 Nachm. 03/26/17 - $GPVTG,118.0,T,117.6,M,0.0,N,0.0,K,A*2A

5:34:59:390 Nachm. 03/26/17 - $GPRMC,153456.0,A,5208.402192,N,01138.454336,E,0.0,118.0,260317,0.4,E,A*03

5:34:59:390 Nachm. 03/26/17 - $GPGSA,A,2,02,06,12,14,19,24,25,32,,,,,1.4,1.1,0.9*35

5:34:59:397 Nachm. 03/26/17 - $GNGSA,A,2,02,06,12,14,19,24,25,32,,,,,1.4,1.1,0.9*2B

5:34:59:397 Nachm. 03/26/17 - $GNGSA,A,2,,,,,,,,,,,,,1.4,1.1,0.9*21

5:35:00:386 Nachm. 03/26/17 - $GPGSV,3,1,12,02,29,108,17,06,26,061,14,12,70,064,20,14,30,300,18*76

5:35:00:387 Nachm. 03/26/17 - $GPGSV,3,2,12,19,13,043,13,24,39,147,13,25,58,274,31,31,12,306,19*7D

5:35:00:388 Nachm. 03/26/17 - $GPGSV,3,3,12,32,35,271,31,03,02,357,,22,,,,29,22,206,*44

5:35:00:394 Nachm. 03/26/17 - $GLGSV,3,1,09,82,66,102,15,73,52,312,24,80,69,090,12,83,29,178,18*6C

5:35:00:403 Nachm. 03/26/17 - $GLGSV,3,2,09,81,30,035,16,71,14,275,19,72,18,326,16,79,11,113,*6C

5:35:00:405 Nachm. 03/26/17 - $GLGSV,3,3,09,65,03,011,*5C

5:35:00:407 Nachm. 03/26/17 - $GPGGA,153457.0,5208.402224,N,01138.454318,E,1,06,1.5,55.3,M,45.0,M,,*64

5:35:00:410 Nachm. 03/26/17 - $GNGNS,153457.0,5208.402224,N,01138.454318,E,AN,06,1.5,55.3,45.0,,*5F

5:35:00:411 Nachm. 03/26/17 - $GPVTG,118.0,T,117.6,M,0.0,N,0.0,K,A*2A

5:35:00:411 Nachm. 03/26/17 - $GPRMC,153457.0,A,5208.402224,N,01138.454318,E,0.0,118.0,260317,0.4,E,A*00

5:35:00:412 Nachm. 03/26/17 - $GPGSA,A,2,02,12,14,19,25,32,,,,,,,1.7,1.5,0.9*32

5:35:00:412 Nachm. 03/26/17 - $GNGSA,A,2,02,12,14,19,25,32,,,,,,,1.7,1.5,0.9*2C

5:35:00:412 Nachm. 03/26/17 - $GNGSA,A,2,,,,,,,,,,,,,1.7,1.5,0.9*26

5:35:01:388 Nachm. 03/26/17 - $GPGSV,3,1,12,02,29,108,17,06,26,061,14,12,70,064,20,14,30,300,18*76

5:35:01:389 Nachm. 03/26/17 - $GPGSV,3,2,12,19,13,043,13,24,39,147,13,25,58,274,32,31,12,306,20*74

5:35:01:389 Nachm. 03/26/17 - $GPGSV,3,3,12,32,35,271,31,03,02,357,,22,,,,29,22,206,*44

5:35:01:390 Nachm. 03/26/17 - $GLGSV,3,1,09,82,66,102,15,73,52,312,26,80,69,090,12,83,29,178,18*6E

5:35:01:398 Nachm. 03/26/17 - $GLGSV,3,2,09,81,30,035,21,71,14,275,21,72,18,326,18,79,11,113,*6D

5:35:01:399 Nachm. 03/26/17 - $GLGSV,3,3,09,65,03,011,*5C

5:35:01:409 Nachm. 03/26/17 - $GPGGA,153458.0,5208.402251,N,01138.454293,E,1,06,1.5,55.4,M,45.0,M,,*6C

5:35:01:409 Nachm. 03/26/17 - $GNGNS,153458.0,5208.402251,N,01138.454293,E,AN,06,1.5,55.4,45.0,,*57

5:35:01:410 Nachm. 03/26/17 - $GPVTG,118.0,T,117.6,M,0.0,N,0.0,K,A*2A

5:35:01:410 Nachm. 03/26/17 - $GPRMC,153458.0,A,5208.402251,N,01138.454293,E,0.0,118.0,260317,0.4,E,A*0F

5:35:01:411 Nachm. 03/26/17 - $GPGSA,A,2,02,12,14,19,25,32,,,,,,,1.7,1.5,0.9*32

5:35:01:411 Nachm. 03/26/17 - $GNGSA,A,2,02,12,14,19,25,32,,,,,,,1.7,1.5,0.9*2C

5:35:01:412 Nachm. 03/26/17 - $GNGSA,A,2,,,,,,,,,,,,,1.7,1.5,0.9*26

5:35:02:387 Nachm. 03/26/17 - $GPGSV,3,1,12,02,29,108,17,06,26,061,14,12,70,064,22,14,30,300,17*7B

5:35:02:388 Nachm. 03/26/17 - $GPGSV,3,2,12,19,13,043,13,24,39,147,13,25,58,274,33,31,12,306,20*75

5:35:02:389 Nachm. 03/26/17 - $GPGSV,3,3,12,32,35,271,32,03,02,357,,22,,,,29,22,206,*47

5:35:02:392 Nachm. 03/26/17 - $GLGSV,3,1,09,82,66,102,15,73,52,312,27,80,69,090,12,83,29,178,14*63

5:35:02:413 Nachm. 03/26/17 - $GLGSV,3,2,09,81,30,035,22,71,14,275,20,72,18,326,19,79,11,113,*6E

5:35:02:415 Nachm. 03/26/17 - $GLGSV,3,3,09,65,03,011,*5C

5:35:02:417 Nachm. 03/26/17 - $GPGGA,153459.0,5208.402277,N,01138.454268,E,1,06,1.5,55.5,M,45.0,M,,*6C

5:35:02:417 Nachm. 03/26/17 - $GNGNS,153459.0,5208.402277,N,01138.454268,E,AN,06,1.5,55.5,45.0,,*57

5:35:02:425 Nachm. 03/26/17 - $GPVTG,118.0,T,117.6,M,0.0,N,0.0,K,A*2A

5:35:02:425 Nachm. 03/26/17 - $GPRMC,153459.0,A,5208.402277,N,01138.454268,E,0.0,118.0,260317,0.4,E,A*0E

5:35:02:426 Nachm. 03/26/17 - $GPGSA,A,2,02,12,14,19,25,32,,,,,,,1.7,1.5,0.9*32

5:35:02:426 Nachm. 03/26/17 - $GNGSA,A,2,02,12,14,19,25,32,,,,,,,1.7,1.5,0.9*2C

5:35:02:427 Nachm. 03/26/17 - $GNGSA,A,2,,,,,,,,,,,,,1.7,1.5,0.9*26

5:35:03:386 Nachm. 03/26/17 - $GPGSV,3,1,12,02,29,108,17,06,26,061,14,12,70,064,23,14,30,300,19*74

5:35:03:391 Nachm. 03/26/17 - $GPGSV,3,2,12,19,13,043,13,24,39,147,13,25,58,274,32,31,12,306,19*7E

5:35:03:393 Nachm. 03/26/17 - $GPGSV,3,3,12,32,35,271,31,03,02,357,,22,,,,29,22,206,*44

5:35:03:393 Nachm. 03/26/17 - $GLGSV,3,1,09,82,66,102,15,73,52,312,27,80,69,090,13,83,29,178,14*62

5:35:03:403 Nachm. 03/26/17 - $GLGSV,3,2,09,81,30,035,18,71,14,275,21,72,18,326,17,79,11,113,*68

5:35:03:404 Nachm. 03/26/17 - $GLGSV,3,3,09,65,03,011,*5C

5:35:03:404 Nachm. 03/26/17 - $GPGGA,153500.0,5208.402336,N,01138.454244,E,1,06,1.5,55.6,M,45.0,M,,*68

5:35:03:417 Nachm. 03/26/17 - $GNGNS,153500.0,5208.402336,N,01138.454244,E,AN,06,1.5,55.6,45.0,,*53

5:35:03:417 Nachm. 03/26/17 - $GPVTG,118.0,T,117.6,M,0.0,N,0.0,K,A*2A

5:35:03:417 Nachm. 03/26/17 - $GPRMC,153500.0,A,5208.402336,N,01138.454244,E,0.0,118.0,260317,0.4,E,A*09

5:35:03:418 Nachm. 03/26/17 - $GPGSA,A,2,02,12,14,19,25,32,,,,,,,1.7,1.5,0.9*32

5:35:03:418 Nachm. 03/26/17 - $GNGSA,A,2,02,12,14,19,25,32,,,,,,,1.7,1.5,0.9*2C

5:35:03:419 Nachm. 03/26/17 - $GNGSA,A,2,,,,,,,,,,,,,1.7,1.5,0.9*26

5:35:04:386 Nachm. 03/26/17 - $GPGSV,3,1,12,02,29,108,17,06,26,061,14,12,70,064,23,14,30,300,17*7A

5:35:04:387 Nachm. 03/26/17 - $GPGSV,3,2,12,19,13,043,13,24,39,147,13,25,58,274,32,31,12,306,19*7E

5:35:04:388 Nachm. 03/26/17 - $GPGSV,3,3,12,32,35,271,30,03,02,357,,22,,,,29,22,206,*45

5:35:04:389 Nachm. 03/26/17 - $GLGSV,3,1,09,82,66,102,15,73,52,312,26,80,69,090,13,83,29,178,14*63

5:35:04:389 Nachm. 03/26/17 - $GLGSV,3,2,09,81,30,035,21,71,14,275,22,72,18,326,18,79,11,113,*6E

5:35:04:389 Nachm. 03/26/17 - $GLGSV,3,3,09,65,03,011,*5C

5:35:04:389 Nachm. 03/26/17 - $GPGGA,153501.0,5208.402357,N,01138.454234,E,1,06,1.5,55.6,M,45.0,M,,*69

5:35:04:390 Nachm. 03/26/17 - $GNGNS,153501.0,5208.402357,N,01138.454234,E,AN,06,1.5,55.6,45.0,,*52

5:35:04:393 Nachm. 03/26/17 - $GPVTG,118.0,T,117.6,M,0.0,N,0.0,K,A*2A

5:35:04:395 Nachm. 03/26/17 - $GPRMC,153501.0,A,5208.402357,N,01138.454234,E,0.0,118.0,260317,0.4,E,A*08

5:35:04:395 Nachm. 03/26/17 - $GPGSA,A,2,02,12,14,19,25,32,,,,,,,1.7,1.5,0.9*32

5:35:04:396 Nachm. 03/26/17 - $GNGSA,A,2,02,12,14,19,25,32,,,,,,,1.7,1.5,0.9*2C

5:35:04:396 Nachm. 03/26/17 - $GNGSA,A,2,,,,,,,,,,,,,1.7,1.5,0.9*26

5:35:05:388 Nachm. 03/26/17 - $GPGSV,3,1,12,02,29,108,17,06,26,061,14,12,70,064,23,14,30,300,17*7A

5:35:05:389 Nachm. 03/26/17 - $GPGSV,3,2,12,19,13,043,13,24,39,147,13,25,58,274,33,31,12,306,19*7F

5:35:05:390 Nachm. 03/26/17 - $GPGSV,3,3,12,32,35,271,31,03,02,357,,22,,,,29,22,206,*44

5:35:05:400 Nachm. 03/26/17 - $GLGSV,3,1,09,82,66,102,15,73,52,312,27,80,69,090,13,83,29,178,14*62

5:35:05:401 Nachm. 03/26/17 - $GLGSV,3,2,09,81,30,035,21,71,14,275,22,72,18,326,18,79,11,113,*6E

5:35:05:403 Nachm. 03/26/17 - $GLGSV,3,3,09,65,03,011,*5C

5:35:05:404 Nachm. 03/26/17 - $GPGGA,153502.0,5208.402425,N,01138.454177,E,1,06,1.5,55.8,M,45.0,M,,*62

5:35:05:405 Nachm. 03/26/17 - $GNGNS,153502.0,5208.402425,N,01138.454177,E,AN,06,1.5,55.8,45.0,,*59

5:35:05:408 Nachm. 03/26/17 - $GPVTG,118.0,T,117.6,M,0.0,N,0.0,K,A*2A

5:35:05:408 Nachm. 03/26/17 - $GPRMC,153502.0,A,5208.402425,N,01138.454177,E,0.0,118.0,260317,0.4,E,A*0D

5:35:05:408 Nachm. 03/26/17 - $GPGSA,A,2,02,12,14,19,25,32,,,,,,,1.7,1.5,0.9*32

5:35:05:408 Nachm. 03/26/17 - $GNGSA,A,2,02,12,14,19,25,32,,,,,,,1.7,1.5,0.9*2C

5:35:05:409 Nachm. 03/26/17 - $GNGSA,A,2,,,,,,,,,,,,,1.7,1.5,0.9*26

5:35:06:387 Nachm. 03/26/17 - $GPGSV,3,1,12,02,29,108,17,06,26,061,14,12,70,064,23,14,30,300,17*7A

5:35:06:387 Nachm. 03/26/17 - $GPGSV,3,2,12,19,13,043,13,24,39,147,13,25,58,274,33,31,12,306,18*7E

5:35:06:388 Nachm. 03/26/17 - $GPGSV,3,3,12,32,35,271,31,03,02,357,,22,,,,29,22,206,*44

5:35:06:388 Nachm. 03/26/17 - $GLGSV,3,1,09,82,66,102,7,73,52,312,29,80,69,090,13,83,29,178,13*58

5:35:06:390 Nachm. 03/26/17 - $GLGSV,3,2,09,81,30,035,22,71,14,275,21,72,18,326,20,79,11,113,*65

5:35:06:391 Nachm. 03/26/17 - $GLGSV,3,3,09,65,03,011,*5C

5:35:06:391 Nachm. 03/26/17 - $GPGGA,153503.0,5208.402437,N,01138.454176,E,1,06,1.5,55.8,M,45.0,M,,*61

5:35:06:391 Nachm. 03/26/17 - $GNGNS,153503.0,5208.402437,N,01138.454176,E,AN,06,1.5,55.8,45.0,,*5A

5:35:06:396 Nachm. 03/26/17 - $GPVTG,118.0,T,117.6,M,0.0,N,0.0,K,A*2A

5:35:06:397 Nachm. 03/26/17 - $GPRMC,153503.0,A,5208.402437,N,01138.454176,E,0.0,118.0,260317,0.4,E,A*0E

5:35:06:397 Nachm. 03/26/17 - $GPGSA,A,2,02,12,14,19,25,32,,,,,,,1.7,1.5,0.9*32

5:35:06:399 Nachm. 03/26/17 - $GNGSA,A,2,02,12,14,19,25,32,,,,,,,1.7,1.5,0.9*2C

5:35:06:400 Nachm. 03/26/17 - $GNGSA,A,2,,,,,,,,,,,,,1.7,1.5,0.9*26

5:35:07:388 Nachm. 03/26/17 - $GPGSV,3,1,12,02,29,108,17,06,26,061,14,12,70,064,25,14,30,300,17*7C

5:35:07:390 Nachm. 03/26/17 - $GPGSV,3,2,12,19,13,043,13,24,39,147,13,25,58,274,33,31,12,306,18*7E

5:35:07:392 Nachm. 03/26/17 - $GPGSV,3,3,12,32,35,271,31,03,02,357,,22,,,,29,22,206,*44

5:35:07:404 Nachm. 03/26/17 - $GLGSV,3,1,09,82,66,102,19,73,52,312,30,80,69,090,13,83,29,178,19*65

5:35:07:411 Nachm. 03/26/17 - $GLGSV,3,2,09,81,30,035,21,71,14,275,21,72,18,326,21,79,11,113,*67

5:35:07:411 Nachm. 03/26/17 - $GLGSV,3,3,09,65,03,011,*5C

5:35:07:412 Nachm. 03/26/17 - $GPGGA,153504.0,5208.402414,N,01138.454173,E,1,06,1.5,55.8,M,45.0,M,,*62

5:35:07:413 Nachm. 03/26/17 - $GNGNS,153504.0,5208.402414,N,01138.454173,E,AN,06,1.5,55.8,45.0,,*59

5:35:07:413 Nachm. 03/26/17 - $GPVTG,118.0,T,117.6,M,0.0,N,0.0,K,A*2A

5:35:07:414 Nachm. 03/26/17 - $GPRMC,153504.0,A,5208.402414,N,01138.454173,E,0.0,118.0,260317,0.4,E,A*0D

5:35:07:414 Nachm. 03/26/17 - $GPGSA,A,2,02,12,14,19,25,32,,,,,,,1.7,1.5,0.9*32

5:35:07:415 Nachm. 03/26/17 - $GNGSA,A,2,02,12,14,19,25,32,,,,,,,1.7,1.5,0.9*2C

5:35:07:415 Nachm. 03/26/17 - $GNGSA,A,2,,,,,,,,,,,,,1.7,1.5,0.9*26

5:35:08:385 Nachm. 03/26/17 - $GPGSV,3,1,12,02,29,108,17,06,26,061,15,12,70,064,25,14,30,300,17*7D

5:35:08:386 Nachm. 03/26/17 - $GPGSV,3,2,12,19,13,043,13,24,39,147,13,25,58,274,33,31,12,306,18*7E

5:35:08:388 Nachm. 03/26/17 - $GPGSV,3,3,12,32,35,271,31,03,02,357,,22,,,,29,22,206,*44

5:35:08:390 Nachm. 03/26/17 - $GLGSV,3,1,09,82,66,102,19,73,52,312,29,80,69,090,13,83,29,178,19*6D

5:35:08:390 Nachm. 03/26/17 - $GLGSV,3,2,09,81,30,035,23,71,14,275,20,72,18,326,20,79,11,113,*65

5:35:08:390 Nachm. 03/26/17 - $GLGSV,3,3,09,65,03,011,*5C

5:35:08:390 Nachm. 03/26/17 - $GPGGA,153505.0,5208.402551,N,01138.453622,E,1,07,1.4,57.4,M,45.0,M,,*69

5:35:08:390 Nachm. 03/26/17 - $GNGNS,153505.0,5208.402551,N,01138.453622,E,AN,07,1.4,57.4,45.0,,*52

5:35:08:391 Nachm. 03/26/17 - $GPVTG,118.0,T,117.6,M,0.0,N,0.0,K,A*2A

5:35:08:392 Nachm. 03/26/17 - $GPRMC,153505.0,A,5208.402551,N,01138.453622,E,0.0,118.0,260317,0.4,E,A*08

5:35:08:396 Nachm. 03/26/17 - $GPGSA,A,2,02,06,12,14,19,25,32,,,,,,1.7,1.4,0.9*35

5:35:08:397 Nachm. 03/26/17 - $GNGSA,A,2,02,06,12,14,19,25,32,,,,,,1.7,1.4,0.9*2B

5:35:08:397 Nachm. 03/26/17 - $GNGSA,A,2,,,,,,,,,,,,,1.7,1.4,0.9*27

5:35:09:387 Nachm. 03/26/17 - $GPGSV,3,1,12,02,29,108,17,06,26,061,15,12,70,064,25,14,30,300,17*7D

5:35:09:387 Nachm. 03/26/17 - $GPGSV,3,2,12,19,13,043,13,24,39,147,13,25,58,274,32,31,12,306,15*72

5:35:09:387 Nachm. 03/26/17 - $GPGSV,3,3,12,32,35,271,32,03,02,357,,22,,,,29,22,206,*47

5:35:09:392 Nachm. 03/26/17 - $GLGSV,3,1,09,82,66,102,19,73,52,312,30,80,69,090,13,83,29,178,19*65

5:35:09:392 Nachm. 03/26/17 - $GLGSV,3,2,09,81,30,035,23,71,14,275,20,72,18,326,20,79,11,113,*65

5:35:09:392 Nachm. 03/26/17 - $GLGSV,3,3,09,65,03,011,*5C

5:35:09:393 Nachm. 03/26/17 - $GPGGA,153506.0,5208.402548,N,01138.453612,E,1,06,1.8,57.4,M,45.0,M,,*6C

5:35:09:393 Nachm. 03/26/17 - $GNGNS,153506.0,5208.402548,N,01138.453612,E,AN,06,1.8,57.4,45.0,,*57

5:35:09:393 Nachm. 03/26/17 - $GPVTG,118.0,T,117.6,M,0.0,N,0.0,K,A*2A

5:35:09:393 Nachm. 03/26/17 - $GPRMC,153506.0,A,5208.402548,N,01138.453612,E,0.0,118.0,260317,0.4,E,A*00

5:35:09:393 Nachm. 03/26/17 - $GPGSA,A,2,02,06,12,14,25,32,,,,,,,2.0,1.8,0.9*35

5:35:09:394 Nachm. 03/26/17 - $GNGSA,A,2,02,06,12,14,25,32,,,,,,,2.0,1.8,0.9*2B

5:35:09:394 Nachm. 03/26/17 - $GNGSA,A,2,,,,,,,,,,,,,2.0,1.8,0.9*2F

5:35:10:385 Nachm. 03/26/17 - $GPGSV,3,1,12,02,29,108,17,06,26,061,17,12,70,064,24,14,30,300,17*7E

5:35:10:386 Nachm. 03/26/17 - $GPGSV,3,2,12,19,13,043,13,24,39,147,13,25,58,274,32,31,12,306,15*72

5:35:10:387 Nachm. 03/26/17 - $GPGSV,3,3,12,32,35,271,31,03,02,357,,22,,,,29,22,206,*44

5:35:10:390 Nachm. 03/26/17 - $GLGSV,3,1,09,82,66,102,16,73,52,312,29,80,69,090,13,83,29,178,19*62

5:35:10:391 Nachm. 03/26/17 - $GLGSV,3,2,09,81,30,035,22,71,14,275,18,72,18,326,19,79,11,113,*65

5:35:10:393 Nachm. 03/26/17 - $GLGSV,3,3,09,65,03,011,*5C

5:35:10:394 Nachm. 03/26/17 - $GPGGA,153507.0,5208.402630,N,01138.453212,E,1,06,1.8,58.6,M,45.0,M,,*68

5:35:10:405 Nachm. 03/26/17 - $GNGNS,153507.0,5208.402630,N,01138.453212,E,AN,06,1.8,58.6,45.0,,*53

5:35:10:407 Nachm. 03/26/17 - $GPVTG,118.0,T,117.6,M,0.0,N,0.0,K,A*2A

5:35:10:407 Nachm. 03/26/17 - $GPRMC,153507.0,A,5208.402630,N,01138.453212,E,0.0,118.0,260317,0.4,E,A*09

5:35:10:408 Nachm. 03/26/17 - $GPGSA,A,2,02,06,12,14,25,32,,,,,,,2.0,1.8,0.9*35

5:35:10:409 Nachm. 03/26/17 - $GNGSA,A,2,02,06,12,14,25,32,,,,,,,2.0,1.8,0.9*2B

5:35:10:409 Nachm. 03/26/17 - $GNGSA,A,2,,,,,,,,,,,,,2.0,1.8,0.9*2F

5:35:11:386 Nachm. 03/26/17 - $GPGSV,3,1,12,02,29,108,17,06,26,061,17,12,70,064,24,14,30,300,19*70

5:35:11:388 Nachm. 03/26/17 - $GPGSV,3,2,12,19,13,043,13,24,39,147,13,25,58,274,32,31,12,306,15*72

5:35:11:388 Nachm. 03/26/17 - $GPGSV,3,3,12,32,35,271,31,03,02,357,,22,,,,29,22,206,*44

5:35:11:391 Nachm. 03/26/17 - $GLGSV,3,1,09,82,66,102,16,73,52,312,28,80,69,090,13,83,29,178,19*63

5:35:11:393 Nachm. 03/26/17 - $GLGSV,3,2,09,81,30,035,22,71,14,275,18,72,18,326,18,79,11,113,*64

5:35:11:394 Nachm. 03/26/17 - $GLGSV,3,3,09,65,03,011,*5C

5:35:11:402 Nachm. 03/26/17 - $GPGGA,153508.0,5208.402271,N,01138.453332,E,1,06,1.7,58.1,M,45.0,M,,*6D

5:35:11:406 Nachm. 03/26/17 - $GNGNS,153508.0,5208.402271,N,01138.453332,E,AA,07,1.7,58.1,45.0,,*58

5:35:11:407 Nachm. 03/26/17 - $GPVTG,118.0,T,117.6,M,0.0,N,0.0,K,A*2A

5:35:11:407 Nachm. 03/26/17 - $GPRMC,153508.0,A,5208.402271,N,01138.453332,E,0.0,118.0,260317,0.4,E,A*04

5:35:11:407 Nachm. 03/26/17 - $GPGSA,A,2,02,06,12,14,25,32,,,,,,,2.0,1.7,0.9*3A

5:35:11:407 Nachm. 03/26/17 - $GNGSA,A,2,02,06,12,14,25,32,,,,,,,2.0,1.7,0.9*24

5:35:11:407 Nachm. 03/26/17 - $GNGSA,A,2,73,,,,,,,,,,,,2.0,1.7,0.9*24

5:35:12:384 Nachm. 03/26/17 - $GPGSV,3,1,12,02,29,108,17,06,26,061,17,12,70,064,24,14,30,300,18*71

5:35:12:384 Nachm. 03/26/17 - $GPGSV,3,2,12,19,13,043,13,25,58,274,31,31,12,306,15,32,35,271,31*7C

5:35:12:385 Nachm. 03/26/17 - $GPGSV,3,3,12,03,02,357,,22,,,,24,39,147,,29,22,206,*4B

5:35:12:386 Nachm. 03/26/17 - $GLGSV,3,1,09,82,66,102,16,73,52,312,28,80,69,090,13,83,29,178,17*6D

5:35:12:386 Nachm. 03/26/17 - $GLGSV,3,2,09,81,30,035,22,71,14,275,18,72,18,326,18,79,11,113,*64

5:35:12:386 Nachm. 03/26/17 - $GLGSV,3,3,09,65,03,011,*5C

5:35:12:386 Nachm. 03/26/17 - $GPGGA,153509.0,5208.402483,N,01138.452738,E,1,05,2.6,59.8,M,45.0,M,,*61

5:35:12:387 Nachm. 03/26/17 - $GNGNS,153509.0,5208.402483,N,01138.452738,E,AA,06,2.6,59.8,45.0,,*56

5:35:12:387 Nachm. 03/26/17 - $GPVTG,118.0,T,117.6,M,0.0,N,0.0,K,A*2A

5:35:12:387 Nachm. 03/26/17 - $GPRMC,153509.0,A,5208.402483,N,01138.452738,E,0.0,118.0,260317,0.4,E,A*01

5:35:12:387 Nachm. 03/26/17 - $GPGSA,A,2,06,12,14,25,32,,,,,,,,2.8,2.6,0.9*32

5:35:12:387 Nachm. 03/26/17 - $GNGSA,A,2,06,12,14,25,32,,,,,,,,2.8,2.6,0.9*2C

5:35:12:387 Nachm. 03/26/17 - $GNGSA,A,2,73,,,,,,,,,,,,2.8,2.6,0.9*2E


