5:28:17:388 Nachm. 03/26/17 - $GPGSV,4,1,13,12,73,060,18,24,42,146,20,25,55,272,15,32,35,275,17*72

5:28:17:388 Nachm. 03/26/17 - $GPGSV,4,2,13,02,27,111,,03,02,000,,06,26,064,,14,29,303,*74

5:28:17:389 Nachm. 03/26/17 - $GPGSV,4,3,13,17,,,,19,15,043,,22,00,338,,29,19,205,*4D

5:28:17:389 Nachm. 03/26/17 - $GPGSV,4,4,13,31,09,306,*45

5:28:17:395 Nachm. 03/26/17 - $GLGSV,3,1,09,82,64,111,10,80,71,080,12,81,33,036,17,71,16,278,14*60

5:28:17:396 Nachm. 03/26/17 - $GLGSV,3,2,09,72,18,330,12,73,48,309,,79,14,112,,65,01,012,*68

5:28:17:396 Nachm. 03/26/17 - $GLGSV,3,3,09,83,26,178,*5D

5:28:17:397 Nachm. 03/26/17 - $GPGGA,,,,,,0,,,,,,,,*66

5:28:17:397 Nachm. 03/26/17 - $GNGNS,,,,,,NN,,,,,,*53

5:28:17:397 Nachm. 03/26/17 - $GPVTG,,T,,M,,N,,K,N*2C

5:28:17:397 Nachm. 03/26/17 - $GPRMC,,V,,,,,,,,,,N*53

5:28:17:397 Nachm. 03/26/17 - $GPGSA,A,1,,,,,,,,,,,,,,,*1E

5:28:17:398 Nachm. 03/26/17 - $GNGSA,A,1,,,,,,,,,,,,,,,*00

5:28:18:388 Nachm. 03/26/17 - $GPGSV,4,1,13,12,73,060,18,24,42,146,16,25,55,272,15,32,35,275,17*77

5:28:18:389 Nachm. 03/26/17 - $GPGSV,4,2,13,02,27,111,,03,02,000,,06,26,064,,14,29,303,*74

5:28:18:392 Nachm. 03/26/17 - $GPGSV,4,3,13,17,,,,19,15,043,,22,00,338,,29,19,205,*4D

5:28:18:396 Nachm. 03/26/17 - $GPGSV,4,4,13,31,09,306,*45

5:28:18:400 Nachm. 03/26/17 - $GLGSV,3,1,09,82,64,111,19,80,71,080,12,81,33,036,17,71,16,278,14*69

5:28:18:403 Nachm. 03/26/17 - $GLGSV,3,2,09,72,18,330,12,73,48,309,,79,14,112,,65,01,012,*68

5:28:18:407 Nachm. 03/26/17 - $GLGSV,3,3,09,83,26,178,*5D

5:28:18:407 Nachm. 03/26/17 - $GPGGA,,,,,,0,,,,,,,,*66

5:28:18:407 Nachm. 03/26/17 - $GNGNS,,,,,,NN,,,,,,*53

5:28:18:408 Nachm. 03/26/17 - $GPVTG,,T,,M,,N,,K,N*2C

5:28:18:408 Nachm. 03/26/17 - $GPRMC,,V,,,,,,,,,,N*53

5:28:18:409 Nachm. 03/26/17 - $GPGSA,A,1,,,,,,,,,,,,,,,*1E

5:28:18:409 Nachm. 03/26/17 - $GNGSA,A,1,,,,,,,,,,,,,,,*00

5:28:19:388 Nachm. 03/26/17 - $GPGSV,4,1,13,12,73,060,18,24,42,146,16,25,55,272,17,32,35,275,18*7A

5:28:19:389 Nachm. 03/26/17 - $GPGSV,4,2,13,02,27,111,,03,02,000,,06,26,064,,14,29,303,*74

5:28:19:389 Nachm. 03/26/17 - $GPGSV,4,3,13,17,,,,19,15,043,,22,00,338,,29,19,205,*4D

5:28:19:389 Nachm. 03/26/17 - $GPGSV,4,4,13,31,09,306,*45

5:28:19:394 Nachm. 03/26/17 - $GLGSV,3,1,09,82,64,111,21,80,71,080,12,81,33,036,17,71,16,278,14*62

5:28:19:397 Nachm. 03/26/17 - $GLGSV,3,2,09,72,18,330,12,73,48,309,,79,14,112,,65,01,012,*68

5:28:19:399 Nachm. 03/26/17 - $GLGSV,3,3,09,83,26,178,*5D

5:28:19:399 Nachm. 03/26/17 - $GPGGA,,,,,,0,,,,,,,,*66

5:28:19:399 Nachm. 03/26/17 - $GNGNS,,,,,,NN,,,,,,*53

5:28:19:400 Nachm. 03/26/17 - $GPVTG,,T,,M,,N,,K,N*2C

5:28:19:400 Nachm. 03/26/17 - $GPRMC,,V,,,,,,,,,,N*53

5:28:19:401 Nachm. 03/26/17 - $GPGSA,A,1,,,,,,,,,,,,,,,*1E

5:28:19:402 Nachm. 03/26/17 - $GNGSA,A,1,,,,,,,,,,,,,,,*00

5:28:20:388 Nachm. 03/26/17 - $GPGSV,4,1,13,12,73,060,15,24,42,146,18,25,55,272,16,32,35,275,18*78

5:28:20:389 Nachm. 03/26/17 - $GPGSV,4,2,13,02,27,111,,03,02,000,,06,26,064,,14,29,303,*74

5:28:20:389 Nachm. 03/26/17 - $GPGSV,4,3,13,17,,,,19,15,043,,22,00,338,,29,19,205,*4D

5:28:20:389 Nachm. 03/26/17 - $GPGSV,4,4,13,31,09,306,*45

5:28:20:397 Nachm. 03/26/17 - $GLGSV,3,1,09,82,64,111,22,80,71,080,12,81,33,036,17,71,16,278,14*61

5:28:20:399 Nachm. 03/26/17 - $GLGSV,3,2,09,72,18,330,12,73,48,309,,79,14,112,,65,01,012,*68

5:28:20:400 Nachm. 03/26/17 - $GLGSV,3,3,09,83,26,178,*5D

5:28:20:400 Nachm. 03/26/17 - $GPGGA,,,,,,0,,,,,,,,*66

5:28:20:401 Nachm. 03/26/17 - $GNGNS,,,,,,NN,,,,,,*53

5:28:20:402 Nachm. 03/26/17 - $GPVTG,,T,,M,,N,,K,N*2C

5:28:20:402 Nachm. 03/26/17 - $GPRMC,,V,,,,,,,,,,N*53

5:28:20:404 Nachm. 03/26/17 - $GPGSA,A,1,,,,,,,,,,,,,,,*1E

5:28:20:404 Nachm. 03/26/17 - $GNGSA,A,1,,,,,,,,,,,,,,,*00

5:28:21:392 Nachm. 03/26/17 - $GPGSV,4,1,13,12,73,060,21,24,42,146,17,25,55,272,17,32,35,275,18*71

5:28:21:393 Nachm. 03/26/17 - $GPGSV,4,2,13,02,27,111,,03,02,000,,06,26,064,,14,29,303,*74

5:28:21:395 Nachm. 03/26/17 - $GPGSV,4,3,13,17,,,,19,15,043,,22,00,338,,29,19,205,*4D

5:28:21:399 Nachm. 03/26/17 - $GPGSV,4,4,13,31,09,306,*45

5:28:21:407 Nachm. 03/26/17 - $GLGSV,3,1,09,82,64,111,26,80,71,080,12,81,33,036,13,71,16,278,14*61

5:28:21:407 Nachm. 03/26/17 - $GLGSV,3,2,09,72,18,330,12,73,48,309,,79,14,112,,65,01,012,*68

5:28:21:408 Nachm. 03/26/17 - $GLGSV,3,3,09,83,26,178,*5D

5:28:21:408 Nachm. 03/26/17 - $GPGGA,,,,,,0,,,,,,,,*66

5:28:21:408 Nachm. 03/26/17 - $GNGNS,,,,,,NN,,,,,,*53

5:28:21:409 Nachm. 03/26/17 - $GPVTG,,T,,M,,N,,K,N*2C

5:28:21:409 Nachm. 03/26/17 - $GPRMC,,V,,,,,,,,,,N*53

5:28:21:410 Nachm. 03/26/17 - $GPGSA,A,1,,,,,,,,,,,,,,,*1E

5:28:21:416 Nachm. 03/26/17 - $GNGSA,A,1,,,,,,,,,,,,,,,*00

5:28:22:392 Nachm. 03/26/17 - $GPGSV,4,1,13,12,73,060,21,24,42,146,21,25,55,272,19,32,35,275,18*7A

5:28:22:405 Nachm. 03/26/17 - $GPGSV,4,2,13,02,27,111,,03,02,000,,06,26,064,,14,29,303,*74

5:28:22:407 Nachm. 03/26/17 - $GPGSV,4,3,13,17,,,,19,15,043,,22,00,338,,29,19,205,*4D

5:28:22:407 Nachm. 03/26/17 - $GPGSV,4,4,13,31,09,306,*45

5:28:22:407 Nachm. 03/26/17 - $GLGSV,3,1,09,82,64,111,27,80,71,080,12,81,33,036,19,71,16,278,14*6A

5:28:22:408 Nachm. 03/26/17 - $GLGSV,3,2,09,72,18,330,12,73,48,309,,79,14,112,,65,01,012,*68

5:28:22:408 Nachm. 03/26/17 - $GLGSV,3,3,09,83,26,178,*5D

5:28:22:409 Nachm. 03/26/17 - $GPGGA,,,,,,0,,,,,,,,*66

5:28:22:409 Nachm. 03/26/17 - $GNGNS,,,,,,NN,,,,,,*53

5:28:22:409 Nachm. 03/26/17 - $GPVTG,,T,,M,,N,,K,N*2C

5:28:22:409 Nachm. 03/26/17 - $GPRMC,,V,,,,,,,,,,N*53

5:28:22:409 Nachm. 03/26/17 - $GPGSA,A,1,,,,,,,,,,,,,,,*1E

5:28:22:410 Nachm. 03/26/17 - $GNGSA,A,1,,,,,,,,,,,,,,,*00

5:28:23:389 Nachm. 03/26/17 - $GPGSV,4,1,13,12,73,060,19,14,29,303,13,24,42,146,23,25,55,272,19*71

5:28:23:390 Nachm. 03/26/17 - $GPGSV,4,2,13,32,35,275,18,02,27,111,,03,02,000,,06,26,064,*74

5:28:23:391 Nachm. 03/26/17 - $GPGSV,4,3,13,17,,,,19,15,043,,22,00,338,,29,19,205,*4D

5:28:23:392 Nachm. 03/26/17 - $GPGSV,4,4,13,31,09,306,*45

5:28:23:392 Nachm. 03/26/17 - $GLGSV,3,1,09,82,64,111,25,80,71,080,12,81,33,036,17,71,16,278,14*66

5:28:23:393 Nachm. 03/26/17 - $GLGSV,3,2,09,72,18,330,12,73,48,309,,79,14,112,,65,01,012,*68

5:28:23:393 Nachm. 03/26/17 - $GLGSV,3,3,09,83,26,178,*5D

5:28:23:394 Nachm. 03/26/17 - $GPGGA,,,,,,0,,,,,,,,*66

5:28:23:409 Nachm. 03/26/17 - $GNGNS,,,,,,NN,,,,,,*53

5:28:23:410 Nachm. 03/26/17 - $GPVTG,,T,,M,,N,,K,N*2C

5:28:23:411 Nachm. 03/26/17 - $GPRMC,,V,,,,,,,,,,N*53

5:28:23:411 Nachm. 03/26/17 - $GPGSA,A,1,,,,,,,,,,,,,,,*1E

5:28:23:412 Nachm. 03/26/17 - $GNGSA,A,1,,,,,,,,,,,,,,,*00

5:28:24:390 Nachm. 03/26/17 - $GPGSV,4,1,13,12,73,060,19,14,29,303,14,24,42,146,21,25,55,272,17*7A

5:28:24:391 Nachm. 03/26/17 - $GPGSV,4,2,13,32,35,275,16,02,27,111,,03,02,000,,06,26,064,*7A

5:28:24:391 Nachm. 03/26/17 - $GPGSV,4,3,13,17,,,,19,15,043,,22,00,338,,29,19,205,*4D

5:28:24:393 Nachm. 03/26/17 - $GPGSV,4,4,13,31,09,306,*45

5:28:24:395 Nachm. 03/26/17 - $GLGSV,3,1,09,82,64,111,25,80,71,080,12,81,33,036,17,71,16,278,14*66

5:28:24:409 Nachm. 03/26/17 - $GLGSV,3,2,09,72,18,330,12,73,48,309,,79,14,112,,65,01,012,*68

5:28:24:410 Nachm. 03/26/17 - $GLGSV,3,3,09,83,26,178,*5D

5:28:24:410 Nachm. 03/26/17 - $GPGGA,,,,,,0,,,,,,,,*66

5:28:24:410 Nachm. 03/26/17 - $GNGNS,,,,,,NN,,,,,,*53

5:28:24:412 Nachm. 03/26/17 - $GPVTG,,T,,M,,N,,K,N*2C

5:28:24:413 Nachm. 03/26/17 - $GPRMC,,V,,,,,,,,,,N*53

5:28:24:414 Nachm. 03/26/17 - $GPGSA,A,1,,,,,,,,,,,,,,,*1E

5:28:24:414 Nachm. 03/26/17 - $GNGSA,A,1,,,,,,,,,,,,,,,*00

5:28:25:389 Nachm. 03/26/17 - $GPGSV,4,1,13,12,73,060,21,14,29,303,14,24,42,146,22,25,55,272,20*76

5:28:25:390 Nachm. 03/26/17 - $GPGSV,4,2,13,32,35,275,16,02,27,111,,03,02,000,,06,26,064,*7A

5:28:25:392 Nachm. 03/26/17 - $GPGSV,4,3,13,17,,,,19,15,043,,22,00,338,,29,19,205,*4D

5:28:25:393 Nachm. 03/26/17 - $GPGSV,4,4,13,31,09,306,*45

5:28:25:404 Nachm. 03/26/17 - $GLGSV,3,1,09,82,64,111,24,80,71,080,11,81,33,036,17,71,16,278,14*64

5:28:25:405 Nachm. 03/26/17 - $GLGSV,3,2,09,72,18,330,12,73,48,309,,79,14,112,,65,01,012,*68

5:28:25:407 Nachm. 03/26/17 - $GLGSV,3,3,09,83,26,178,*5D

5:28:25:407 Nachm. 03/26/17 - $GPGGA,,,,,,0,,,,,,,,*66

5:28:25:408 Nachm. 03/26/17 - $GNGNS,,,,,,NN,,,,,,*53

5:28:25:408 Nachm. 03/26/17 - $GPVTG,,T,,M,,N,,K,N*2C

5:28:25:408 Nachm. 03/26/17 - $GPRMC,,V,,,,,,,,,,N*53

5:28:25:409 Nachm. 03/26/17 - $GPGSA,A,1,,,,,,,,,,,,,,,*1E

5:28:25:409 Nachm. 03/26/17 - $GNGSA,A,1,,,,,,,,,,,,,,,*00

5:28:26:389 Nachm. 03/26/17 - $GPGSV,4,1,13,12,73,060,22,14,29,303,15,24,42,146,22,25,55,272,17*70

5:28:26:390 Nachm. 03/26/17 - $GPGSV,4,2,13,32,35,275,16,02,27,111,,03,02,000,,06,26,064,*7A

5:28:26:391 Nachm. 03/26/17 - $GPGSV,4,3,13,17,,,,19,15,043,,22,00,338,,29,19,205,*4D

5:28:26:392 Nachm. 03/26/17 - $GPGSV,4,4,13,31,09,306,*45

5:28:26:392 Nachm. 03/26/17 - $GLGSV,3,1,09,82,64,111,21,80,71,080,11,81,33,036,19,71,16,278,14*6F

5:28:26:396 Nachm. 03/26/17 - $GLGSV,3,2,09,72,18,330,12,73,48,309,,79,14,112,,65,01,012,*68

5:28:26:397 Nachm. 03/26/17 - $GLGSV,3,3,09,83,26,178,*5D

5:28:26:397 Nachm. 03/26/17 - $GPGGA,,,,,,0,,,,,,,,*66

5:28:26:398 Nachm. 03/26/17 - $GNGNS,,,,,,NN,,,,,,*53

5:28:26:399 Nachm. 03/26/17 - $GPVTG,,T,,M,,N,,K,N*2C

5:28:26:399 Nachm. 03/26/17 - $GPRMC,,V,,,,,,,,,,N*53

5:28:26:400 Nachm. 03/26/17 - $GPGSA,A,1,,,,,,,,,,,,,,,*1E

5:28:26:400 Nachm. 03/26/17 - $GNGSA,A,1,,,,,,,,,,,,,,,*00

5:28:27:388 Nachm. 03/26/17 - $GPGSV,4,1,13,12,73,060,19,14,29,303,15,24,42,146,21,25,55,272,20*7F

5:28:27:389 Nachm. 03/26/17 - $GPGSV,4,2,13,32,35,275,16,02,27,111,,03,02,000,,06,26,064,*7A

5:28:27:390 Nachm. 03/26/17 - $GPGSV,4,3,13,17,,,,19,15,043,,22,00,338,,29,19,205,*4D

5:28:27:390 Nachm. 03/26/17 - $GPGSV,4,4,13,31,09,306,*45

5:28:27:391 Nachm. 03/26/17 - $GLGSV,3,1,09,82,64,111,25,80,71,080,17,81,33,036,19,71,16,278,14*6D

5:28:27:392 Nachm. 03/26/17 - $GLGSV,3,2,09,72,18,330,12,73,48,309,,79,14,112,,65,01,012,*68

5:28:27:402 Nachm. 03/26/17 - $GLGSV,3,3,09,83,26,178,*5D

5:28:27:411 Nachm. 03/26/17 - $GPGGA,,,,,,0,,,,,,,,*66

5:28:27:412 Nachm. 03/26/17 - $GNGNS,,,,,,NN,,,,,,*53

5:28:27:412 Nachm. 03/26/17 - $GPVTG,,T,,M,,N,,K,N*2C

5:28:27:412 Nachm. 03/26/17 - $GPRMC,,V,,,,,,,,,,N*53

5:28:27:412 Nachm. 03/26/17 - $GPGSA,A,1,,,,,,,,,,,,,,,*1E

5:28:27:412 Nachm. 03/26/17 - $GNGSA,A,1,,,,,,,,,,,,,,,*00

5:28:28:397 Nachm. 03/26/17 - $GPGSV,4,1,13,12,73,060,19,14,29,303,16,24,42,146,21,25,55,272,22*7E

5:28:28:403 Nachm. 03/26/17 - $GPGSV,4,2,13,32,35,275,16,02,27,111,,03,02,000,,06,26,064,*7A

5:28:28:403 Nachm. 03/26/17 - $GPGSV,4,3,13,17,,,,19,15,043,,22,00,338,,29,19,205,*4D

5:28:28:403 Nachm. 03/26/17 - $GPGSV,4,4,13,31,09,306,*45

5:28:28:404 Nachm. 03/26/17 - $GLGSV,3,1,09,82,64,111,26,80,71,080,17,81,33,036,19,71,16,278,14*6E

5:28:28:404 Nachm. 03/26/17 - $GLGSV,3,2,09,72,18,330,12,73,48,309,,79,14,112,,65,01,012,*68

5:28:28:404 Nachm. 03/26/17 - $GLGSV,3,3,09,83,26,178,*5D

5:28:28:404 Nachm. 03/26/17 - $GPGGA,,,,,,0,,,,,,,,*66

5:28:28:417 Nachm. 03/26/17 - $GNGNS,,,,,,NN,,,,,,*53

5:28:28:419 Nachm. 03/26/17 - $GPVTG,,T,,M,,N,,K,N*2C

5:28:28:419 Nachm. 03/26/17 - $GPRMC,,V,,,,,,,,,,N*53

5:28:28:419 Nachm. 03/26/17 - $GPGSA,A,1,,,,,,,,,,,,,,,*1E

5:28:28:419 Nachm. 03/26/17 - $GNGSA,A,1,,,,,,,,,,,,,,,*00

5:28:29:387 Nachm. 03/26/17 - $GPGSV,4,1,13,12,73,060,19,14,29,303,16,24,42,146,20,25,55,272,20*7D

5:28:29:388 Nachm. 03/26/17 - $GPGSV,4,2,13,32,35,275,18,02,27,111,,03,02,000,,06,26,064,*74

5:28:29:390 Nachm. 03/26/17 - $GPGSV,4,3,13,17,,,,19,15,043,,22,00,338,,29,19,205,*4D

5:28:29:390 Nachm. 03/26/17 - $GPGSV,4,4,13,31,09,306,*45

5:28:29:392 Nachm. 03/26/17 - $GLGSV,3,1,09,82,64,111,23,80,71,080,17,81,33,036,20,71,16,278,14*61

5:28:29:392 Nachm. 03/26/17 - $GLGSV,3,2,09,72,18,330,12,73,48,309,,79,14,112,,65,01,012,*68

5:28:29:392 Nachm. 03/26/17 - $GLGSV,3,3,09,83,26,178,*5D

5:28:29:392 Nachm. 03/26/17 - $GPGGA,,,,,,0,,,,,,,,*66

5:28:29:392 Nachm. 03/26/17 - $GNGNS,,,,,,NN,,,,,,*53

5:28:29:393 Nachm. 03/26/17 - $GPVTG,,T,,M,,N,,K,N*2C

5:28:29:393 Nachm. 03/26/17 - $GPRMC,,V,,,,,,,,,,N*53

5:28:29:393 Nachm. 03/26/17 - $GPGSA,A,1,,,,,,,,,,,,,,,*1E

5:28:29:393 Nachm. 03/26/17 - $GNGSA,A,1,,,,,,,,,,,,,,,*00

5:28:30:391 Nachm. 03/26/17 - $GPGSV,4,1,13,12,73,060,18,14,29,303,16,24,42,146,23,25,55,272,20*7F

5:28:30:392 Nachm. 03/26/17 - $GPGSV,4,2,13,32,35,275,18,02,27,111,,03,02,000,,06,26,064,*74

5:28:30:393 Nachm. 03/26/17 - $GPGSV,4,3,13,17,,,,19,15,043,,22,00,338,,29,19,205,*4D

5:28:30:393 Nachm. 03/26/17 - $GPGSV,4,4,13,31,09,306,*45

5:28:30:404 Nachm. 03/26/17 - $GLGSV,3,1,09,82,64,111,19,80,71,080,16,81,33,036,18,71,16,278,14*62

5:28:30:404 Nachm. 03/26/17 - $GLGSV,3,2,09,72,18,330,12,73,48,309,,79,14,112,,65,01,012,*68

5:28:30:409 Nachm. 03/26/17 - $GLGSV,3,3,09,83,26,178,*5D

5:28:30:409 Nachm. 03/26/17 - $GPGGA,152827.0,5208.388369,N,01138.448077,E,1,05,2.1,83.7,M,45.0,M,,*6F

5:28:30:410 Nachm. 03/26/17 - $GNGNS,152827.0,5208.388369,N,01138.448077,E,AN,05,2.1,83.7,45.0,,*54

5:28:30:410 Nachm. 03/26/17 - $GPVTG,118.0,T,117.6,M,0.0,N,0.0,K,A*2A

5:28:30:416 Nachm. 03/26/17 - $GPRMC,152827.0,A,5208.388369,N,01138.448077,E,0.0,118.0,260317,0.4,E,A*00

5:28:30:416 Nachm. 03/26/17 - $GPGSA,A,2,12,14,24,25,32,,,,,,,,2.3,2.1,1.0*36

5:28:30:416 Nachm. 03/26/17 - $GNGSA,A,2,12,14,24,25,32,,,,,,,,2.3,2.1,1.0*28

5:28:30:416 Nachm. 03/26/17 - $GNGSA,A,2,,,,,,,,,,,,,2.3,2.1,1.0*2E

5:28:31:387 Nachm. 03/26/17 - $GPGSV,4,1,13,12,73,060,19,14,29,303,15,24,42,146,22,25,55,272,20*7C

5:28:31:387 Nachm. 03/26/17 - $GPGSV,4,2,13,32,35,275,18,02,27,111,,03,02,000,,06,26,064,*74

5:28:31:388 Nachm. 03/26/17 - $GPGSV,4,3,13,17,,,,19,15,043,,22,00,338,,29,19,205,*4D

5:28:31:388 Nachm. 03/26/17 - $GPGSV,4,4,13,31,09,306,*45

5:28:31:391 Nachm. 03/26/17 - $GLGSV,3,1,09,82,64,111,22,80,71,080,19,81,33,036,19,71,16,278,14*64

5:28:31:391 Nachm. 03/26/17 - $GLGSV,3,2,09,72,18,330,12,73,48,309,,79,14,112,,65,01,012,*68

5:28:31:391 Nachm. 03/26/17 - $GLGSV,3,3,09,83,26,178,*5D

5:28:31:395 Nachm. 03/26/17 - $GPGGA,152828.0,5208.388387,N,01138.448076,E,1,05,2.1,83.7,M,45.0,M,,*61

5:28:31:395 Nachm. 03/26/17 - $GNGNS,152828.0,5208.388387,N,01138.448076,E,AN,05,2.1,83.7,45.0,,*5A

5:28:31:396 Nachm. 03/26/17 - $GPVTG,118.0,T,117.6,M,0.0,N,0.0,K,A*2A

5:28:31:396 Nachm. 03/26/17 - $GPRMC,152828.0,A,5208.388387,N,01138.448076,E,0.0,118.0,260317,0.4,E,A*0E

5:28:31:397 Nachm. 03/26/17 - $GPGSA,A,2,12,14,24,25,32,,,,,,,,2.3,2.1,1.0*36

5:28:31:397 Nachm. 03/26/17 - $GNGSA,A,2,12,14,24,25,32,,,,,,,,2.3,2.1,1.0*28

5:28:31:397 Nachm. 03/26/17 - $GNGSA,A,2,,,,,,,,,,,,,2.3,2.1,1.0*2E

5:28:32:387 Nachm. 03/26/17 - $GPGSV,4,1,13,12,73,060,19,14,29,303,19,24,42,146,24,25,55,272,15*70

5:28:32:388 Nachm. 03/26/17 - $GPGSV,4,2,13,32,35,275,18,02,27,111,,03,02,000,,06,26,064,*74

5:28:32:389 Nachm. 03/26/17 - $GPGSV,4,3,13,17,,,,19,15,043,,22,00,338,,29,19,205,*4D

5:28:32:391 Nachm. 03/26/17 - $GPGSV,4,4,13,31,09,306,*45

5:28:32:391 Nachm. 03/26/17 - $GLGSV,3,1,09,82,64,111,23,80,71,080,20,81,33,036,17,71,16,278,14*61

5:28:32:392 Nachm. 03/26/17 - $GLGSV,3,2,09,72,18,330,12,73,48,309,,79,14,112,,65,01,012,*68

5:28:32:393 Nachm. 03/26/17 - $GLGSV,3,3,09,83,26,178,*5D

5:28:32:402 Nachm. 03/26/17 - $GPGGA,152829.0,5208.388411,N,01138.448072,E,1,05,2.1,83.7,M,45.0,M,,*6C

5:28:32:402 Nachm. 03/26/17 - $GNGNS,152829.0,5208.388411,N,01138.448072,E,AN,05,2.1,83.7,45.0,,*57

5:28:32:403 Nachm. 03/26/17 - $GPVTG,118.0,T,117.6,M,0.0,N,0.0,K,A*2A

5:28:32:403 Nachm. 03/26/17 - $GPRMC,152829.0,A,5208.388411,N,01138.448072,E,0.0,118.0,260317,0.4,E,A*03

5:28:32:404 Nachm. 03/26/17 - $GPGSA,A,2,12,14,24,25,32,,,,,,,,2.3,2.1,1.0*36

5:28:32:405 Nachm. 03/26/17 - $GNGSA,A,2,12,14,24,25,32,,,,,,,,2.3,2.1,1.0*28

5:28:32:409 Nachm. 03/26/17 - $GNGSA,A,2,,,,,,,,,,,,,2.3,2.1,1.0*2E

5:28:33:388 Nachm. 03/26/17 - $GPGSV,4,1,13,12,73,060,19,14,29,303,18,24,42,146,23,25,55,272,19*7A

5:28:33:389 Nachm. 03/26/17 - $GPGSV,4,2,13,32,35,275,18,02,27,111,,03,02,000,,06,26,064,*74

5:28:33:393 Nachm. 03/26/17 - $GPGSV,4,3,13,17,,,,19,15,043,,22,00,338,,29,19,205,*4D

5:28:33:395 Nachm. 03/26/17 - $GPGSV,4,4,13,31,09,306,*45

5:28:33:396 Nachm. 03/26/17 - $GLGSV,3,1,09,82,64,111,22,80,71,080,20,81,33,036,17,71,16,278,14*60

5:28:33:397 Nachm. 03/26/17 - $GLGSV,3,2,09,72,18,330,12,73,48,309,,79,14,112,,65,01,012,*68

5:28:33:416 Nachm. 03/26/17 - $GLGSV,3,3,09,83,26,178,*5D

5:28:33:420 Nachm. 03/26/17 - $GPGGA,152830.0,5208.388426,N,01138.448070,E,1,05,2.1,83.7,M,45.0,M,,*62

5:28:33:420 Nachm. 03/26/17 - $GNGNS,152830.0,5208.388426,N,01138.448070,E,AN,05,2.1,83.7,45.0,,*59

5:28:33:420 Nachm. 03/26/17 - $GPVTG,118.0,T,117.6,M,0.0,N,0.0,K,A*2A

5:28:33:421 Nachm. 03/26/17 - $GPRMC,152830.0,A,5208.388426,N,01138.448070,E,0.0,118.0,260317,0.4,E,A*0D

5:28:33:421 Nachm. 03/26/17 - $GPGSA,A,2,12,14,24,25,32,,,,,,,,2.3,2.1,1.0*36

5:28:33:422 Nachm. 03/26/17 - $GNGSA,A,2,12,14,24,25,32,,,,,,,,2.3,2.1,1.0*28

5:28:33:422 Nachm. 03/26/17 - $GNGSA,A,2,,,,,,,,,,,,,2.3,2.1,1.0*2E

5:28:34:387 Nachm. 03/26/17 - $GPGSV,4,1,13,12,73,060,18,14,29,303,18,24,42,146,23,25,55,272,20*71

5:28:34:390 Nachm. 03/26/17 - $GPGSV,4,2,13,32,35,275,18,02,27,111,,03,02,000,,06,26,064,*74

5:28:34:390 Nachm. 03/26/17 - $GPGSV,4,3,13,17,,,,19,15,043,,22,00,338,,29,19,205,*4D

5:28:34:391 Nachm. 03/26/17 - $GPGSV,4,4,13,31,09,306,*45

5:28:34:408 Nachm. 03/26/17 - $GLGSV,3,1,09,82,64,111,23,80,71,080,18,81,33,036,18,71,16,278,14*65

5:28:34:415 Nachm. 03/26/17 - $GLGSV,3,2,09,72,18,330,12,73,48,309,,79,14,112,,65,01,012,*68

5:28:34:416 Nachm. 03/26/17 - $GLGSV,3,3,09,83,26,178,*5D

5:28:34:416 Nachm. 03/26/17 - $GPGGA,152831.0,5208.388430,N,01138.448067,E,1,05,2.1,83.7,M,45.0,M,,*62

5:28:34:417 Nachm. 03/26/17 - $GNGNS,152831.0,5208.388430,N,01138.448067,E,AN,05,2.1,83.7,45.0,,*59

5:28:34:418 Nachm. 03/26/17 - $GPVTG,118.0,T,117.6,M,0.0,N,0.0,K,A*2A

5:28:34:418 Nachm. 03/26/17 - $GPRMC,152831.0,A,5208.388430,N,01138.448067,E,0.0,118.0,260317,0.4,E,A*0D

5:28:34:418 Nachm. 03/26/17 - $GPGSA,A,2,12,14,24,25,32,,,,,,,,2.3,2.1,1.0*36

5:28:34:418 Nachm. 03/26/17 - $GNGSA,A,2,12,14,24,25,32,,,,,,,,2.3,2.1,1.0*28

5:28:34:418 Nachm. 03/26/17 - $GNGSA,A,2,,,,,,,,,,,,,2.3,2.1,1.0*2E

5:28:35:388 Nachm. 03/26/17 - $GPGSV,4,1,13,12,73,060,20,14,29,303,20,24,42,146,23,25,55,272,20*71

5:28:35:389 Nachm. 03/26/17 - $GPGSV,4,2,13,32,35,275,18,02,27,111,,03,02,000,,06,26,064,*74

5:28:35:390 Nachm. 03/26/17 - $GPGSV,4,3,13,17,,,,19,15,043,,22,00,338,,29,19,205,*4D

5:28:35:391 Nachm. 03/26/17 - $GPGSV,4,4,13,31,09,306,*45

5:28:35:403 Nachm. 03/26/17 - $GLGSV,3,1,09,82,64,111,24,80,71,080,18,81,33,036,16,71,16,278,14*6C

5:28:35:406 Nachm. 03/26/17 - $GLGSV,3,2,09,72,18,330,12,73,48,309,,79,14,112,,65,01,012,*68

5:28:35:408 Nachm. 03/26/17 - $GLGSV,3,3,09,83,26,178,*5D

5:28:35:408 Nachm. 03/26/17 - $GPGGA,152832.0,5208.388420,N,01138.448064,E,1,05,2.1,83.7,M,45.0,M,,*63

5:28:35:411 Nachm. 03/26/17 - $GNGNS,152832.0,5208.388420,N,01138.448064,E,AN,05,2.1,83.7,45.0,,*58

5:28:35:411 Nachm. 03/26/17 - $GPVTG,118.0,T,117.6,M,0.0,N,0.0,K,A*2A

5:28:35:411 Nachm. 03/26/17 - $GPRMC,152832.0,A,5208.388420,N,01138.448064,E,0.0,118.0,260317,0.4,E,A*0C

5:28:35:411 Nachm. 03/26/17 - $GPGSA,A,2,12,14,24,25,32,,,,,,,,2.3,2.1,1.0*36

5:28:35:412 Nachm. 03/26/17 - $GNGSA,A,2,12,14,24,25,32,,,,,,,,2.3,2.1,1.0*28

5:28:35:412 Nachm. 03/26/17 - $GNGSA,A,2,,,,,,,,,,,,,2.3,2.1,1.0*2E

5:28:36:387 Nachm. 03/26/17 - $GPGSV,4,1,13,12,73,060,21,14,29,303,20,24,42,146,22,25,55,272,21*70

5:28:36:388 Nachm. 03/26/17 - $GPGSV,4,2,13,32,35,275,18,02,27,111,,03,02,000,,06,26,064,*74

5:28:36:390 Nachm. 03/26/17 - $GPGSV,4,3,13,17,,,,19,15,043,,22,00,338,,29,19,205,*4D

5:28:36:392 Nachm. 03/26/17 - $GPGSV,4,4,13,31,09,306,*45

5:28:36:408 Nachm. 03/26/17 - $GLGSV,3,1,09,82,64,111,21,80,71,080,18,81,33,036,17,71,16,278,14*68

5:28:36:409 Nachm. 03/26/17 - $GLGSV,3,2,09,72,18,330,12,73,48,309,,79,14,112,,65,01,012,*68

5:28:36:409 Nachm. 03/26/17 - $GLGSV,3,3,09,83,26,178,*5D

5:28:36:410 Nachm. 03/26/17 - $GPGGA,152833.0,5208.388437,N,01138.448062,E,1,04,2.5,83.7,M,45.0,M,,*67

5:28:36:411 Nachm. 03/26/17 - $GNGNS,152833.0,5208.388437,N,01138.448062,E,AN,04,2.5,83.7,45.0,,*5C

5:28:36:411 Nachm. 03/26/17 - $GPVTG,118.0,T,117.6,M,0.0,N,0.0,K,A*2A

5:28:36:412 Nachm. 03/26/17 - $GPRMC,152833.0,A,5208.388437,N,01138.448062,E,0.0,118.0,260317,0.4,E,A*0D

5:28:36:412 Nachm. 03/26/17 - $GPGSA,A,2,12,14,24,25,,,,,,,,,2.7,2.5,1.0*37

5:28:36:412 Nachm. 03/26/17 - $GNGSA,A,2,12,14,24,25,,,,,,,,,2.7,2.5,1.0*29

5:28:36:413 Nachm. 03/26/17 - $GNGSA,A,2,,,,,,,,,,,,,2.7,2.5,1.0*2E

5:28:37:387 Nachm. 03/26/17 - $GPGSV,4,1,13,12,73,060,20,14,29,303,17,24,42,146,23,25,55,272,21*74

5:28:37:389 Nachm. 03/26/17 - $GPGSV,4,2,13,32,35,275,13,02,27,111,,03,02,000,,06,26,064,*7F

5:28:37:389 Nachm. 03/26/17 - $GPGSV,4,3,13,17,,,,19,15,043,,22,00,338,,29,19,205,*4D

5:28:37:393 Nachm. 03/26/17 - $GPGSV,4,4,13,31,09,306,*45

5:28:37:394 Nachm. 03/26/17 - $GLGSV,3,1,09,82,64,111,22,80,71,080,17,81,33,036,19,71,16,278,14*6A

5:28:37:402 Nachm. 03/26/17 - $GLGSV,3,2,09,72,18,330,12,73,48,309,,79,14,112,,65,01,012,*68

5:28:37:403 Nachm. 03/26/17 - $GLGSV,3,3,09,83,26,178,*5D

5:28:37:404 Nachm. 03/26/17 - $GPGGA,152834.0,5208.388466,N,01138.448059,E,1,05,2.1,83.7,M,45.0,M,,*69

5:28:37:406 Nachm. 03/26/17 - $GNGNS,152834.0,5208.388466,N,01138.448059,E,AN,05,2.1,83.7,45.0,,*52

5:28:37:408 Nachm. 03/26/17 - $GPVTG,118.0,T,117.6,M,0.0,N,0.0,K,A*2A

5:28:37:417 Nachm. 03/26/17 - $GPRMC,152834.0,A,5208.388466,N,01138.448059,E,0.0,118.0,260317,0.4,E,A*06

5:28:37:417 Nachm. 03/26/17 - $GPGSA,A,2,12,14,24,25,32,,,,,,,,2.3,2.1,1.0*36

5:28:37:421 Nachm. 03/26/17 - $GNGSA,A,2,12,14,24,25,32,,,,,,,,2.3,2.1,1.0*28

5:28:37:422 Nachm. 03/26/17 - $GNGSA,A,2,,,,,,,,,,,,,2.3,2.1,1.0*2E

5:28:38:388 Nachm. 03/26/17 - $GPGSV,4,1,13,12,73,060,23,14,29,303,17,24,42,146,24,25,55,272,21*70

5:28:38:390 Nachm. 03/26/17 - $GPGSV,4,2,13,32,35,275,13,02,27,111,,03,02,000,,06,26,064,*7F

5:28:38:390 Nachm. 03/26/17 - $GPGSV,4,3,13,17,,,,19,15,043,,22,00,338,,29,19,205,*4D

5:28:38:391 Nachm. 03/26/17 - $GPGSV,4,4,13,31,09,306,*45

5:28:38:391 Nachm. 03/26/17 - $GLGSV,3,1,09,82,64,111,16,80,71,080,17,81,33,036,20,71,16,278,14*67

5:28:38:414 Nachm. 03/26/17 - $GLGSV,3,2,09,72,18,330,12,73,48,309,,79,14,112,,65,01,012,*68

5:28:38:415 Nachm. 03/26/17 - $GLGSV,3,3,09,83,26,178,*5D

5:28:38:415 Nachm. 03/26/17 - $GPGGA,152835.0,5208.388481,N,01138.448055,E,1,05,2.1,83.7,M,45.0,M,,*6D

5:28:38:415 Nachm. 03/26/17 - $GNGNS,152835.0,5208.388481,N,01138.448055,E,AN,05,2.1,83.7,45.0,,*56

5:28:38:416 Nachm. 03/26/17 - $GPVTG,118.0,T,117.6,M,0.0,N,0.0,K,A*2A

5:28:38:416 Nachm. 03/26/17 - $GPRMC,152835.0,A,5208.388481,N,01138.448055,E,0.0,118.0,260317,0.4,E,A*02

5:28:38:417 Nachm. 03/26/17 - $GPGSA,A,2,12,14,24,25,32,,,,,,,,2.3,2.1,1.0*36

5:28:38:417 Nachm. 03/26/17 - $GNGSA,A,2,12,14,24,25,32,,,,,,,,2.3,2.1,1.0*28

5:28:38:417 Nachm. 03/26/17 - $GNGSA,A,2,,,,,,,,,,,,,2.3,2.1,1.0*2E

5:28:39:390 Nachm. 03/26/17 - $GPGSV,4,1,13,12,73,060,24,14,29,303,16,24,42,146,22,25,55,272,22*73

5:28:39:390 Nachm. 03/26/17 - $GPGSV,4,2,13,32,35,275,13,02,27,111,,03,02,000,,06,26,064,*7F

5:28:39:393 Nachm. 03/26/17 - $GPGSV,4,3,13,17,,,,19,15,043,,22,00,338,,29,19,205,*4D

5:28:39:395 Nachm. 03/26/17 - $GPGSV,4,4,13,31,09,306,*45

5:28:39:397 Nachm. 03/26/17 - $GLGSV,3,1,09,82,64,111,16,80,71,080,17,81,33,036,21,71,16,278,14*66

5:28:39:398 Nachm. 03/26/17 - $GLGSV,3,2,09,72,18,330,12,73,48,309,,79,14,112,,65,01,012,*68

5:28:39:399 Nachm. 03/26/17 - $GLGSV,3,3,09,83,26,178,*5D

5:28:39:400 Nachm. 03/26/17 - $GPGGA,152836.0,5208.388490,N,01138.448052,E,1,05,2.1,83.7,M,45.0,M,,*69

5:28:39:401 Nachm. 03/26/17 - $GNGNS,152836.0,5208.388490,N,01138.448052,E,AN,05,2.1,83.7,45.0,,*52

5:28:39:402 Nachm. 03/26/17 - $GPVTG,118.0,T,117.6,M,0.0,N,0.0,K,A*2A

5:28:39:404 Nachm. 03/26/17 - $GPRMC,152836.0,A,5208.388490,N,01138.448052,E,0.0,118.0,260317,0.4,E,A*06

5:28:39:405 Nachm. 03/26/17 - $GPGSA,A,2,12,14,24,25,32,,,,,,,,2.3,2.1,1.0*36

5:28:39:406 Nachm. 03/26/17 - $GNGSA,A,2,12,14,24,25,32,,,,,,,,2.3,2.1,1.0*28

5:28:39:407 Nachm. 03/26/17 - $GNGSA,A,2,,,,,,,,,,,,,2.3,2.1,1.0*2E

5:28:40:389 Nachm. 03/26/17 - $GPGSV,4,1,13,12,73,060,23,14,29,303,19,24,42,146,23,25,55,272,21*79

5:28:40:389 Nachm. 03/26/17 - $GPGSV,4,2,13,32,35,275,13,02,27,111,,03,02,000,,06,26,064,*7F

5:28:40:392 Nachm. 03/26/17 - $GPGSV,4,3,13,17,,,,19,15,043,,22,00,338,,29,19,205,*4D

5:28:40:392 Nachm. 03/26/17 - $GPGSV,4,4,13,31,09,306,*45

5:28:40:392 Nachm. 03/26/17 - $GLGSV,3,1,09,82,64,111,16,80,71,080,17,81,33,036,21,71,16,278,14*66

5:28:40:393 Nachm. 03/26/17 - $GLGSV,3,2,09,72,18,330,12,73,48,309,,79,14,112,,65,01,012,*68

5:28:40:393 Nachm. 03/26/17 - $GLGSV,3,3,09,83,26,178,*5D

5:28:40:393 Nachm. 03/26/17 - $GPGGA,152837.0,5208.388478,N,01138.448054,E,1,05,2.1,83.7,M,45.0,M,,*68

5:28:40:394 Nachm. 03/26/17 - $GNGNS,152837.0,5208.388478,N,01138.448054,E,AN,05,2.1,83.7,45.0,,*53

5:28:40:403 Nachm. 03/26/17 - $GPVTG,118.0,T,117.6,M,0.0,N,0.0,K,A*2A

5:28:40:404 Nachm. 03/26/17 - $GPRMC,152837.0,A,5208.388478,N,01138.448054,E,0.0,118.0,260317,0.4,E,A*07

5:28:40:407 Nachm. 03/26/17 - $GPGSA,A,2,12,14,24,25,32,,,,,,,,2.3,2.1,1.0*36

5:28:40:408 Nachm. 03/26/17 - $GNGSA,A,2,12,14,24,25,32,,,,,,,,2.3,2.1,1.0*28

5:28:40:409 Nachm. 03/26/17 - $GNGSA,A,2,,,,,,,,,,,,,2.3,2.1,1.0*2E

5:28:41:389 Nachm. 03/26/17 - $GPGSV,4,1,13,02,27,111,13,12,73,060,22,14,29,303,19,24,42,146,24*78

5:28:41:390 Nachm. 03/26/17 - $GPGSV,4,2,13,25,55,272,20,32,35,275,13,03,02,000,,06,26,064,*7B

5:28:41:390 Nachm. 03/26/17 - $GPGSV,4,3,13,17,,,,19,15,043,,22,00,338,,29,19,205,*4D

5:28:41:391 Nachm. 03/26/17 - $GPGSV,4,4,13,31,09,306,*45

5:28:41:392 Nachm. 03/26/17 - $GLGSV,3,1,09,82,64,111,16,80,71,080,17,81,33,036,22,71,16,278,14*65

5:28:41:392 Nachm. 03/26/17 - $GLGSV,3,2,09,72,18,330,12,73,48,309,,79,14,112,,65,01,012,*68

5:28:41:393 Nachm. 03/26/17 - $GLGSV,3,3,09,83,26,178,*5D

5:28:41:402 Nachm. 03/26/17 - $GPGGA,152838.0,5208.388450,N,01138.448057,E,1,06,1.9,83.7,M,45.0,M,,*66

5:28:41:403 Nachm. 03/26/17 - $GNGNS,152838.0,5208.388450,N,01138.448057,E,AN,06,1.9,83.7,45.0,,*5D

5:28:41:403 Nachm. 03/26/17 - $GPVTG,118.0,T,117.6,M,0.0,N,0.0,K,A*2A

5:28:41:404 Nachm. 03/26/17 - $GPRMC,152838.0,A,5208.388450,N,01138.448057,E,0.0,118.0,260317,0.4,E,A*01

5:28:41:405 Nachm. 03/26/17 - $GPGSA,A,2,02,12,14,24,25,32,,,,,,,2.1,1.9,0.9*35

5:28:41:405 Nachm. 03/26/17 - $GNGSA,A,2,02,12,14,24,25,32,,,,,,,2.1,1.9,0.9*2B

5:28:41:406 Nachm. 03/26/17 - $GNGSA,A,2,,,,,,,,,,,,,2.1,1.9,0.9*2F

5:28:42:389 Nachm. 03/26/17 - $GPGSV,4,1,13,02,27,111,13,12,73,060,22,14,29,303,17,24,42,146,23*71

5:28:42:392 Nachm. 03/26/17 - $GPGSV,4,2,13,25,55,272,20,31,09,306,14,32,35,275,15,03,02,000,*76

5:28:42:395 Nachm. 03/26/17 - $GPGSV,4,3,13,06,26,064,,17,,,,19,15,043,,22,00,338,*49

5:28:42:396 Nachm. 03/26/17 - $GPGSV,4,4,13,29,19,205,*4F

5:28:42:397 Nachm. 03/26/17 - $GLGSV,3,1,09,82,64,111,16,80,71,080,17,81,33,036,22,71,16,278,14*65

5:28:42:403 Nachm. 03/26/17 - $GLGSV,3,2,09,72,18,330,12,73,48,309,,79,14,112,,65,01,012,*68

5:28:42:403 Nachm. 03/26/17 - $GLGSV,3,3,09,83,26,178,*5D

5:28:42:404 Nachm. 03/26/17 - $GPGGA,152839.0,5208.388452,N,01138.448062,E,1,06,1.9,83.7,M,45.0,M,,*63

5:28:42:404 Nachm. 03/26/17 - $GNGNS,152839.0,5208.388452,N,01138.448062,E,AN,06,1.9,83.7,45.0,,*58

5:28:42:405 Nachm. 03/26/17 - $GPVTG,118.0,T,117.6,M,0.0,N,0.0,K,A*2A

5:28:42:406 Nachm. 03/26/17 - $GPRMC,152839.0,A,5208.388452,N,01138.448062,E,0.0,118.0,260317,0.4,E,A*04

5:28:42:411 Nachm. 03/26/17 - $GPGSA,A,2,02,12,14,24,25,32,,,,,,,2.1,1.9,0.9*35

5:28:42:413 Nachm. 03/26/17 - $GNGSA,A,2,02,12,14,24,25,32,,,,,,,2.1,1.9,0.9*2B

5:28:42:414 Nachm. 03/26/17 - $GNGSA,A,2,,,,,,,,,,,,,2.1,1.9,0.9*2F

5:28:43:388 Nachm. 03/26/17 - $GPGSV,4,1,13,02,27,111,13,12,73,060,20,14,29,303,17,24,42,146,21*71

5:28:43:389 Nachm. 03/26/17 - $GPGSV,4,2,13,25,55,272,20,31,09,306,14,32,35,275,15,03,02,000,*76

5:28:43:390 Nachm. 03/26/17 - $GPGSV,4,3,13,06,26,064,,17,,,,19,15,043,,22,00,338,*49

5:28:43:391 Nachm. 03/26/17 - $GPGSV,4,4,13,29,19,205,*4F

5:28:43:391 Nachm. 03/26/17 - $GLGSV,3,1,09,82,64,111,13,80,71,080,17,81,33,036,21,71,16,278,12*65

5:28:43:407 Nachm. 03/26/17 - $GLGSV,3,2,09,72,18,330,12,73,48,309,,79,14,112,,65,01,012,*68

5:28:43:408 Nachm. 03/26/17 - $GLGSV,3,3,09,83,26,178,*5D

5:28:43:408 Nachm. 03/26/17 - $GPGGA,152840.0,5208.388456,N,01138.448058,E,1,06,1.9,83.7,M,45.0,M,,*60

5:28:43:408 Nachm. 03/26/17 - $GNGNS,152840.0,5208.388456,N,01138.448058,E,AN,06,1.9,83.7,45.0,,*5B

5:28:43:409 Nachm. 03/26/17 - $GPVTG,118.0,T,117.6,M,0.0,N,0.0,K,A*2A

5:28:43:409 Nachm. 03/26/17 - $GPRMC,152840.0,A,5208.388456,N,01138.448058,E,0.0,118.0,260317,0.4,E,A*07

5:28:43:409 Nachm. 03/26/17 - $GPGSA,A,2,02,12,14,24,25,32,,,,,,,2.1,1.9,0.9*35

5:28:43:409 Nachm. 03/26/17 - $GNGSA,A,2,02,12,14,24,25,32,,,,,,,2.1,1.9,0.9*2B

5:28:43:409 Nachm. 03/26/17 - $GNGSA,A,2,,,,,,,,,,,,,2.1,1.9,0.9*2F

5:28:44:388 Nachm. 03/26/17 - $GPGSV,4,1,13,02,27,111,13,12,73,060,21,14,29,303,17,24,42,146,22*73

5:28:44:391 Nachm. 03/26/17 - $GPGSV,4,2,13,25,55,272,20,31,09,306,13,32,35,275,17,03,02,000,*73

5:28:44:391 Nachm. 03/26/17 - $GPGSV,4,3,13,06,26,064,,17,,,,19,15,043,,22,00,338,*49

5:28:44:394 Nachm. 03/26/17 - $GPGSV,4,4,13,29,19,205,*4F

5:28:44:397 Nachm. 03/26/17 - $GLGSV,3,1,09,82,64,111,13,80,71,080,17,81,33,036,21,71,16,278,12*65

5:28:44:406 Nachm. 03/26/17 - $GLGSV,3,2,09,72,18,330,12,73,48,309,,79,14,112,,65,01,012,*68

5:28:44:407 Nachm. 03/26/17 - $GLGSV,3,3,09,83,26,178,*5D

5:28:44:412 Nachm. 03/26/17 - $GPGGA,152841.0,5208.388452,N,01138.448062,E,1,06,1.9,83.7,M,45.0,M,,*6C

5:28:44:413 Nachm. 03/26/17 - $GNGNS,152841.0,5208.388452,N,01138.448062,E,AN,06,1.9,83.7,45.0,,*57

5:28:44:413 Nachm. 03/26/17 - $GPVTG,118.0,T,117.6,M,0.0,N,0.0,K,A*2A

5:28:44:413 Nachm. 03/26/17 - $GPRMC,152841.0,A,5208.388452,N,01138.448062,E,0.0,118.0,260317,0.4,E,A*0B

5:28:44:414 Nachm. 03/26/17 - $GPGSA,A,2,02,12,14,24,25,32,,,,,,,2.1,1.9,0.9*35

5:28:44:414 Nachm. 03/26/17 - $GNGSA,A,2,02,12,14,24,25,32,,,,,,,2.1,1.9,0.9*2B

5:28:44:415 Nachm. 03/26/17 - $GNGSA,A,2,,,,,,,,,,,,,2.1,1.9,0.9*2F

5:28:45:387 Nachm. 03/26/17 - $GPGSV,4,1,13,02,27,111,13,12,73,060,21,14,29,303,16,24,42,146,24*74

5:28:45:392 Nachm. 03/26/17 - $GPGSV,4,2,13,25,55,272,21,31,09,306,14,32,35,275,17,03,02,000,*75

5:28:45:393 Nachm. 03/26/17 - $GPGSV,4,3,13,06,26,064,,17,,,,19,15,043,,22,00,338,*49

5:28:45:394 Nachm. 03/26/17 - $GPGSV,4,4,13,29,19,205,*4F

5:28:45:395 Nachm. 03/26/17 - $GLGSV,3,1,09,82,64,111,17,80,71,080,17,81,33,036,19,71,16,278,12*6A

5:28:45:401 Nachm. 03/26/17 - $GLGSV,3,2,09,72,18,330,12,73,48,309,,79,14,112,,65,01,012,*68

5:28:45:403 Nachm. 03/26/17 - $GLGSV,3,3,09,83,26,178,*5D

5:28:45:404 Nachm. 03/26/17 - $GPGGA,152842.0,5208.388425,N,01138.448064,E,1,06,1.9,83.7,M,45.0,M,,*69

5:28:45:407 Nachm. 03/26/17 - $GNGNS,152842.0,5208.388425,N,01138.448064,E,AN,06,1.9,83.7,45.0,,*52

5:28:45:414 Nachm. 03/26/17 - $GPVTG,118.0,T,117.6,M,0.0,N,0.0,K,A*2A

5:28:45:415 Nachm. 03/26/17 - $GPRMC,152842.0,A,5208.388425,N,01138.448064,E,0.0,118.0,260317,0.4,E,A*0E

5:28:45:416 Nachm. 03/26/17 - $GPGSA,A,2,02,12,14,24,25,32,,,,,,,2.1,1.9,0.9*35

5:28:45:417 Nachm. 03/26/17 - $GNGSA,A,2,02,12,14,24,25,32,,,,,,,2.1,1.9,0.9*2B

5:28:45:417 Nachm. 03/26/17 - $GNGSA,A,2,,,,,,,,,,,,,2.1,1.9,0.9*2F

5:28:46:388 Nachm. 03/26/17 - $GPGSV,4,1,13,02,27,111,13,12,73,060,23,14,29,303,16,24,42,146,25*77

5:28:46:389 Nachm. 03/26/17 - $GPGSV,4,2,13,25,55,272,21,31,09,306,14,32,35,275,17,03,02,000,*75

5:28:46:389 Nachm. 03/26/17 - $GPGSV,4,3,13,06,26,064,,17,,,,19,15,043,,22,00,338,*49

5:28:46:390 Nachm. 03/26/17 - $GPGSV,4,4,13,29,19,205,*4F

5:28:46:390 Nachm. 03/26/17 - $GLGSV,3,1,09,82,64,111,19,80,71,080,17,81,33,036,21,71,16,278,12*6F

5:28:46:391 Nachm. 03/26/17 - $GLGSV,3,2,09,72,18,330,12,73,48,309,,79,14,112,,65,01,012,*68

5:28:46:392 Nachm. 03/26/17 - $GLGSV,3,3,09,83,26,178,*5D

5:28:46:392 Nachm. 03/26/17 - $GPGGA,152843.0,5208.388434,N,01138.448062,E,1,06,1.9,83.7,M,45.0,M,,*6E

5:28:46:393 Nachm. 03/26/17 - $GNGNS,152843.0,5208.388434,N,01138.448062,E,AN,06,1.9,83.7,45.0,,*55

5:28:46:393 Nachm. 03/26/17 - $GPVTG,118.0,T,117.6,M,0.0,N,0.0,K,A*2A

5:28:46:394 Nachm. 03/26/17 - $GPRMC,152843.0,A,5208.388434,N,01138.448062,E,0.0,118.0,260317,0.4,E,A*09

5:28:46:395 Nachm. 03/26/17 - $GPGSA,A,2,02,12,14,24,25,32,,,,,,,2.1,1.9,0.9*35

5:28:46:395 Nachm. 03/26/17 - $GNGSA,A,2,02,12,14,24,25,32,,,,,,,2.1,1.9,0.9*2B

5:28:46:396 Nachm. 03/26/17 - $GNGSA,A,2,,,,,,,,,,,,,2.1,1.9,0.9*2F

5:28:47:389 Nachm. 03/26/17 - $GPGSV,4,1,13,02,27,111,13,12,73,060,22,14,29,303,16,24,42,146,23*70

5:28:47:398 Nachm. 03/26/17 - $GPGSV,4,2,13,25,55,272,22,31,09,306,14,32,35,275,17,03,02,000,*76

5:28:47:399 Nachm. 03/26/17 - $GPGSV,4,3,13,06,26,064,,17,,,,19,15,043,,22,00,338,*49

5:28:47:401 Nachm. 03/26/17 - $GPGSV,4,4,13,29,19,205,*4F

5:28:47:401 Nachm. 03/26/17 - $GLGSV,3,1,09,82,64,111,19,80,71,080,17,81,33,036,18,71,16,278,12*65

5:28:47:409 Nachm. 03/26/17 - $GLGSV,3,2,09,72,18,330,12,73,48,309,,79,14,112,,65,01,012,*68

5:28:47:416 Nachm. 03/26/17 - $GLGSV,3,3,09,83,26,178,*5D

5:28:47:417 Nachm. 03/26/17 - $GPGGA,152844.0,5208.388443,N,01138.448068,E,1,06,1.9,83.7,M,45.0,M,,*63

5:28:47:417 Nachm. 03/26/17 - $GNGNS,152844.0,5208.388443,N,01138.448068,E,AN,06,1.9,83.7,45.0,,*58

5:28:47:418 Nachm. 03/26/17 - $GPVTG,118.0,T,117.6,M,0.0,N,0.0,K,A*2A

5:28:47:418 Nachm. 03/26/17 - $GPRMC,152844.0,A,5208.388443,N,01138.448068,E,0.0,118.0,260317,0.4,E,A*04

5:28:47:419 Nachm. 03/26/17 - $GPGSA,A,2,02,12,14,24,25,32,,,,,,,2.1,1.9,0.9*35

5:28:47:419 Nachm. 03/26/17 - $GNGSA,A,2,02,12,14,24,25,32,,,,,,,2.1,1.9,0.9*2B

5:28:47:420 Nachm. 03/26/17 - $GNGSA,A,2,,,,,,,,,,,,,2.1,1.9,0.9*2F

5:28:48:389 Nachm. 03/26/17 - $GPGSV,4,1,13,02,27,111,13,12,73,060,23,14,29,303,16,24,42,146,23*71

5:28:48:390 Nachm. 03/26/17 - $GPGSV,4,2,13,25,55,272,21,31,09,306,14,32,35,275,17,03,02,000,*75

5:28:48:391 Nachm. 03/26/17 - $GPGSV,4,3,13,06,26,064,,17,,,,19,15,043,,22,00,338,*49

5:28:48:393 Nachm. 03/26/17 - $GPGSV,4,4,13,29,19,205,*4F

5:28:48:394 Nachm. 03/26/17 - $GLGSV,3,1,09,82,64,111,19,80,71,080,10,81,33,036,19,71,16,278,12*63

5:28:48:405 Nachm. 03/26/17 - $GLGSV,3,2,09,72,18,330,12,73,48,309,,79,14,112,,65,01,012,*68

5:28:48:407 Nachm. 03/26/17 - $GLGSV,3,3,09,83,26,178,*5D

5:28:48:409 Nachm. 03/26/17 - $GPGGA,152845.0,5208.388439,N,01138.448071,E,1,06,1.9,83.7,M,45.0,M,,*67

5:28:48:409 Nachm. 03/26/17 - $GNGNS,152845.0,5208.388439,N,01138.448071,E,AN,06,1.9,83.7,45.0,,*5C

5:28:48:410 Nachm. 03/26/17 - $GPVTG,118.0,T,117.6,M,0.0,N,0.0,K,A*2A

5:28:48:411 Nachm. 03/26/17 - $GPRMC,152845.0,A,5208.388439,N,01138.448071,E,0.0,118.0,260317,0.4,E,A*00

5:28:48:411 Nachm. 03/26/17 - $GPGSA,A,2,02,12,14,24,25,32,,,,,,,2.1,1.9,0.9*35

5:28:48:412 Nachm. 03/26/17 - $GNGSA,A,2,02,12,14,24,25,32,,,,,,,2.1,1.9,0.9*2B

5:28:48:412 Nachm. 03/26/17 - $GNGSA,A,2,,,,,,,,,,,,,2.1,1.9,0.9*2F

5:28:49:390 Nachm. 03/26/17 - $GPGSV,4,1,13,02,27,111,13,12,73,060,22,14,29,303,15,24,42,146,24*74

5:28:49:391 Nachm. 03/26/17 - $GPGSV,4,2,13,25,55,272,22,31,09,306,14,32,35,275,17,03,02,000,*76

5:28:49:391 Nachm. 03/26/17 - $GPGSV,4,3,13,06,26,064,,17,,,,19,15,043,,22,00,338,*49

5:28:49:393 Nachm. 03/26/17 - $GPGSV,4,4,13,29,19,205,*4F

5:28:49:403 Nachm. 03/26/17 - $GLGSV,3,1,09,82,64,111,20,80,71,080,10,81,33,036,18,71,16,278,12*68

5:28:49:404 Nachm. 03/26/17 - $GLGSV,3,2,09,72,18,330,12,73,48,309,,79,14,112,,65,01,012,*68

5:28:49:407 Nachm. 03/26/17 - $GLGSV,3,3,09,83,26,178,*5D

5:28:49:410 Nachm. 03/26/17 - $GPGGA,152846.0,5208.388465,N,01138.448069,E,1,05,2.1,83.7,M,45.0,M,,*6C

5:28:49:410 Nachm. 03/26/17 - $GNGNS,152846.0,5208.388465,N,01138.448069,E,AN,05,2.1,83.7,45.0,,*57

5:28:49:410 Nachm. 03/26/17 - $GPVTG,118.0,T,117.6,M,0.0,N,0.0,K,A*2A

5:28:49:410 Nachm. 03/26/17 - $GPRMC,152846.0,A,5208.388465,N,01138.448069,E,0.0,118.0,260317,0.4,E,A*03

5:28:49:410 Nachm. 03/26/17 - $GPGSA,A,2,12,14,24,25,32,,,,,,,,2.3,2.1,1.0*36

5:28:49:411 Nachm. 03/26/17 - $GNGSA,A,2,12,14,24,25,32,,,,,,,,2.3,2.1,1.0*28

5:28:49:411 Nachm. 03/26/17 - $GNGSA,A,2,,,,,,,,,,,,,2.3,2.1,1.0*2E

5:28:50:388 Nachm. 03/26/17 - $GPGSV,4,1,13,02,27,111,13,12,73,060,21,14,29,303,15,24,42,146,24*77

5:28:50:390 Nachm. 03/26/17 - $GPGSV,4,2,13,25,55,272,21,31,09,306,14,32,35,275,17,03,02,000,*75

5:28:50:392 Nachm. 03/26/17 - $GPGSV,4,3,13,06,26,064,,17,,,,19,15,043,,22,00,338,*49

5:28:50:394 Nachm. 03/26/17 - $GPGSV,4,4,13,29,19,205,*4F

5:28:50:394 Nachm. 03/26/17 - $GLGSV,3,1,09,82,64,111,17,80,71,080,10,81,33,036,19,71,16,278,12*6D

5:28:50:395 Nachm. 03/26/17 - $GLGSV,3,2,09,72,18,330,12,73,48,309,,79,14,112,,65,01,012,*68

5:28:50:396 Nachm. 03/26/17 - $GLGSV,3,3,09,83,26,178,*5D

5:28:50:406 Nachm. 03/26/17 - $GPGGA,152847.0,5208.388479,N,01138.448066,E,1,05,2.1,83.7,M,45.0,M,,*6F

5:28:50:407 Nachm. 03/26/17 - $GNGNS,152847.0,5208.388479,N,01138.448066,E,AN,05,2.1,83.7,45.0,,*54

5:28:50:409 Nachm. 03/26/17 - $GPVTG,118.0,T,117.6,M,0.0,N,0.0,K,A*2A

5:28:50:409 Nachm. 03/26/17 - $GPRMC,152847.0,A,5208.388479,N,01138.448066,E,0.0,118.0,260317,0.4,E,A*00

5:28:50:410 Nachm. 03/26/17 - $GPGSA,A,2,12,14,24,25,32,,,,,,,,2.3,2.1,1.0*36

5:28:50:410 Nachm. 03/26/17 - $GNGSA,A,2,12,14,24,25,32,,,,,,,,2.3,2.1,1.0*28

5:28:50:410 Nachm. 03/26/17 - $GNGSA,A,2,,,,,,,,,,,,,2.3,2.1,1.0*2E

5:28:51:388 Nachm. 03/26/17 - $GPGSV,4,1,13,02,27,111,13,12,73,060,21,14,29,303,15,24,42,146,23*70

5:28:51:389 Nachm. 03/26/17 - $GPGSV,4,2,13,25,55,272,22,31,09,306,14,32,35,275,17,03,02,000,*76

5:28:51:392 Nachm. 03/26/17 - $GPGSV,4,3,13,06,26,064,,17,,,,19,15,043,,22,00,338,*49

5:28:51:394 Nachm. 03/26/17 - $GPGSV,4,4,13,29,19,205,*4F

5:28:51:395 Nachm. 03/26/17 - $GLGSV,3,1,09,82,64,111,16,80,71,080,10,81,33,036,21,71,16,278,12*67

5:28:51:397 Nachm. 03/26/17 - $GLGSV,3,2,09,72,18,330,12,73,48,309,,79,14,112,,65,01,012,*68

5:28:51:399 Nachm. 03/26/17 - $GLGSV,3,3,09,83,26,178,*5D

5:28:51:401 Nachm. 03/26/17 - $GPGGA,152848.0,5208.388513,N,01138.448063,E,1,04,2.5,83.7,M,45.0,M,,*6D

5:28:51:408 Nachm. 03/26/17 - $GNGNS,152848.0,5208.388513,N,01138.448063,E,AN,04,2.5,83.7,45.0,,*56

5:28:51:409 Nachm. 03/26/17 - $GPVTG,118.0,T,117.6,M,0.0,N,0.0,K,A*2A

5:28:51:409 Nachm. 03/26/17 - $GPRMC,152848.0,A,5208.388513,N,01138.448063,E,0.0,118.0,260317,0.4,E,A*07

5:28:51:410 Nachm. 03/26/17 - $GPGSA,A,2,12,14,24,25,,,,,,,,,2.7,2.5,1.0*37

5:28:51:411 Nachm. 03/26/17 - $GNGSA,A,2,12,14,24,25,,,,,,,,,2.7,2.5,1.0*29

5:28:51:412 Nachm. 03/26/17 - $GNGSA,A,2,,,,,,,,,,,,,2.7,2.5,1.0*2E


