6:03:41:382 Nachm. 03/26/17 - $GPGSV,3,1,11,02,36,095,25,06,24,049,30,12,58,078,29,14,31,286,19*70

6:03:41:388 Nachm. 03/26/17 - $GPGSV,3,2,11,25,71,288,22,31,24,307,21,32,29,257,23,03,01,347,*71

6:03:41:388 Nachm. 03/26/17 - $GPGSV,3,3,11,19,01,045,,24,26,150,,29,35,209,*41

6:03:41:390 Nachm. 03/26/17 - $GLGSV,3,1,10,82,62,063,30,73,66,320,18,80,56,113,23,81,16,030,22*66

6:03:41:390 Nachm. 03/26/17 - $GLGSV,3,2,10,74,09,307,,79,,,,65,10,000,,83,45,178,*53

6:03:41:391 Nachm. 03/26/17 - $GLGSV,3,3,10,71,03,265,,72,16,312,*62

6:03:41:391 Nachm. 03/26/17 - $GPGGA,160338.0,5208.367788,N,01138.693503,E,1,07,1.5,55.0,M,45.0,M,,*6A

6:03:41:391 Nachm. 03/26/17 - $GNGNS,160338.0,5208.367788,N,01138.693503,E,AA,09,1.5,55.0,45.0,,*50

6:03:41:391 Nachm. 03/26/17 - $GPVTG,307.5,T,307.0,M,1.3,N,2.3,K,A*25

6:03:41:391 Nachm. 03/26/17 - $GPRMC,160338.0,A,5208.367788,N,01138.693503,E,1.3,307.5,260317,0.4,E,A*07

6:03:41:391 Nachm. 03/26/17 - $GPGSA,A,2,02,06,12,14,25,31,32,,,,,,1.7,1.5,0.9*3E

6:03:41:392 Nachm. 03/26/17 - $GNGSA,A,2,02,06,12,14,25,31,32,,,,,,1.7,1.5,0.9*20

6:03:41:392 Nachm. 03/26/17 - $GNGSA,A,2,73,82,,,,,,,,,,,1.7,1.5,0.9*28

6:03:42:382 Nachm. 03/26/17 - $GPGSV,3,1,11,02,36,095,23,06,24,049,28,12,58,078,27,14,31,286,18*70

6:03:42:384 Nachm. 03/26/17 - $GPGSV,3,2,11,25,71,288,23,29,35,209,17,31,24,307,21,32,29,257,22*73

6:03:42:384 Nachm. 03/26/17 - $GPGSV,3,3,11,03,01,347,,19,01,045,,24,26,150,*45

6:03:42:384 Nachm. 03/26/17 - $GLGSV,3,1,10,82,62,063,28,73,66,320,19,80,56,113,24,65,10,000,17*60

6:03:42:384 Nachm. 03/26/17 - $GLGSV,3,2,10,81,16,030,23,74,09,307,,79,,,,83,45,178,*5D

6:03:42:385 Nachm. 03/26/17 - $GLGSV,3,3,10,71,03,265,,72,16,312,*62

6:03:42:385 Nachm. 03/26/17 - $GPGGA,160339.0,5208.366351,N,01138.693946,E,1,08,1.0,56.7,M,45.0,M,,*69

6:03:42:388 Nachm. 03/26/17 - $GNGNS,160339.0,5208.366351,N,01138.693946,E,AA,11,1.0,56.7,45.0,,*55

6:03:42:389 Nachm. 03/26/17 - $GPVTG,307.5,T,307.0,M,1.0,N,1.8,K,A*2E

6:03:42:389 Nachm. 03/26/17 - $GPRMC,160339.0,A,5208.366351,N,01138.693946,E,1.0,307.5,260317,0.4,E,A*09

6:03:42:389 Nachm. 03/26/17 - $GPGSA,A,2,02,06,12,14,25,29,31,32,,,,,1.3,1.0,0.8*35

6:03:42:389 Nachm. 03/26/17 - $GNGSA,A,2,02,06,12,14,25,29,31,32,,,,,1.3,1.0,0.8*2B

6:03:42:389 Nachm. 03/26/17 - $GNGSA,A,2,65,73,82,,,,,,,,,,1.3,1.0,0.8*2B

6:03:43:383 Nachm. 03/26/17 - $GPGSV,3,1,11,02,36,095,19,06,24,049,29,12,58,078,21,14,31,286,17*71

6:03:43:383 Nachm. 03/26/17 - $GPGSV,3,2,11,25,71,288,25,29,35,209,18,31,24,307,21,32,29,257,25*7D

6:03:43:383 Nachm. 03/26/17 - $GPGSV,3,3,11,03,01,347,,19,01,045,,24,26,150,*45

6:03:43:386 Nachm. 03/26/17 - $GLGSV,3,1,10,82,62,063,27,73,66,320,19,80,56,113,24,65,10,000,18*60

6:03:43:386 Nachm. 03/26/17 - $GLGSV,3,2,10,81,16,030,22,74,09,307,,79,,,,83,45,178,*5C

6:03:43:386 Nachm. 03/26/17 - $GLGSV,3,3,10,71,03,265,,72,16,312,*62

6:03:43:387 Nachm. 03/26/17 - $GPGGA,160340.0,5208.368655,N,01138.691928,E,1,08,1.0,56.1,M,45.0,M,,*64

6:03:43:392 Nachm. 03/26/17 - $GNGNS,160340.0,5208.368655,N,01138.691928,E,AA,11,1.0,56.1,45.0,,*58

6:03:43:396 Nachm. 03/26/17 - $GPVTG,307.5,T,307.0,M,1.0,N,1.9,K,A*2F

6:03:43:396 Nachm. 03/26/17 - $GPRMC,160340.0,A,5208.368655,N,01138.691928,E,1.0,307.5,260317,0.4,E,A*02

6:03:43:397 Nachm. 03/26/17 - $GPGSA,A,2,02,06,12,14,25,29,31,32,,,,,1.3,1.0,0.8*35

6:03:43:397 Nachm. 03/26/17 - $GNGSA,A,2,02,06,12,14,25,29,31,32,,,,,1.3,1.0,0.8*2B

6:03:43:397 Nachm. 03/26/17 - $GNGSA,A,2,65,73,82,,,,,,,,,,1.3,1.0,0.8*2B

6:03:44:383 Nachm. 03/26/17 - $GPGSV,3,1,11,02,36,095,27,06,24,049,31,12,58,078,30,14,31,286,16*74

6:03:44:383 Nachm. 03/26/17 - $GPGSV,3,2,11,25,71,288,27,29,35,209,23,31,24,307,25,32,29,257,21*77

6:03:44:384 Nachm. 03/26/17 - $GPGSV,3,3,11,03,01,347,,19,01,045,,24,26,150,*45

6:03:44:384 Nachm. 03/26/17 - $GLGSV,3,1,10,82,62,063,30,73,66,320,18,80,56,113,21,65,10,000,19*63

6:03:44:384 Nachm. 03/26/17 - $GLGSV,3,2,10,81,16,030,20,74,09,307,,79,,,,83,45,178,*5E

6:03:44:384 Nachm. 03/26/17 - $GLGSV,3,3,10,71,03,265,,72,16,312,*62

6:03:44:386 Nachm. 03/26/17 - $GPGGA,160341.0,5208.367999,N,01138.692253,E,1,08,1.0,48.7,M,45.0,M,,*68

6:03:44:387 Nachm. 03/26/17 - $GNGNS,160341.0,5208.367999,N,01138.692253,E,AA,11,1.0,48.7,45.0,,*54

6:03:44:387 Nachm. 03/26/17 - $GPVTG,307.5,T,307.0,M,0.0,N,0.0,K,A*26

6:03:44:387 Nachm. 03/26/17 - $GPRMC,160341.0,A,5208.367999,N,01138.692253,E,0.0,307.5,260317,0.4,E,A*06

6:03:44:387 Nachm. 03/26/17 - $GPGSA,A,2,02,06,12,14,25,29,31,32,,,,,1.3,1.0,0.8*35

6:03:44:387 Nachm. 03/26/17 - $GNGSA,A,2,02,06,12,14,25,29,31,32,,,,,1.3,1.0,0.8*2B

6:03:44:388 Nachm. 03/26/17 - $GNGSA,A,2,65,73,82,,,,,,,,,,1.3,1.0,0.8*2B

6:03:45:385 Nachm. 03/26/17 - $GPGSV,3,1,11,02,36,095,19,06,24,049,28,12,58,078,24,14,31,286,16*74

6:03:45:403 Nachm. 03/26/17 - $GPGSV,3,2,11,25,71,288,26,29,35,209,20,31,24,307,19,32,29,257,22*79

6:03:45:403 Nachm. 03/26/17 - $GPGSV,3,3,11,03,01,347,,19,01,045,,24,26,150,*45

6:03:45:403 Nachm. 03/26/17 - $GLGSV,3,1,10,82,62,063,21,73,66,320,19,80,56,113,22,65,10,000,19*61

6:03:45:403 Nachm. 03/26/17 - $GLGSV,3,2,10,83,45,178,14,81,16,030,25,74,09,307,,79,,,*5E

6:03:45:403 Nachm. 03/26/17 - $GLGSV,3,3,10,71,03,265,,72,16,312,*62

6:03:45:403 Nachm. 03/26/17 - $GPGGA,160342.0,5208.368258,N,01138.691694,E,1,08,1.0,49.8,M,45.0,M,,*60

6:03:45:404 Nachm. 03/26/17 - $GNGNS,160342.0,5208.368258,N,01138.691694,E,AA,11,1.0,49.8,45.0,,*5C

6:03:45:404 Nachm. 03/26/17 - $GPVTG,307.5,T,307.0,M,0.0,N,0.0,K,A*26

6:03:45:404 Nachm. 03/26/17 - $GPRMC,160342.0,A,5208.368258,N,01138.691694,E,0.0,307.5,260317,0.4,E,A*00

6:03:45:404 Nachm. 03/26/17 - $GPGSA,A,2,02,06,12,14,25,29,31,32,,,,,1.3,1.0,0.8*35

6:03:45:404 Nachm. 03/26/17 - $GNGSA,A,2,02,06,12,14,25,29,31,32,,,,,1.3,1.0,0.8*2B

6:03:45:405 Nachm. 03/26/17 - $GNGSA,A,2,65,73,82,,,,,,,,,,1.3,1.0,0.8*2B

6:03:46:383 Nachm. 03/26/17 - $GPGSV,3,1,11,02,36,095,23,06,24,049,27,12,58,078,25,14,31,286,17*72

6:03:46:384 Nachm. 03/26/17 - $GPGSV,3,2,11,25,71,288,26,29,35,209,19,31,24,307,18,32,29,257,19*7A

6:03:46:384 Nachm. 03/26/17 - $GPGSV,3,3,11,03,01,347,,19,01,045,,24,26,150,*45

6:03:46:384 Nachm. 03/26/17 - $GLGSV,3,1,10,82,62,063,17,73,66,320,20,80,56,113,23,65,10,000,19*6F

6:03:46:384 Nachm. 03/26/17 - $GLGSV,3,2,10,83,45,178,13,81,16,030,27,72,16,312,13,74,09,307,*65

6:03:46:387 Nachm. 03/26/17 - $GLGSV,3,3,10,79,,,,71,03,265,*5E

6:03:46:387 Nachm. 03/26/17 - $GPGGA,160343.0,5208.369032,N,01138.691343,E,1,08,1.0,49.9,M,45.0,M,,*60

6:03:46:387 Nachm. 03/26/17 - $GNGNS,160343.0,5208.369032,N,01138.691343,E,AA,11,1.0,49.9,45.0,,*5C

6:03:46:387 Nachm. 03/26/17 - $GPVTG,307.5,T,307.0,M,0.0,N,0.0,K,A*26

6:03:46:388 Nachm. 03/26/17 - $GPRMC,160343.0,A,5208.369032,N,01138.691343,E,0.0,307.5,260317,0.4,E,A*01

6:03:46:388 Nachm. 03/26/17 - $GPGSA,A,2,02,06,12,14,25,29,31,32,,,,,1.3,1.0,0.8*35

6:03:46:388 Nachm. 03/26/17 - $GNGSA,A,2,02,06,12,14,25,29,31,32,,,,,1.3,1.0,0.8*2B

6:03:46:388 Nachm. 03/26/17 - $GNGSA,A,2,65,73,82,,,,,,,,,,1.3,1.0,0.8*2B

6:03:47:384 Nachm. 03/26/17 - $GPGSV,3,1,11,02,36,095,24,06,24,049,29,12,58,078,23,14,31,286,17*7D

6:03:47:385 Nachm. 03/26/17 - $GPGSV,3,2,11,25,71,288,28,29,35,209,23,31,24,307,23,32,29,257,22*7D

6:03:47:385 Nachm. 03/26/17 - $GPGSV,3,3,11,03,01,347,,19,01,045,,24,26,150,*45

6:03:47:385 Nachm. 03/26/17 - $GLGSV,3,1,10,82,62,063,24,73,66,320,25,80,56,113,23,65,10,000,25*65

6:03:47:386 Nachm. 03/26/17 - $GLGSV,3,2,10,83,45,178,13,81,16,030,29,72,16,312,14,74,09,307,*6C

6:03:47:386 Nachm. 03/26/17 - $GLGSV,3,3,10,79,,,,71,03,265,*5E

6:03:47:386 Nachm. 03/26/17 - $GPGGA,160344.0,5208.368128,N,01138.692859,E,1,08,1.0,52.4,M,45.0,M,,*68

6:03:47:386 Nachm. 03/26/17 - $GNGNS,160344.0,5208.368128,N,01138.692859,E,AA,11,1.0,52.4,45.0,,*54

6:03:47:388 Nachm. 03/26/17 - $GPVTG,307.5,T,307.0,M,0.0,N,0.0,K,A*26

6:03:47:388 Nachm. 03/26/17 - $GPRMC,160344.0,A,5208.368128,N,01138.692859,E,0.0,307.5,260317,0.4,E,A*0E

6:03:47:390 Nachm. 03/26/17 - $GPGSA,A,2,02,06,12,14,25,29,31,32,,,,,1.3,1.0,0.8*35

6:03:47:390 Nachm. 03/26/17 - $GNGSA,A,2,02,06,12,14,25,29,31,32,,,,,1.3,1.0,0.8*2B

6:03:47:390 Nachm. 03/26/17 - $GNGSA,A,2,65,73,82,,,,,,,,,,1.3,1.0,0.8*2B

6:03:48:383 Nachm. 03/26/17 - $GPGSV,3,1,11,02,36,095,25,06,24,049,28,12,58,078,27,14,31,286,16*78

6:03:48:384 Nachm. 03/26/17 - $GPGSV,3,2,11,25,71,288,25,29,35,209,25,31,24,307,21,32,29,257,23*75

6:03:48:384 Nachm. 03/26/17 - $GPGSV,3,3,11,03,01,347,,19,01,045,,24,26,150,*45

6:03:48:384 Nachm. 03/26/17 - $GLGSV,3,1,10,82,62,063,16,73,66,320,24,80,56,113,22,65,10,000,25*64

6:03:48:385 Nachm. 03/26/17 - $GLGSV,3,2,10,83,45,178,13,81,16,030,30,72,16,312,14,74,09,307,*64

6:03:48:385 Nachm. 03/26/17 - $GLGSV,3,3,10,79,,,,71,03,265,*5E

6:03:48:386 Nachm. 03/26/17 - $GPGGA,160345.0,5208.368563,N,01138.692692,E,1,08,1.0,52.4,M,45.0,M,,*6B

6:03:48:386 Nachm. 03/26/17 - $GNGNS,160345.0,5208.368563,N,01138.692692,E,AA,11,1.0,52.4,45.0,,*57

6:03:48:386 Nachm. 03/26/17 - $GPVTG,307.5,T,307.0,M,0.0,N,0.0,K,A*26

6:03:48:386 Nachm. 03/26/17 - $GPRMC,160345.0,A,5208.368563,N,01138.692692,E,0.0,307.5,260317,0.4,E,A*0D

6:03:48:386 Nachm. 03/26/17 - $GPGSA,A,2,02,06,12,14,25,29,31,32,,,,,1.3,1.0,0.8*35

6:03:48:387 Nachm. 03/26/17 - $GNGSA,A,2,02,06,12,14,25,29,31,32,,,,,1.3,1.0,0.8*2B

6:03:48:387 Nachm. 03/26/17 - $GNGSA,A,2,65,73,82,,,,,,,,,,1.3,1.0,0.8*2B

6:03:49:384 Nachm. 03/26/17 - $GPGSV,3,1,11,02,36,095,28,06,24,049,29,12,58,078,27,14,31,286,16*74

6:03:49:384 Nachm. 03/26/17 - $GPGSV,3,2,11,25,71,288,27,29,35,209,23,31,24,307,22,32,29,257,24*75

6:03:49:384 Nachm. 03/26/17 - $GPGSV,3,3,11,03,01,347,,19,01,045,,24,26,150,*45

6:03:49:384 Nachm. 03/26/17 - $GLGSV,3,1,10,82,62,063,21,73,66,320,21,80,56,113,22,65,10,000,25*65

6:03:49:386 Nachm. 03/26/17 - $GLGSV,3,2,10,83,45,178,13,81,16,030,27,72,16,312,14,74,09,307,*62

6:03:49:386 Nachm. 03/26/17 - $GLGSV,3,3,10,79,,,,71,03,265,*5E

6:03:49:386 Nachm. 03/26/17 - $GPGGA,160346.0,5208.369006,N,01138.693098,E,1,08,1.0,52.3,M,45.0,M,,*65

6:03:49:386 Nachm. 03/26/17 - $GNGNS,160346.0,5208.369006,N,01138.693098,E,AA,11,1.0,52.3,45.0,,*59

6:03:49:386 Nachm. 03/26/17 - $GPVTG,307.5,T,307.0,M,0.0,N,0.0,K,A*26

6:03:49:386 Nachm. 03/26/17 - $GPRMC,160346.0,A,5208.369006,N,01138.693098,E,0.0,307.5,260317,0.4,E,A*04

6:03:49:386 Nachm. 03/26/17 - $GPGSA,A,2,02,06,12,14,25,29,31,32,,,,,1.3,1.0,0.8*35

6:03:49:386 Nachm. 03/26/17 - $GNGSA,A,2,02,06,12,14,25,29,31,32,,,,,1.3,1.0,0.8*2B

6:03:49:386 Nachm. 03/26/17 - $GNGSA,A,2,65,73,82,,,,,,,,,,1.3,1.0,0.8*2B

6:03:50:383 Nachm. 03/26/17 - $GPGSV,3,1,11,02,36,095,28,06,24,049,28,12,58,078,27,14,31,286,16*75

6:03:50:384 Nachm. 03/26/17 - $GPGSV,3,2,11,25,71,288,26,29,35,209,26,31,24,307,20,32,29,257,24*73

6:03:50:384 Nachm. 03/26/17 - $GPGSV,3,3,11,03,01,347,,19,01,045,,24,26,150,*45

6:03:50:384 Nachm. 03/26/17 - $GLGSV,3,1,10,82,62,063,24,73,66,320,22,80,56,113,21,65,10,000,25*60

6:03:50:384 Nachm. 03/26/17 - $GLGSV,3,2,10,83,45,178,13,81,16,030,24,72,16,312,14,74,09,307,*61

6:03:50:385 Nachm. 03/26/17 - $GLGSV,3,3,10,79,,,,71,03,265,*5E

6:03:50:385 Nachm. 03/26/17 - $GPGGA,160347.0,5208.369535,N,01138.693545,E,1,08,1.0,52.1,M,45.0,M,,*66

6:03:50:386 Nachm. 03/26/17 - $GNGNS,160347.0,5208.369535,N,01138.693545,E,AA,11,1.0,52.1,45.0,,*5A

6:03:50:386 Nachm. 03/26/17 - $GPVTG,307.5,T,307.0,M,0.0,N,0.0,K,A*26

6:03:50:386 Nachm. 03/26/17 - $GPRMC,160347.0,A,5208.369535,N,01138.693545,E,0.0,307.5,260317,0.4,E,A*05

6:03:50:386 Nachm. 03/26/17 - $GPGSA,A,2,02,06,12,14,25,29,31,32,,,,,1.3,1.0,0.8*35

6:03:50:387 Nachm. 03/26/17 - $GNGSA,A,2,02,06,12,14,25,29,31,32,,,,,1.3,1.0,0.8*2B

6:03:50:387 Nachm. 03/26/17 - $GNGSA,A,2,65,73,82,,,,,,,,,,1.3,1.0,0.8*2B

6:03:51:384 Nachm. 03/26/17 - $GPGSV,3,1,11,02,36,095,27,06,24,049,28,12,58,078,27,14,31,286,16*7A

6:03:51:385 Nachm. 03/26/17 - $GPGSV,3,2,11,24,26,150,13,25,71,288,25,29,35,209,25,31,24,307,20*7B

6:03:51:385 Nachm. 03/26/17 - $GPGSV,3,3,11,32,29,257,23,03,01,347,,19,01,045,*48

6:03:51:389 Nachm. 03/26/17 - $GLGSV,3,1,10,82,62,063,27,73,66,320,22,80,56,113,21,65,10,000,16*63

6:03:51:390 Nachm. 03/26/17 - $GLGSV,3,2,10,83,45,178,13,81,16,030,25,72,16,312,14,74,09,307,*60

6:03:51:390 Nachm. 03/26/17 - $GLGSV,3,3,10,79,,,,71,03,265,*5E

6:03:51:390 Nachm. 03/26/17 - $GPGGA,160348.0,5208.369938,N,01138.693825,E,1,09,0.8,52.4,M,45.0,M,,*6E

6:03:51:392 Nachm. 03/26/17 - $GNGNS,160348.0,5208.369938,N,01138.693825,E,AA,12,0.8,52.4,45.0,,*50

6:03:51:392 Nachm. 03/26/17 - $GPVTG,307.5,T,307.0,M,0.0,N,0.0,K,A*26

6:03:51:392 Nachm. 03/26/17 - $GPRMC,160348.0,A,5208.369938,N,01138.693825,E,0.0,307.5,260317,0.4,E,A*00

6:03:51:394 Nachm. 03/26/17 - $GPGSA,A,2,02,06,12,14,24,25,29,31,32,,,,1.2,0.8,0.8*3B

6:03:51:398 Nachm. 03/26/17 - $GNGSA,A,2,02,06,12,14,24,25,29,31,32,,,,1.2,0.8,0.8*25

6:03:51:398 Nachm. 03/26/17 - $GNGSA,A,2,65,73,82,,,,,,,,,,1.2,0.8,0.8*23

6:03:52:383 Nachm. 03/26/17 - $GPGSV,3,1,11,02,36,095,28,06,24,049,32,12,58,078,26,14,31,286,16*7F

6:03:52:383 Nachm. 03/26/17 - $GPGSV,3,2,11,24,26,150,13,25,71,288,25,29,35,209,24,31,24,307,24*7E

6:03:52:383 Nachm. 03/26/17 - $GPGSV,3,3,11,32,29,257,24,03,01,347,,19,01,045,*4F

6:03:52:384 Nachm. 03/26/17 - $GLGSV,3,1,10,74,09,307,12,82,62,063,28,73,66,320,21,80,56,113,22*64

6:03:52:385 Nachm. 03/26/17 - $GLGSV,3,2,10,65,10,000,20,83,45,178,13,81,16,030,26,72,16,312,14*6D

6:03:52:385 Nachm. 03/26/17 - $GLGSV,3,3,10,79,,,,71,03,265,*5E

6:03:52:385 Nachm. 03/26/17 - $GPGGA,160349.0,5208.370944,N,01138.693440,E,1,09,0.8,54.7,M,45.0,M,,*66

6:03:52:386 Nachm. 03/26/17 - $GNGNS,160349.0,5208.370944,N,01138.693440,E,AA,12,0.8,54.7,45.0,,*58

6:03:52:390 Nachm. 03/26/17 - $GPVTG,307.5,T,307.0,M,0.0,N,0.0,K,A*26

6:03:52:390 Nachm. 03/26/17 - $GPRMC,160349.0,A,5208.370944,N,01138.693440,E,0.0,307.5,260317,0.4,E,A*0D

6:03:52:391 Nachm. 03/26/17 - $GPGSA,A,2,02,06,12,14,24,25,29,31,32,,,,1.2,0.8,0.8*3B

6:03:52:391 Nachm. 03/26/17 - $GNGSA,A,2,02,06,12,14,24,25,29,31,32,,,,1.2,0.8,0.8*25

6:03:52:391 Nachm. 03/26/17 - $GNGSA,A,2,65,73,82,,,,,,,,,,1.2,0.8,0.8*23

6:03:53:383 Nachm. 03/26/17 - $GPGSV,3,1,11,02,36,095,29,06,24,049,33,12,58,078,27,14,31,286,16*7E

6:03:53:386 Nachm. 03/26/17 - $GPGSV,3,2,11,24,26,150,13,25,71,288,24,29,35,209,24,31,24,307,24*7F

6:03:53:387 Nachm. 03/26/17 - $GPGSV,3,3,11,32,29,257,26,03,01,347,,19,01,045,*4D

6:03:53:388 Nachm. 03/26/17 - $GLGSV,3,1,10,74,09,307,12,82,62,063,28,73,66,320,23,80,56,113,24*60

6:03:53:389 Nachm. 03/26/17 - $GLGSV,3,2,10,65,10,000,21,83,45,178,13,81,16,030,26,72,16,312,14*6C

6:03:53:390 Nachm. 03/26/17 - $GLGSV,3,3,10,79,,,,71,03,265,*5E

6:03:53:394 Nachm. 03/26/17 - $GPGGA,160350.0,5208.370985,N,01138.693877,E,1,09,0.8,55.2,M,45.0,M,,*6F

6:03:53:397 Nachm. 03/26/17 - $GNGNS,160350.0,5208.370985,N,01138.693877,E,AA,12,0.8,55.2,45.0,,*51

6:03:53:400 Nachm. 03/26/17 - $GPVTG,307.5,T,307.0,M,0.0,N,0.0,K,A*26

6:03:53:401 Nachm. 03/26/17 - $GPRMC,160350.0,A,5208.370985,N,01138.693877,E,0.0,307.5,260317,0.4,E,A*00

6:03:53:408 Nachm. 03/26/17 - $GPGSA,A,2,02,06,12,14,24,25,29,31,32,,,,1.2,0.8,0.8*3B

6:03:53:409 Nachm. 03/26/17 - $GNGSA,A,2,02,06,12,14,24,25,29,31,32,,,,1.2,0.8,0.8*25

6:03:53:409 Nachm. 03/26/17 - $GNGSA,A,2,65,73,82,,,,,,,,,,1.2,0.8,0.8*23

6:03:54:384 Nachm. 03/26/17 - $GPGSV,3,1,11,02,36,095,28,06,24,049,32,12,58,078,27,14,31,286,16*7E

6:03:54:385 Nachm. 03/26/17 - $GPGSV,3,2,11,24,26,150,13,25,71,288,25,29,35,209,24,31,24,307,24*7E

6:03:54:389 Nachm. 03/26/17 - $GPGSV,3,3,11,32,29,257,25,03,01,347,,19,01,045,*4E

6:03:54:402 Nachm. 03/26/17 - $GLGSV,3,1,10,74,09,307,17,82,62,063,28,73,66,320,22,80,56,113,24*64

6:03:54:408 Nachm. 03/26/17 - $GLGSV,3,2,10,65,10,000,20,83,45,178,13,81,16,030,27,72,16,312,14*6C

6:03:54:409 Nachm. 03/26/17 - $GLGSV,3,3,10,79,,,,71,03,265,*5E

6:03:54:410 Nachm. 03/26/17 - $GPGGA,160351.0,5208.371232,N,01138.693726,E,1,09,0.8,55.6,M,45.0,M,,*67

6:03:54:410 Nachm. 03/26/17 - $GNGNS,160351.0,5208.371232,N,01138.693726,E,AA,12,0.8,55.6,45.0,,*59

6:03:54:411 Nachm. 03/26/17 - $GPVTG,307.5,T,307.0,M,0.0,N,0.0,K,A*26

6:03:54:411 Nachm. 03/26/17 - $GPRMC,160351.0,A,5208.371232,N,01138.693726,E,0.0,307.5,260317,0.4,E,A*0C

6:03:54:412 Nachm. 03/26/17 - $GPGSA,A,2,02,06,12,14,24,25,29,31,32,,,,1.2,0.8,0.8*3B

6:03:54:413 Nachm. 03/26/17 - $GNGSA,A,2,02,06,12,14,24,25,29,31,32,,,,1.2,0.8,0.8*25

6:03:54:413 Nachm. 03/26/17 - $GNGSA,A,2,65,73,82,,,,,,,,,,1.2,0.8,0.8*23

6:03:55:384 Nachm. 03/26/17 - $GPGSV,3,1,11,02,36,095,28,06,24,049,32,12,58,078,27,14,31,286,17*7F

6:03:55:384 Nachm. 03/26/17 - $GPGSV,3,2,11,24,26,150,13,25,71,288,25,29,35,209,24,31,24,307,23*79

6:03:55:385 Nachm. 03/26/17 - $GPGSV,3,3,11,32,29,257,24,03,01,347,,19,01,045,*4F

6:03:55:386 Nachm. 03/26/17 - $GLGSV,3,1,10,74,09,307,17,82,62,063,26,73,66,320,19,80,56,113,22*64

6:03:55:386 Nachm. 03/26/17 - $GLGSV,3,2,10,65,10,000,16,83,45,178,13,81,16,030,26,72,16,312,16*6A

6:03:55:386 Nachm. 03/26/17 - $GLGSV,3,3,10,79,,,,71,03,265,*5E

6:03:55:387 Nachm. 03/26/17 - $GPGGA,160352.0,5208.371323,N,01138.693724,E,1,09,0.8,55.5,M,45.0,M,,*64

6:03:55:395 Nachm. 03/26/17 - $GNGNS,160352.0,5208.371323,N,01138.693724,E,AA,12,0.8,55.5,45.0,,*5A

6:03:55:395 Nachm. 03/26/17 - $GPVTG,307.5,T,307.0,M,0.0,N,0.0,K,A*26

6:03:55:400 Nachm. 03/26/17 - $GPRMC,160352.0,A,5208.371323,N,01138.693724,E,0.0,307.5,260317,0.4,E,A*0C

6:03:55:400 Nachm. 03/26/17 - $GPGSA,A,2,02,06,12,14,24,25,29,31,32,,,,1.2,0.8,0.8*3B

6:03:55:400 Nachm. 03/26/17 - $GNGSA,A,2,02,06,12,14,24,25,29,31,32,,,,1.2,0.8,0.8*25

6:03:55:400 Nachm. 03/26/17 - $GNGSA,A,2,65,73,82,,,,,,,,,,1.2,0.8,0.8*23

6:03:56:384 Nachm. 03/26/17 - $GPGSV,3,1,11,02,36,095,28,06,24,049,33,12,58,078,27,14,31,286,17*7E

6:03:56:385 Nachm. 03/26/17 - $GPGSV,3,2,11,24,26,150,13,25,71,288,23,29,35,209,24,31,24,307,25*79

6:03:56:385 Nachm. 03/26/17 - $GPGSV,3,3,11,32,29,257,24,03,01,347,,19,01,045,*4F

6:03:56:386 Nachm. 03/26/17 - $GLGSV,3,1,10,74,09,307,18,82,62,063,29,73,66,320,19,80,56,113,25*63

6:03:56:388 Nachm. 03/26/17 - $GLGSV,3,2,10,65,10,000,19,83,45,178,14,81,16,030,28,72,16,312,16*6C

6:03:56:388 Nachm. 03/26/17 - $GLGSV,3,3,10,79,,,,71,03,265,*5E

6:03:56:388 Nachm. 03/26/17 - $GPGGA,160353.0,5208.371454,N,01138.693588,E,1,09,0.8,55.5,M,45.0,M,,*66

6:03:56:390 Nachm. 03/26/17 - $GNGNS,160353.0,5208.371454,N,01138.693588,E,AA,12,0.8,55.5,45.0,,*58

6:03:56:391 Nachm. 03/26/17 - $GPVTG,307.5,T,307.0,M,0.0,N,0.0,K,A*26

6:03:56:391 Nachm. 03/26/17 - $GPRMC,160353.0,A,5208.371454,N,01138.693588,E,0.0,307.5,260317,0.4,E,A*0E

6:03:56:391 Nachm. 03/26/17 - $GPGSA,A,2,02,06,12,14,24,25,29,31,32,,,,1.2,0.8,0.8*3B

6:03:56:391 Nachm. 03/26/17 - $GNGSA,A,2,02,06,12,14,24,25,29,31,32,,,,1.2,0.8,0.8*25

6:03:56:392 Nachm. 03/26/17 - $GNGSA,A,2,65,73,82,,,,,,,,,,1.2,0.8,0.8*23

6:03:57:384 Nachm. 03/26/17 - $GPGSV,3,1,11,02,36,095,27,06,24,049,32,12,58,078,26,14,31,286,17*71

6:03:57:385 Nachm. 03/26/17 - $GPGSV,3,2,11,24,26,150,13,25,71,288,24,29,35,209,24,31,24,307,24*7F

6:03:57:386 Nachm. 03/26/17 - $GPGSV,3,3,11,32,29,257,25,03,01,347,,19,01,045,*4E

6:03:57:396 Nachm. 03/26/17 - $GLGSV,3,1,10,74,09,307,20,82,62,063,27,73,66,320,19,80,56,113,23*60

6:03:57:398 Nachm. 03/26/17 - $GLGSV,3,2,10,65,10,000,19,83,45,178,14,81,16,030,27,72,16,312,16*63

6:03:57:399 Nachm. 03/26/17 - $GLGSV,3,3,10,79,,,,71,03,265,*5E

6:03:57:402 Nachm. 03/26/17 - $GPGGA,160354.0,5208.371455,N,01138.693583,E,1,09,0.8,55.4,M,45.0,M,,*6A

6:03:57:404 Nachm. 03/26/17 - $GNGNS,160354.0,5208.371455,N,01138.693583,E,AA,12,0.8,55.4,45.0,,*54

6:03:57:404 Nachm. 03/26/17 - $GPVTG,307.5,T,307.0,M,0.0,N,0.0,K,A*26

6:03:57:405 Nachm. 03/26/17 - $GPRMC,160354.0,A,5208.371455,N,01138.693583,E,0.0,307.5,260317,0.4,E,A*03

6:03:57:405 Nachm. 03/26/17 - $GPGSA,A,2,02,06,12,14,24,25,29,31,32,,,,1.2,0.8,0.8*3B

6:03:57:406 Nachm. 03/26/17 - $GNGSA,A,2,02,06,12,14,24,25,29,31,32,,,,1.2,0.8,0.8*25

6:03:57:407 Nachm. 03/26/17 - $GNGSA,A,2,65,73,82,,,,,,,,,,1.2,0.8,0.8*23

6:03:58:385 Nachm. 03/26/17 - $GPGSV,3,1,11,02,36,095,28,06,24,049,32,12,58,078,27,14,31,286,17*7F

6:03:58:386 Nachm. 03/26/17 - $GPGSV,3,2,11,24,26,150,13,25,71,288,23,29,35,209,24,31,24,307,25*79

6:03:58:387 Nachm. 03/26/17 - $GPGSV,3,3,11,32,29,257,24,03,01,347,,19,01,045,*4F

6:03:58:387 Nachm. 03/26/17 - $GLGSV,3,1,10,74,09,307,18,82,62,063,27,73,66,320,20,80,56,113,23*61

6:03:58:390 Nachm. 03/26/17 - $GLGSV,3,2,10,65,10,000,14,83,45,178,14,81,16,030,27,72,16,312,16*6E

6:03:58:392 Nachm. 03/26/17 - $GLGSV,3,3,10,79,,,,71,03,265,*5E

6:03:58:400 Nachm. 03/26/17 - $GPGGA,160355.0,5208.371465,N,01138.693593,E,1,09,0.8,55.4,M,45.0,M,,*69

6:03:58:415 Nachm. 03/26/17 - $GNGNS,160355.0,5208.371465,N,01138.693593,E,AA,12,0.8,55.4,45.0,,*57

6:03:58:416 Nachm. 03/26/17 - $GPVTG,307.5,T,307.0,M,0.0,N,0.0,K,A*26

6:03:58:417 Nachm. 03/26/17 - $GPRMC,160355.0,A,5208.371465,N,01138.693593,E,0.0,307.5,260317,0.4,E,A*00

6:03:58:417 Nachm. 03/26/17 - $GPGSA,A,2,02,06,12,14,24,25,29,31,32,,,,1.2,0.8,0.8*3B

6:03:58:418 Nachm. 03/26/17 - $GNGSA,A,2,02,06,12,14,24,25,29,31,32,,,,1.2,0.8,0.8*25

6:03:58:418 Nachm. 03/26/17 - $GNGSA,A,2,65,73,82,,,,,,,,,,1.2,0.8,0.8*23

6:03:59:383 Nachm. 03/26/17 - $GPGSV,3,1,11,02,36,095,28,06,24,049,32,12,58,078,27,14,31,286,19*71

6:03:59:384 Nachm. 03/26/17 - $GPGSV,3,2,11,24,26,150,13,25,71,288,23,29,35,209,24,31,24,307,25*79

6:03:59:384 Nachm. 03/26/17 - $GPGSV,3,3,11,32,29,257,25,03,01,347,,19,01,045,*4E

6:03:59:385 Nachm. 03/26/17 - $GLGSV,3,1,10,74,09,307,18,82,62,063,27,73,66,320,20,80,56,113,23*61

6:03:59:386 Nachm. 03/26/17 - $GLGSV,3,2,10,65,10,000,14,83,45,178,14,81,16,030,26,72,16,312,16*6F

6:03:59:386 Nachm. 03/26/17 - $GLGSV,3,3,10,79,,,,71,03,265,*5E

6:03:59:386 Nachm. 03/26/17 - $GPGGA,160356.0,5208.371467,N,01138.693605,E,1,09,0.8,55.4,M,45.0,M,,*64

6:03:59:388 Nachm. 03/26/17 - $GNGNS,160356.0,5208.371467,N,01138.693605,E,AA,12,0.8,55.4,45.0,,*5A

6:03:59:388 Nachm. 03/26/17 - $GPVTG,307.5,T,307.0,M,0.0,N,0.0,K,A*26

6:03:59:388 Nachm. 03/26/17 - $GPRMC,160356.0,A,5208.371467,N,01138.693605,E,0.0,307.5,260317,0.4,E,A*0D

6:03:59:389 Nachm. 03/26/17 - $GPGSA,A,2,02,06,12,14,24,25,29,31,32,,,,1.2,0.8,0.8*3B

6:03:59:389 Nachm. 03/26/17 - $GNGSA,A,2,02,06,12,14,24,25,29,31,32,,,,1.2,0.8,0.8*25

6:03:59:395 Nachm. 03/26/17 - $GNGSA,A,2,65,73,82,,,,,,,,,,1.2,0.8,0.8*23

6:04:00:384 Nachm. 03/26/17 - $GPGSV,3,1,11,02,36,095,27,06,24,049,31,12,58,078,27,14,31,286,19*7D

6:04:00:385 Nachm. 03/26/17 - $GPGSV,3,2,11,24,26,150,13,25,71,288,24,29,35,209,23,31,24,307,24*78

6:04:00:385 Nachm. 03/26/17 - $GPGSV,3,3,11,32,29,257,24,03,01,347,,19,01,045,*4F

6:04:00:388 Nachm. 03/26/17 - $GLGSV,3,1,10,74,09,307,16,82,62,063,27,73,66,320,22,80,56,113,23*6D

6:04:00:389 Nachm. 03/26/17 - $GLGSV,3,2,10,65,10,000,16,83,45,178,14,81,16,030,27,72,16,312,16*6C

6:04:00:390 Nachm. 03/26/17 - $GLGSV,3,3,10,79,,,,71,03,265,*5E

6:04:00:391 Nachm. 03/26/17 - $GPGGA,160357.0,5208.371468,N,01138.693614,E,1,08,1.0,55.4,M,45.0,M,,*62

6:04:00:396 Nachm. 03/26/17 - $GNGNS,160357.0,5208.371468,N,01138.693614,E,AA,11,1.0,55.4,45.0,,*5E

6:04:00:396 Nachm. 03/26/17 - $GPVTG,307.5,T,307.0,M,0.0,N,0.0,K,A*26

6:04:00:396 Nachm. 03/26/17 - $GPRMC,160357.0,A,5208.371468,N,01138.693614,E,0.0,307.5,260317,0.4,E,A*03

6:04:00:396 Nachm. 03/26/17 - $GPGSA,A,2,02,06,12,14,25,29,31,32,,,,,1.3,1.0,0.8*35

6:04:00:396 Nachm. 03/26/17 - $GNGSA,A,2,02,06,12,14,25,29,31,32,,,,,1.3,1.0,0.8*2B

6:04:00:397 Nachm. 03/26/17 - $GNGSA,A,2,65,73,82,,,,,,,,,,1.3,1.0,0.8*2B

6:04:01:383 Nachm. 03/26/17 - $GPGSV,3,1,11,02,36,095,27,06,24,049,31,12,58,078,26,14,31,286,20*76

6:04:01:384 Nachm. 03/26/17 - $GPGSV,3,2,11,24,26,150,13,25,71,288,22,29,35,209,23,31,24,307,22*78

6:04:01:384 Nachm. 03/26/17 - $GPGSV,3,3,11,32,29,257,23,03,01,347,,19,01,045,*48

6:04:01:384 Nachm. 03/26/17 - $GLGSV,3,1,10,74,09,307,19,82,62,063,29,73,66,320,20,80,56,113,23*6E

6:04:01:384 Nachm. 03/26/17 - $GLGSV,3,2,10,65,10,000,16,83,45,178,14,81,16,030,26,72,16,312,16*6D

6:04:01:385 Nachm. 03/26/17 - $GLGSV,3,3,10,79,,,,71,03,265,*5E

6:04:01:388 Nachm. 03/26/17 - $GPGGA,160358.0,5208.371468,N,01138.693613,E,1,08,1.0,55.4,M,45.0,M,,*6A

6:04:01:388 Nachm. 03/26/17 - $GNGNS,160358.0,5208.371468,N,01138.693613,E,AA,11,1.0,55.4,45.0,,*56

6:04:01:388 Nachm. 03/26/17 - $GPVTG,307.5,T,307.0,M,0.0,N,0.0,K,A*26

6:04:01:388 Nachm. 03/26/17 - $GPRMC,160358.0,A,5208.371468,N,01138.693613,E,0.0,307.5,260317,0.4,E,A*0B

6:04:01:388 Nachm. 03/26/17 - $GPGSA,A,2,02,06,12,14,25,29,31,32,,,,,1.3,1.0,0.8*35

6:04:01:388 Nachm. 03/26/17 - $GNGSA,A,2,02,06,12,14,25,29,31,32,,,,,1.3,1.0,0.8*2B

6:04:01:389 Nachm. 03/26/17 - $GNGSA,A,2,65,73,82,,,,,,,,,,1.3,1.0,0.8*2B

6:04:02:386 Nachm. 03/26/17 - $GPGSV,3,1,11,02,36,095,29,06,24,049,33,12,58,078,29,14,31,286,21*74

6:04:02:386 Nachm. 03/26/17 - $GPGSV,3,2,11,24,26,150,13,25,71,288,21,29,35,209,24,31,24,307,25*7B

6:04:02:387 Nachm. 03/26/17 - $GPGSV,3,3,11,32,29,257,22,03,01,347,,19,01,045,*49

6:04:02:390 Nachm. 03/26/17 - $GLGSV,3,1,10,74,09,307,19,82,62,063,30,73,66,320,20,80,56,113,24*61

6:04:02:392 Nachm. 03/26/17 - $GLGSV,3,2,10,65,10,000,16,83,45,178,14,81,16,030,28,72,16,312,16*63

6:04:02:395 Nachm. 03/26/17 - $GLGSV,3,3,10,79,,,,71,03,265,*5E

6:04:02:397 Nachm. 03/26/17 - $GPGGA,160359.0,5208.371474,N,01138.693606,E,1,08,1.0,55.4,M,45.0,M,,*62

6:04:02:397 Nachm. 03/26/17 - $GNGNS,160359.0,5208.371474,N,01138.693606,E,AA,11,1.0,55.4,45.0,,*5E

6:04:02:398 Nachm. 03/26/17 - $GPVTG,307.5,T,307.0,M,0.0,N,0.0,K,A*26

6:04:02:399 Nachm. 03/26/17 - $GPRMC,160359.0,A,5208.371474,N,01138.693606,E,0.0,307.5,260317,0.4,E,A*03

6:04:02:400 Nachm. 03/26/17 - $GPGSA,A,2,02,06,12,14,25,29,31,32,,,,,1.3,1.0,0.8*35

6:04:02:417 Nachm. 03/26/17 - $GNGSA,A,2,02,06,12,14,25,29,31,32,,,,,1.3,1.0,0.8*2B

6:04:02:418 Nachm. 03/26/17 - $GNGSA,A,2,65,73,82,,,,,,,,,,1.3,1.0,0.8*2B

6:04:03:385 Nachm. 03/26/17 - $GPGSV,3,1,11,02,36,095,29,06,24,049,33,12,58,078,28,14,31,286,21*75

6:04:03:385 Nachm. 03/26/17 - $GPGSV,3,2,11,24,26,150,13,25,71,288,19,29,35,209,24,31,24,307,25*70

6:04:03:386 Nachm. 03/26/17 - $GPGSV,3,3,11,32,29,257,23,03,01,347,,19,01,045,*48

6:04:03:386 Nachm. 03/26/17 - $GLGSV,3,1,10,74,09,307,16,82,62,063,30,73,66,320,19,80,56,113,24*64

6:04:03:386 Nachm. 03/26/17 - $GLGSV,3,2,10,65,10,000,18,83,45,178,14,81,16,030,27,72,16,312,16*62

6:04:03:386 Nachm. 03/26/17 - $GLGSV,3,3,10,79,,,,71,03,265,*5E

6:04:03:386 Nachm. 03/26/17 - $GPGGA,160400.0,5208.371485,N,01138.693586,E,1,08,1.0,55.4,M,45.0,M,,*6C

6:04:03:388 Nachm. 03/26/17 - $GNGNS,160400.0,5208.371485,N,01138.693586,E,AA,11,1.0,55.4,45.0,,*50

6:04:03:388 Nachm. 03/26/17 - $GPVTG,307.5,T,307.0,M,0.0,N,0.0,K,A*26

6:04:03:389 Nachm. 03/26/17 - $GPRMC,160400.0,A,5208.371485,N,01138.693586,E,0.0,307.5,260317,0.4,E,A*0D

6:04:03:389 Nachm. 03/26/17 - $GPGSA,A,2,02,06,12,14,25,29,31,32,,,,,1.3,1.0,0.8*35

6:04:03:389 Nachm. 03/26/17 - $GNGSA,A,2,02,06,12,14,25,29,31,32,,,,,1.3,1.0,0.8*2B

6:04:03:396 Nachm. 03/26/17 - $GNGSA,A,2,65,73,82,,,,,,,,,,1.3,1.0,0.8*2B

6:04:04:384 Nachm. 03/26/17 - $GPGSV,3,1,11,02,36,095,29,06,24,049,33,12,58,078,29,14,31,286,21*74

6:04:04:385 Nachm. 03/26/17 - $GPGSV,3,2,11,24,26,150,13,25,71,288,17,29,35,209,24,31,24,307,25*7E

6:04:04:386 Nachm. 03/26/17 - $GPGSV,3,3,11,32,29,257,22,03,01,347,,19,01,045,*49

6:04:04:393 Nachm. 03/26/17 - $GLGSV,3,1,10,74,09,307,16,82,62,063,30,73,66,320,18,80,56,113,24*65

6:04:04:397 Nachm. 03/26/17 - $GLGSV,3,2,10,65,10,000,19,83,45,178,14,81,16,030,27,72,16,312,16*63

6:04:04:403 Nachm. 03/26/17 - $GLGSV,3,3,10,79,,,,71,03,265,*5E

6:04:04:403 Nachm. 03/26/17 - $GPGGA,160401.0,5208.371497,N,01138.693572,E,1,08,1.0,55.3,M,45.0,M,,*62

6:04:04:403 Nachm. 03/26/17 - $GNGNS,160401.0,5208.371497,N,01138.693572,E,AA,11,1.0,55.3,45.0,,*5E

6:04:04:404 Nachm. 03/26/17 - $GPVTG,307.5,T,307.0,M,0.0,N,0.0,K,A*26

6:04:04:404 Nachm. 03/26/17 - $GPRMC,160401.0,A,5208.371497,N,01138.693572,E,0.0,307.5,260317,0.4,E,A*04

6:04:04:404 Nachm. 03/26/17 - $GPGSA,A,2,02,06,12,14,25,29,31,32,,,,,1.3,1.0,0.8*35

6:04:04:404 Nachm. 03/26/17 - $GNGSA,A,2,02,06,12,14,25,29,31,32,,,,,1.3,1.0,0.8*2B

6:04:04:404 Nachm. 03/26/17 - $GNGSA,A,2,65,73,82,,,,,,,,,,1.3,1.0,0.8*2B

6:04:05:384 Nachm. 03/26/17 - $GPGSV,3,1,11,02,36,095,29,06,24,049,33,12,58,078,29,14,31,286,20*75

6:04:05:386 Nachm. 03/26/17 - $GPGSV,3,2,11,24,26,150,13,25,71,288,17,29,35,209,25,31,24,307,25*7F

6:04:05:393 Nachm. 03/26/17 - $GPGSV,3,3,11,32,29,257,23,03,01,347,,19,01,045,*48

6:04:05:395 Nachm. 03/26/17 - $GLGSV,3,1,10,74,09,307,16,82,62,063,29,73,66,320,19,80,56,113,23*6B

6:04:05:396 Nachm. 03/26/17 - $GLGSV,3,2,10,65,10,000,19,83,45,178,14,81,16,030,25,72,16,312,16*61

6:04:05:398 Nachm. 03/26/17 - $GLGSV,3,3,10,79,,,,71,03,265,*5E

6:04:05:398 Nachm. 03/26/17 - $GPGGA,160402.0,5208.371504,N,01138.693561,E,1,08,1.0,55.4,M,45.0,M,,*6F

6:04:05:399 Nachm. 03/26/17 - $GNGNS,160402.0,5208.371504,N,01138.693561,E,AA,11,1.0,55.4,45.0,,*53

6:04:05:401 Nachm. 03/26/17 - $GPVTG,307.5,T,307.0,M,0.0,N,0.0,K,A*26

6:04:05:402 Nachm. 03/26/17 - $GPRMC,160402.0,A,5208.371504,N,01138.693561,E,0.0,307.5,260317,0.4,E,A*0E

6:04:05:406 Nachm. 03/26/17 - $GPGSA,A,2,02,06,12,14,25,29,31,32,,,,,1.3,1.0,0.8*35

6:04:05:408 Nachm. 03/26/17 - $GNGSA,A,2,02,06,12,14,25,29,31,32,,,,,1.3,1.0,0.8*2B

6:04:05:411 Nachm. 03/26/17 - $GNGSA,A,2,65,73,82,,,,,,,,,,1.3,1.0,0.8*2B

6:04:06:387 Nachm. 03/26/17 - $GPGSV,3,1,11,02,36,095,29,06,24,049,33,12,58,078,30,14,31,286,21*7C

6:04:06:391 Nachm. 03/26/17 - $GPGSV,3,2,11,24,26,150,13,25,71,288,18,29,35,209,25,31,24,307,24*71

6:04:06:391 Nachm. 03/26/17 - $GPGSV,3,3,11,32,29,257,23,03,01,347,,19,01,045,*48

6:04:06:399 Nachm. 03/26/17 - $GLGSV,3,1,10,74,09,307,16,82,62,063,30,73,66,320,20,80,56,113,23*69

6:04:06:400 Nachm. 03/26/17 - $GLGSV,3,2,10,65,10,000,19,83,45,178,14,81,16,030,25,72,16,312,16*61

6:04:06:402 Nachm. 03/26/17 - $GLGSV,3,3,10,79,,,,71,03,265,*5E

6:04:06:409 Nachm. 03/26/17 - $GPGGA,160403.0,5208.371516,N,01138.693551,E,1,08,1.0,55.4,M,45.0,M,,*6E

6:04:06:410 Nachm. 03/26/17 - $GNGNS,160403.0,5208.371516,N,01138.693551,E,AA,11,1.0,55.4,45.0,,*52

6:04:06:412 Nachm. 03/26/17 - $GPVTG,307.5,T,307.0,M,0.0,N,0.0,K,A*26

6:04:06:414 Nachm. 03/26/17 - $GPRMC,160403.0,A,5208.371516,N,01138.693551,E,0.0,307.5,260317,0.4,E,A*0F

6:04:06:415 Nachm. 03/26/17 - $GPGSA,A,2,02,06,12,14,25,29,31,32,,,,,1.3,1.0,0.8*35

6:04:06:415 Nachm. 03/26/17 - $GNGSA,A,2,02,06,12,14,25,29,31,32,,,,,1.3,1.0,0.8*2B

6:04:06:415 Nachm. 03/26/17 - $GNGSA,A,2,65,73,82,,,,,,,,,,1.3,1.0,0.8*2B

6:04:07:383 Nachm. 03/26/17 - $GPGSV,3,1,11,02,36,095,30,06,24,049,34,12,58,078,30,14,31,286,22*70

6:04:07:384 Nachm. 03/26/17 - $GPGSV,3,2,11,24,26,150,13,25,71,288,17,29,35,209,25,31,24,307,25*7F

6:04:07:385 Nachm. 03/26/17 - $GPGSV,3,3,11,32,29,257,24,03,01,347,,19,01,045,*4F

6:04:07:386 Nachm. 03/26/17 - $GLGSV,3,1,10,74,09,307,16,82,62,063,30,73,66,320,19,80,56,113,23*63

6:04:07:387 Nachm. 03/26/17 - $GLGSV,3,2,10,65,10,000,18,83,45,178,14,81,16,030,24,72,16,312,13*64

6:04:07:387 Nachm. 03/26/17 - $GLGSV,3,3,10,79,,,,71,03,265,*5E

6:04:07:388 Nachm. 03/26/17 - $GPGGA,160404.0,5208.371528,N,01138.693540,E,1,08,1.0,55.4,M,45.0,M,,*64

6:04:07:388 Nachm. 03/26/17 - $GNGNS,160404.0,5208.371528,N,01138.693540,E,AA,11,1.0,55.4,45.0,,*58

6:04:07:389 Nachm. 03/26/17 - $GPVTG,307.5,T,307.0,M,0.0,N,0.0,K,A*26

6:04:07:390 Nachm. 03/26/17 - $GPRMC,160404.0,A,5208.371528,N,01138.693540,E,0.0,307.5,260317,0.4,E,A*05

6:04:07:390 Nachm. 03/26/17 - $GPGSA,A,2,02,06,12,14,25,29,31,32,,,,,1.3,1.0,0.8*35

6:04:07:391 Nachm. 03/26/17 - $GNGSA,A,2,02,06,12,14,25,29,31,32,,,,,1.3,1.0,0.8*2B

6:04:07:391 Nachm. 03/26/17 - $GNGSA,A,2,65,73,82,,,,,,,,,,1.3,1.0,0.8*2B

6:04:08:383 Nachm. 03/26/17 - $GPGSV,3,1,11,02,36,095,28,06,24,049,33,12,58,078,30,14,31,286,22*7E

6:04:08:386 Nachm. 03/26/17 - $GPGSV,3,2,11,24,26,150,14,25,71,288,21,29,35,209,24,31,24,307,25*7C

6:04:08:386 Nachm. 03/26/17 - $GPGSV,3,3,11,32,29,257,24,03,01,347,,19,01,045,*4F

6:04:08:390 Nachm. 03/26/17 - $GLGSV,3,1,10,74,09,307,16,82,62,063,29,73,66,320,22,80,56,113,24*64

6:04:08:391 Nachm. 03/26/17 - $GLGSV,3,2,10,65,10,000,19,83,45,178,14,81,16,030,27,72,16,312,18*6D

6:04:08:391 Nachm. 03/26/17 - $GLGSV,3,3,10,79,,,,71,03,265,*5E

6:04:08:391 Nachm. 03/26/17 - $GPGGA,160405.0,5208.371607,N,01138.693510,E,1,09,0.8,55.5,M,45.0,M,,*67

6:04:08:391 Nachm. 03/26/17 - $GNGNS,160405.0,5208.371607,N,01138.693510,E,AA,12,0.8,55.5,45.0,,*59

6:04:08:391 Nachm. 03/26/17 - $GPVTG,307.5,T,307.0,M,0.0,N,0.0,K,A*26

6:04:08:392 Nachm. 03/26/17 - $GPRMC,160405.0,A,5208.371607,N,01138.693510,E,0.0,307.5,260317,0.4,E,A*0F

6:04:08:392 Nachm. 03/26/17 - $GPGSA,A,2,02,06,12,14,24,25,29,31,32,,,,1.2,0.8,0.8*3B

6:04:08:392 Nachm. 03/26/17 - $GNGSA,A,2,02,06,12,14,24,25,29,31,32,,,,1.2,0.8,0.8*25

6:04:08:392 Nachm. 03/26/17 - $GNGSA,A,2,65,73,82,,,,,,,,,,1.2,0.8,0.8*23

6:04:09:384 Nachm. 03/26/17 - $GPGSV,3,1,11,02,36,095,28,06,24,049,32,12,58,078,29,14,31,286,21*74

6:04:09:385 Nachm. 03/26/17 - $GPGSV,3,2,11,24,26,150,14,25,71,288,21,29,35,209,26,31,24,307,24*7F

6:04:09:386 Nachm. 03/26/17 - $GPGSV,3,3,11,32,29,257,24,03,01,347,,19,01,045,*4F

6:04:09:386 Nachm. 03/26/17 - $GLGSV,3,1,10,74,09,307,16,82,62,063,29,73,66,320,20,80,56,113,22*60

6:04:09:387 Nachm. 03/26/17 - $GLGSV,3,2,10,65,10,000,18,83,45,178,14,81,16,030,25,72,16,312,18*6E

6:04:09:387 Nachm. 03/26/17 - $GLGSV,3,3,10,79,,,,71,03,265,*5E

6:04:09:388 Nachm. 03/26/17 - $GPGGA,160406.0,5208.371616,N,01138.693508,E,1,09,0.8,55.5,M,45.0,M,,*6D

6:04:09:389 Nachm. 03/26/17 - $GNGNS,160406.0,5208.371616,N,01138.693508,E,AA,12,0.8,55.5,45.0,,*53

6:04:09:390 Nachm. 03/26/17 - $GPVTG,307.5,T,307.0,M,0.0,N,0.0,K,A*26

6:04:09:390 Nachm. 03/26/17 - $GPRMC,160406.0,A,5208.371616,N,01138.693508,E,0.0,307.5,260317,0.4,E,A*05

6:04:09:391 Nachm. 03/26/17 - $GPGSA,A,2,02,06,12,14,24,25,29,31,32,,,,1.2,0.8,0.8*3B

6:04:09:396 Nachm. 03/26/17 - $GNGSA,A,2,02,06,12,14,24,25,29,31,32,,,,1.2,0.8,0.8*25

6:04:09:403 Nachm. 03/26/17 - $GNGSA,A,2,65,73,82,,,,,,,,,,1.2,0.8,0.8*23

6:04:10:384 Nachm. 03/26/17 - $GPGSV,3,1,11,02,36,095,29,06,24,049,33,12,58,078,29,14,31,286,19*7F

6:04:10:385 Nachm. 03/26/17 - $GPGSV,3,2,11,24,26,150,14,25,71,288,21,29,35,209,26,31,24,307,25*7E

6:04:10:386 Nachm. 03/26/17 - $GPGSV,3,3,11,32,29,257,24,03,01,347,,19,01,045,*4F

6:04:10:388 Nachm. 03/26/17 - $GLGSV,3,1,10,74,09,307,16,82,62,063,30,73,66,320,19,80,56,113,23*63

6:04:10:389 Nachm. 03/26/17 - $GLGSV,3,2,10,65,10,000,20,83,45,178,14,81,16,030,26,72,16,312,17*69

6:04:10:390 Nachm. 03/26/17 - $GLGSV,3,3,10,79,,,,71,03,265,*5E

6:04:10:390 Nachm. 03/26/17 - $GPGGA,160407.0,5208.371633,N,01138.693502,E,1,09,0.8,55.5,M,45.0,M,,*61

6:04:10:399 Nachm. 03/26/17 - $GNGNS,160407.0,5208.371633,N,01138.693502,E,AA,12,0.8,55.5,45.0,,*5F

6:04:10:399 Nachm. 03/26/17 - $GPVTG,307.5,T,307.0,M,0.0,N,0.0,K,A*26

6:04:10:400 Nachm. 03/26/17 - $GPRMC,160407.0,A,5208.371633,N,01138.693502,E,0.0,307.5,260317,0.4,E,A*09

6:04:10:400 Nachm. 03/26/17 - $GPGSA,A,2,02,06,12,14,24,25,29,31,32,,,,1.2,0.8,0.8*3B

6:04:10:401 Nachm. 03/26/17 - $GNGSA,A,2,02,06,12,14,24,25,29,31,32,,,,1.2,0.8,0.8*25

6:04:10:401 Nachm. 03/26/17 - $GNGSA,A,2,65,73,82,,,,,,,,,,1.2,0.8,0.8*23

6:04:11:383 Nachm. 03/26/17 - $GPGSV,3,1,11,02,36,095,28,06,24,049,33,12,58,078,29,14,31,286,19*7E

6:04:11:384 Nachm. 03/26/17 - $GPGSV,3,2,11,24,26,150,14,25,71,288,22,29,35,209,26,31,24,307,25*7D

6:04:11:385 Nachm. 03/26/17 - $GPGSV,3,3,11,32,29,257,23,03,01,347,,19,01,045,*48

6:04:11:386 Nachm. 03/26/17 - $GLGSV,3,1,10,74,09,307,16,82,62,063,30,73,66,320,20,80,56,113,23*69

6:04:11:386 Nachm. 03/26/17 - $GLGSV,3,2,10,65,10,000,20,83,45,178,14,81,16,030,26,72,16,312,17*69

6:04:11:386 Nachm. 03/26/17 - $GLGSV,3,3,10,79,,,,71,03,265,*5E

6:04:11:388 Nachm. 03/26/17 - $GPGGA,160408.0,5208.371570,N,01138.693503,E,1,09,0.8,55.7,M,45.0,M,,*69

6:04:11:390 Nachm. 03/26/17 - $GNGNS,160408.0,5208.371570,N,01138.693503,E,AA,13,0.8,55.7,45.0,,*56

6:04:11:392 Nachm. 03/26/17 - $GPVTG,307.5,T,307.0,M,0.0,N,0.0,K,A*26

6:04:11:392 Nachm. 03/26/17 - $GPRMC,160408.0,A,5208.371570,N,01138.693503,E,0.0,307.5,260317,0.4,E,A*03

6:04:11:392 Nachm. 03/26/17 - $GPGSA,A,2,02,06,12,14,24,25,29,31,32,,,,1.1,0.8,0.8*38

6:04:11:392 Nachm. 03/26/17 - $GNGSA,A,2,02,06,12,14,24,25,29,31,32,,,,1.1,0.8,0.8*26

6:04:11:393 Nachm. 03/26/17 - $GNGSA,A,2,65,73,81,82,,,,,,,,,1.1,0.8,0.8*29

6:04:12:385 Nachm. 03/26/17 - $GPGSV,3,1,11,02,36,095,29,06,24,049,33,12,58,078,29,14,31,286,18*7E

6:04:12:386 Nachm. 03/26/17 - $GPGSV,3,2,11,24,26,150,15,25,71,288,22,29,35,209,27,31,24,307,25*7D

6:04:12:387 Nachm. 03/26/17 - $GPGSV,3,3,11,32,29,257,24,03,01,347,,19,01,045,*4F

6:04:12:390 Nachm. 03/26/17 - $GLGSV,3,1,10,74,09,307,16,82,62,063,30,73,66,320,19,80,56,113,22*62

6:04:12:391 Nachm. 03/26/17 - $GLGSV,3,2,10,65,10,000,21,83,45,178,14,81,16,030,25,72,16,312,16*6A

6:04:12:393 Nachm. 03/26/17 - $GLGSV,3,3,10,79,,,,71,03,265,*5E

6:04:12:403 Nachm. 03/26/17 - $GPGGA,160409.0,5208.371665,N,01138.693464,E,1,09,0.8,55.8,M,45.0,M,,*60

6:04:12:407 Nachm. 03/26/17 - $GNGNS,160409.0,5208.371665,N,01138.693464,E,AA,13,0.8,55.8,45.0,,*5F

6:04:12:408 Nachm. 03/26/17 - $GPVTG,307.5,T,307.0,M,0.0,N,0.0,K,A*26

6:04:12:408 Nachm. 03/26/17 - $GPRMC,160409.0,A,5208.371665,N,01138.693464,E,0.0,307.5,260317,0.4,E,A*05

6:04:12:408 Nachm. 03/26/17 - $GPGSA,A,2,02,06,12,14,24,25,29,31,32,,,,1.1,0.8,0.8*38

6:04:12:408 Nachm. 03/26/17 - $GNGSA,A,2,02,06,12,14,24,25,29,31,32,,,,1.1,0.8,0.8*26

6:04:12:408 Nachm. 03/26/17 - $GNGSA,A,2,65,73,81,82,,,,,,,,,1.1,0.8,0.8*29

6:04:13:384 Nachm. 03/26/17 - $GPGSV,3,1,11,02,36,095,29,06,24,049,33,12,58,078,29,14,31,286,18*7E

6:04:13:385 Nachm. 03/26/17 - $GPGSV,3,2,11,24,26,150,15,25,71,288,21,29,35,209,27,31,24,307,25*7E

6:04:13:386 Nachm. 03/26/17 - $GPGSV,3,3,11,32,29,257,23,03,01,347,,19,01,045,*48

6:04:13:389 Nachm. 03/26/17 - $GLGSV,3,1,10,74,09,307,16,82,62,063,30,73,66,320,18,80,56,113,23*62

6:04:13:400 Nachm. 03/26/17 - $GLGSV,3,2,10,65,10,000,21,83,45,178,14,81,16,030,25,72,16,312,16*6A

6:04:13:401 Nachm. 03/26/17 - $GLGSV,3,3,10,79,,,,71,03,265,*5E

6:04:13:401 Nachm. 03/26/17 - $GPGGA,160410.0,5208.371688,N,01138.693449,E,1,09,0.8,55.9,M,45.0,M,,*65

6:04:13:402 Nachm. 03/26/17 - $GNGNS,160410.0,5208.371688,N,01138.693449,E,AA,13,0.8,55.9,45.0,,*5A

6:04:13:402 Nachm. 03/26/17 - $GPVTG,307.5,T,307.0,M,0.0,N,0.0,K,A*26

6:04:13:403 Nachm. 03/26/17 - $GPRMC,160410.0,A,5208.371688,N,01138.693449,E,0.0,307.5,260317,0.4,E,A*01

6:04:13:404 Nachm. 03/26/17 - $GPGSA,A,2,02,06,12,14,24,25,29,31,32,,,,1.1,0.8,0.8*38

6:04:13:405 Nachm. 03/26/17 - $GNGSA,A,2,02,06,12,14,24,25,29,31,32,,,,1.1,0.8,0.8*26

6:04:13:405 Nachm. 03/26/17 - $GNGSA,A,2,65,73,81,82,,,,,,,,,1.1,0.8,0.8*29

6:04:14:385 Nachm. 03/26/17 - $GPGSV,3,1,11,02,36,095,30,06,24,049,34,12,58,078,29,14,31,286,18*71

6:04:14:387 Nachm. 03/26/17 - $GPGSV,3,2,11,24,26,150,15,25,71,288,21,29,35,209,28,31,24,307,25*71

6:04:14:394 Nachm. 03/26/17 - $GPGSV,3,3,11,32,29,257,22,03,01,347,,19,01,045,*49

6:04:14:397 Nachm. 03/26/17 - $GLGSV,3,1,10,74,09,307,12,82,62,063,30,73,66,320,18,80,56,113,23*66

6:04:14:399 Nachm. 03/26/17 - $GLGSV,3,2,10,65,10,000,20,83,45,178,14,81,16,030,24,72,16,312,16*6A

6:04:14:403 Nachm. 03/26/17 - $GLGSV,3,3,10,79,,,,71,03,265,*5E

6:04:14:405 Nachm. 03/26/17 - $GPGGA,160411.0,5208.371693,N,01138.693438,E,1,09,0.8,56.0,M,45.0,M,,*62

6:04:14:413 Nachm. 03/26/17 - $GNGNS,160411.0,5208.371693,N,01138.693438,E,AA,13,0.8,56.0,45.0,,*5D

6:04:14:414 Nachm. 03/26/17 - $GPVTG,307.5,T,307.0,M,0.0,N,0.0,K,A*26

6:04:14:417 Nachm. 03/26/17 - $GPRMC,160411.0,A,5208.371693,N,01138.693438,E,0.0,307.5,260317,0.4,E,A*0C

6:04:14:417 Nachm. 03/26/17 - $GPGSA,A,2,02,06,12,14,24,25,29,31,32,,,,1.1,0.8,0.8*38

6:04:14:417 Nachm. 03/26/17 - $GNGSA,A,2,02,06,12,14,24,25,29,31,32,,,,1.1,0.8,0.8*26

6:04:14:417 Nachm. 03/26/17 - $GNGSA,A,2,65,73,81,82,,,,,,,,,1.1,0.8,0.8*29

6:04:15:385 Nachm. 03/26/17 - $GPGSV,3,1,11,02,36,095,30,06,24,049,34,12,58,078,30,14,31,286,18*79

6:04:15:385 Nachm. 03/26/17 - $GPGSV,3,2,11,24,26,150,15,25,71,288,20,29,35,209,27,31,24,307,25*7F

6:04:15:385 Nachm. 03/26/17 - $GPGSV,3,3,11,32,29,257,21,03,01,347,,19,01,045,*4A

6:04:15:386 Nachm. 03/26/17 - $GLGSV,3,1,10,74,09,307,12,82,62,063,30,73,66,320,18,80,56,113,24*61

6:04:15:387 Nachm. 03/26/17 - $GLGSV,3,2,10,65,10,000,20,83,45,178,14,81,16,030,24,72,16,312,16*6A

6:04:15:387 Nachm. 03/26/17 - $GLGSV,3,3,10,79,,,,71,03,265,*5E

6:04:15:387 Nachm. 03/26/17 - $GPGGA,160412.0,5208.371836,N,01138.693387,E,1,09,0.8,56.1,M,45.0,M,,*62

6:04:15:393 Nachm. 03/26/17 - $GNGNS,160412.0,5208.371836,N,01138.693387,E,AA,13,0.8,56.1,45.0,,*5D

6:04:15:396 Nachm. 03/26/17 - $GPVTG,307.5,T,307.0,M,0.0,N,0.0,K,A*26

6:04:15:397 Nachm. 03/26/17 - $GPRMC,160412.0,A,5208.371836,N,01138.693387,E,0.0,307.5,260317,0.4,E,A*0D

6:04:15:397 Nachm. 03/26/17 - $GPGSA,A,2,02,06,12,14,24,25,29,31,32,,,,1.1,0.8,0.8*38

6:04:15:398 Nachm. 03/26/17 - $GNGSA,A,2,02,06,12,14,24,25,29,31,32,,,,1.1,0.8,0.8*26

6:04:15:398 Nachm. 03/26/17 - $GNGSA,A,2,65,73,81,82,,,,,,,,,1.1,0.8,0.8*29

6:04:16:385 Nachm. 03/26/17 - $GPGSV,3,1,11,02,36,095,29,06,24,049,34,12,58,078,30,14,31,286,18*71

6:04:16:385 Nachm. 03/26/17 - $GPGSV,3,2,11,24,26,150,15,25,71,288,20,29,35,209,28,31,24,307,24*71

6:04:16:386 Nachm. 03/26/17 - $GPGSV,3,3,11,32,29,257,22,03,01,347,,19,01,045,*49

6:04:16:387 Nachm. 03/26/17 - $GLGSV,3,1,10,74,09,307,12,82,62,063,30,73,66,320,16,80,56,113,23*68

6:04:16:387 Nachm. 03/26/17 - $GLGSV,3,2,10,65,10,000,20,83,45,178,14,81,16,030,23,72,16,312,16*6D

6:04:16:388 Nachm. 03/26/17 - $GLGSV,3,3,10,79,,,,71,03,265,*5E

6:04:16:388 Nachm. 03/26/17 - $GPGGA,160413.0,5208.371816,N,01138.693387,E,1,09,0.8,56.2,M,45.0,M,,*62

6:04:16:390 Nachm. 03/26/17 - $GNGNS,160413.0,5208.371816,N,01138.693387,E,AA,13,0.8,56.2,45.0,,*5D

6:04:16:390 Nachm. 03/26/17 - $GPVTG,307.5,T,307.0,M,0.0,N,0.0,K,A*26

6:04:16:390 Nachm. 03/26/17 - $GPRMC,160413.0,A,5208.371816,N,01138.693387,E,0.0,307.5,260317,0.4,E,A*0E

6:04:16:390 Nachm. 03/26/17 - $GPGSA,A,2,02,06,12,14,24,25,29,31,32,,,,1.1,0.8,0.8*38

6:04:16:391 Nachm. 03/26/17 - $GNGSA,A,2,02,06,12,14,24,25,29,31,32,,,,1.1,0.8,0.8*26

6:04:16:398 Nachm. 03/26/17 - $GNGSA,A,2,65,73,81,82,,,,,,,,,1.1,0.8,0.8*29

6:04:17:385 Nachm. 03/26/17 - $GPGSV,3,1,11,02,36,095,29,06,24,049,33,12,58,078,30,14,31,286,14*7A

6:04:17:386 Nachm. 03/26/17 - $GPGSV,3,2,11,24,26,150,15,25,71,288,22,29,35,209,27,31,24,307,25*7D

6:04:17:387 Nachm. 03/26/17 - $GPGSV,3,3,11,32,29,257,21,03,01,347,,19,01,045,*4A

6:04:17:388 Nachm. 03/26/17 - $GLGSV,3,1,10,74,09,307,12,82,62,063,30,73,66,320,18,80,56,113,24*61

6:04:17:388 Nachm. 03/26/17 - $GLGSV,3,2,10,65,10,000,19,83,45,178,14,81,16,030,23,72,16,312,13*62

6:04:17:389 Nachm. 03/26/17 - $GLGSV,3,3,10,79,,,,71,03,265,*5E

6:04:17:404 Nachm. 03/26/17 - $GPGGA,160414.0,5208.371784,N,01138.693394,E,1,09,0.8,56.2,M,45.0,M,,*63

6:04:17:404 Nachm. 03/26/17 - $GNGNS,160414.0,5208.371784,N,01138.693394,E,AA,13,0.8,56.2,45.0,,*5C

6:04:17:404 Nachm. 03/26/17 - $GPVTG,307.5,T,307.0,M,0.0,N,0.0,K,A*26

6:04:17:405 Nachm. 03/26/17 - $GPRMC,160414.0,A,5208.371784,N,01138.693394,E,0.0,307.5,260317,0.4,E,A*0F

6:04:17:405 Nachm. 03/26/17 - $GPGSA,A,2,02,06,12,14,24,25,29,31,32,,,,1.1,0.8,0.8*38

6:04:17:405 Nachm. 03/26/17 - $GNGSA,A,2,02,06,12,14,24,25,29,31,32,,,,1.1,0.8,0.8*26

6:04:17:405 Nachm. 03/26/17 - $GNGSA,A,2,65,73,81,82,,,,,,,,,1.1,0.8,0.8*29

6:04:18:385 Nachm. 03/26/17 - $GPGSV,3,1,11,02,36,095,30,06,24,049,34,12,58,078,31,14,31,286,14*74

6:04:18:386 Nachm. 03/26/17 - $GPGSV,3,2,11,24,26,150,16,25,71,288,22,29,35,209,28,31,24,307,25*71

6:04:18:387 Nachm. 03/26/17 - $GPGSV,3,3,11,32,29,257,22,03,01,347,,19,01,045,*49

6:04:18:406 Nachm. 03/26/17 - $GLGSV,3,1,10,74,09,307,12,82,62,063,30,73,66,320,19,80,56,113,24*60

6:04:18:407 Nachm. 03/26/17 - $GLGSV,3,2,10,65,10,000,21,83,45,178,14,81,16,030,22,72,16,312,13*68

6:04:18:408 Nachm. 03/26/17 - $GLGSV,3,3,10,79,,,,71,03,265,*5E

6:04:18:408 Nachm. 03/26/17 - $GPGGA,160415.0,5208.371976,N,01138.693324,E,1,09,0.8,56.4,M,45.0,M,,*6C

6:04:18:409 Nachm. 03/26/17 - $GNGNS,160415.0,5208.371976,N,01138.693324,E,AA,13,0.8,56.4,45.0,,*53

6:04:18:409 Nachm. 03/26/17 - $GPVTG,307.5,T,307.0,M,0.0,N,0.0,K,A*26

6:04:18:410 Nachm. 03/26/17 - $GPRMC,160415.0,A,5208.371976,N,01138.693324,E,0.0,307.5,260317,0.4,E,A*06

6:04:18:410 Nachm. 03/26/17 - $GPGSA,A,2,02,06,12,14,24,25,29,31,32,,,,1.1,0.8,0.8*38

6:04:18:411 Nachm. 03/26/17 - $GNGSA,A,2,02,06,12,14,24,25,29,31,32,,,,1.1,0.8,0.8*26

6:04:18:411 Nachm. 03/26/17 - $GNGSA,A,2,65,73,81,82,,,,,,,,,1.1,0.8,0.8*29

6:04:19:384 Nachm. 03/26/17 - $GPGSV,3,1,11,02,36,095,30,06,24,049,34,12,58,078,31,14,31,286,14*74

6:04:19:384 Nachm. 03/26/17 - $GPGSV,3,2,11,24,26,150,16,25,71,288,21,29,35,209,28,31,24,307,26*71

6:04:19:385 Nachm. 03/26/17 - $GPGSV,3,3,11,32,29,257,21,03,01,347,,19,01,045,*4A

6:04:19:391 Nachm. 03/26/17 - $GLGSV,3,1,10,74,09,307,16,82,62,063,30,73,66,320,19,80,56,113,24*64

6:04:19:393 Nachm. 03/26/17 - $GLGSV,3,2,10,65,10,000,22,81,16,030,23,72,16,312,16,79,,,*50

6:04:19:395 Nachm. 03/26/17 - $GLGSV,3,3,10,,45,178,,71,03,265,*6F

6:04:19:395 Nachm. 03/26/17 - $GPGGA,160416.0,5208.372083,N,01138.693289,E,1,09,0.8,56.3,M,45.0,M,,*6E

6:04:19:395 Nachm. 03/26/17 - $GNGNS,160416.0,5208.372083,N,01138.693289,E,AA,13,0.8,56.3,45.0,,*51

6:04:19:396 Nachm. 03/26/17 - $GPVTG,307.5,T,307.0,M,0.0,N,0.0,K,A*26

6:04:19:396 Nachm. 03/26/17 - $GPRMC,160416.0,A,5208.372083,N,01138.693289,E,0.0,307.5,260317,0.4,E,A*03

6:04:19:397 Nachm. 03/26/17 - $GPGSA,A,2,02,06,12,14,24,25,29,31,32,,,,1.1,0.8,0.8*38

6:04:19:397 Nachm. 03/26/17 - $GNGSA,A,2,02,06,12,14,24,25,29,31,32,,,,1.1,0.8,0.8*26

6:04:19:398 Nachm. 03/26/17 - $GNGSA,A,2,65,73,81,82,,,,,,,,,1.1,0.8,0.8*29

6:04:20:384 Nachm. 03/26/17 - $GPGSV,3,1,11,02,36,095,29,06,24,049,33,12,58,078,31,14,31,286,14*7B

6:04:20:385 Nachm. 03/26/17 - $GPGSV,3,2,11,24,26,150,18,25,71,288,17,29,35,209,27,31,24,307,26*75

6:04:20:387 Nachm. 03/26/17 - $GPGSV,3,3,11,32,29,257,19,03,01,347,,19,01,045,*41

6:04:20:387 Nachm. 03/26/17 - $GLGSV,3,1,10,74,09,307,21,82,62,063,29,73,66,320,17,80,56,113,24*66

6:04:20:387 Nachm. 03/26/17 - $GLGSV,3,2,10,65,10,000,21,81,16,030,22,72,16,312,16,79,,,*52

6:04:20:389 Nachm. 03/26/17 - $GLGSV,3,3,10,83,45,178,,71,03,265,*64

6:04:20:389 Nachm. 03/26/17 - $GPGGA,160417.0,5208.372235,N,01138.693249,E,1,09,0.8,56.4,M,45.0,M,,*6B

6:04:20:397 Nachm. 03/26/17 - $GNGNS,160417.0,5208.372235,N,01138.693249,E,AA,13,0.8,56.4,45.0,,*54

6:04:20:398 Nachm. 03/26/17 - $GPVTG,307.5,T,307.0,M,0.0,N,0.0,K,A*26

6:04:20:399 Nachm. 03/26/17 - $GPRMC,160417.0,A,5208.372235,N,01138.693249,E,0.0,307.5,260317,0.4,E,A*01

6:04:20:400 Nachm. 03/26/17 - $GPGSA,A,2,02,06,12,14,24,25,29,31,32,,,,1.1,0.8,0.8*38

6:04:20:401 Nachm. 03/26/17 - $GNGSA,A,2,02,06,12,14,24,25,29,31,32,,,,1.1,0.8,0.8*26

6:04:20:401 Nachm. 03/26/17 - $GNGSA,A,2,65,73,81,82,,,,,,,,,1.1,0.8,0.8*29

6:04:21:386 Nachm. 03/26/17 - $GPGSV,3,1,11,02,36,095,29,06,24,049,33,12,58,078,32,14,31,286,14*78

6:04:21:387 Nachm. 03/26/17 - $GPGSV,3,2,11,24,26,150,20,25,71,288,20,29,35,209,28,31,24,307,25*76

6:04:21:387 Nachm. 03/26/17 - $GPGSV,3,3,11,32,29,257,21,03,01,347,,19,01,045,*4A

6:04:21:390 Nachm. 03/26/17 - $GLGSV,3,1,10,74,09,307,22,82,62,063,29,73,66,320,18,80,56,113,25*6B

6:04:21:391 Nachm. 03/26/17 - $GLGSV,3,2,10,65,10,000,24,81,16,030,21,72,16,312,19,79,,,*5B

6:04:21:395 Nachm. 03/26/17 - $GLGSV,3,3,10,83,45,178,,71,03,265,*64

6:04:21:395 Nachm. 03/26/17 - $GPGGA,160418.0,5208.372391,N,01138.693196,E,1,09,0.8,56.4,M,45.0,M,,*6A

6:04:21:398 Nachm. 03/26/17 - $GNGNS,160418.0,5208.372391,N,01138.693196,E,AA,13,0.8,56.4,45.0,,*55

6:04:21:406 Nachm. 03/26/17 - $GPVTG,307.5,T,307.0,M,0.0,N,0.0,K,A*26

6:04:21:407 Nachm. 03/26/17 - $GPRMC,160418.0,A,5208.372391,N,01138.693196,E,0.0,307.5,260317,0.4,E,A*00

6:04:21:407 Nachm. 03/26/17 - $GPGSA,A,2,02,06,12,14,24,25,29,31,32,,,,1.1,0.8,0.8*38

6:04:21:408 Nachm. 03/26/17 - $GNGSA,A,2,02,06,12,14,24,25,29,31,32,,,,1.1,0.8,0.8*26

6:04:21:408 Nachm. 03/26/17 - $GNGSA,A,2,65,73,81,82,,,,,,,,,1.1,0.8,0.8*29

6:04:22:385 Nachm. 03/26/17 - $GPGSV,3,1,11,02,36,095,28,06,23,047,33,12,58,078,32,14,31,286,15*71

6:04:22:390 Nachm. 03/26/17 - $GPGSV,3,2,11,24,26,150,20,25,71,288,22,29,35,209,27,31,24,307,26*78

6:04:22:390 Nachm. 03/26/17 - $GPGSV,3,3,11,32,29,257,20,03,01,347,,19,01,045,*4B

6:04:22:390 Nachm. 03/26/17 - $GLGSV,3,1,10,74,09,307,22,82,62,063,29,73,66,320,18,80,56,113,24*6A

6:04:22:390 Nachm. 03/26/17 - $GLGSV,3,2,10,65,10,000,23,81,16,030,22,72,16,312,19,79,,,*5F

6:04:22:391 Nachm. 03/26/17 - $GLGSV,3,3,10,83,45,178,,71,03,265,*64

6:04:22:391 Nachm. 03/26/17 - $GPGGA,160419.0,5208.372593,N,01138.693134,E,1,09,0.8,56.5,M,45.0,M,,*66

6:04:22:396 Nachm. 03/26/17 - $GNGNS,160419.0,5208.372593,N,01138.693134,E,AA,13,0.8,56.5,45.0,,*59

6:04:22:397 Nachm. 03/26/17 - $GPVTG,307.5,T,307.0,M,0.0,N,0.0,K,A*26

6:04:22:398 Nachm. 03/26/17 - $GPRMC,160419.0,A,5208.372593,N,01138.693134,E,0.0,307.5,260317,0.4,E,A*0D

6:04:22:398 Nachm. 03/26/17 - $GPGSA,A,2,02,06,12,14,24,25,29,31,32,,,,1.1,0.8,0.8*38

6:04:22:399 Nachm. 03/26/17 - $GNGSA,A,2,02,06,12,14,24,25,29,31,32,,,,1.1,0.8,0.8*26

6:04:22:403 Nachm. 03/26/17 - $GNGSA,A,2,65,73,81,82,,,,,,,,,1.1,0.8,0.8*29

6:04:23:384 Nachm. 03/26/17 - $GPGSV,3,1,11,02,36,095,28,06,23,047,33,12,58,078,32,14,31,286,15*71

6:04:23:386 Nachm. 03/26/17 - $GPGSV,3,2,11,24,26,150,20,25,71,288,21,29,35,209,26,31,24,307,27*7B

6:04:23:386 Nachm. 03/26/17 - $GPGSV,3,3,11,32,29,257,24,03,01,347,,19,01,045,*4F

6:04:23:386 Nachm. 03/26/17 - $GLGSV,3,1,10,74,09,307,19,82,62,063,29,73,66,320,18,80,56,113,25*63

6:04:23:386 Nachm. 03/26/17 - $GLGSV,3,2,10,65,10,000,22,81,16,030,19,72,16,312,21,79,,,*5D

6:04:23:388 Nachm. 03/26/17 - $GLGSV,3,3,10,83,45,178,,71,03,265,*64

6:04:23:389 Nachm. 03/26/17 - $GPGGA,160420.0,5208.372603,N,01138.693134,E,1,09,0.8,56.5,M,45.0,M,,*66

6:04:23:389 Nachm. 03/26/17 - $GNGNS,160420.0,5208.372603,N,01138.693134,E,AA,13,0.8,56.5,45.0,,*59

6:04:23:389 Nachm. 03/26/17 - $GPVTG,307.5,T,307.0,M,0.0,N,0.0,K,A*26

6:04:23:389 Nachm. 03/26/17 - $GPRMC,160420.0,A,5208.372603,N,01138.693134,E,0.0,307.5,260317,0.4,E,A*0D

6:04:23:389 Nachm. 03/26/17 - $GPGSA,A,2,02,06,12,14,24,25,29,31,32,,,,1.1,0.8,0.8*38

6:04:23:390 Nachm. 03/26/17 - $GNGSA,A,2,02,06,12,14,24,25,29,31,32,,,,1.1,0.8,0.8*26

6:04:23:390 Nachm. 03/26/17 - $GNGSA,A,2,65,73,81,82,,,,,,,,,1.1,0.8,0.8*29

6:04:24:384 Nachm. 03/26/17 - $GPGSV,3,1,11,02,36,095,29,06,23,047,32,12,58,078,34,14,31,286,15*77

6:04:24:385 Nachm. 03/26/17 - $GPGSV,3,2,11,24,26,150,18,25,71,288,24,29,35,209,25,31,24,307,24*75

6:04:24:385 Nachm. 03/26/17 - $GPGSV,3,3,11,32,29,257,21,03,01,347,,19,01,045,*4A

6:04:24:387 Nachm. 03/26/17 - $GLGSV,3,1,10,74,09,307,19,82,62,063,29,73,66,320,21,80,56,113,25*69

6:04:24:391 Nachm. 03/26/17 - $GLGSV,3,2,10,65,10,000,20,81,16,030,19,72,16,312,21,79,,,*5F

6:04:24:392 Nachm. 03/26/17 - $GLGSV,3,3,10,83,45,178,,71,03,265,*64

6:04:24:393 Nachm. 03/26/17 - $GPGGA,160421.0,5208.372723,N,01138.693092,E,1,09,0.8,56.6,M,45.0,M,,*6A

6:04:24:396 Nachm. 03/26/17 - $GNGNS,160421.0,5208.372723,N,01138.693092,E,AA,13,0.8,56.6,45.0,,*55

6:04:24:397 Nachm. 03/26/17 - $GPVTG,307.5,T,307.0,M,0.0,N,0.0,K,A*26

6:04:24:403 Nachm. 03/26/17 - $GPRMC,160421.0,A,5208.372723,N,01138.693092,E,0.0,307.5,260317,0.4,E,A*02

6:04:24:403 Nachm. 03/26/17 - $GPGSA,A,2,02,06,12,14,24,25,29,31,32,,,,1.1,0.8,0.8*38

6:04:24:413 Nachm. 03/26/17 - $GNGSA,A,2,02,06,12,14,24,25,29,31,32,,,,1.1,0.8,0.8*26

6:04:24:414 Nachm. 03/26/17 - $GNGSA,A,2,65,73,81,82,,,,,,,,,1.1,0.8,0.8*29


