6:02:15:384 Nachm. 03/26/17 - $GPGSV,3,1,11,14,31,286,22,25,70,286,29,29,34,209,19,31,23,307,33*7F

6:02:15:386 Nachm. 03/26/17 - $GPGSV,3,2,11,32,29,257,14,02,36,097,,03,01,347,,06,24,049,*71

6:02:15:389 Nachm. 03/26/17 - $GPGSV,3,3,11,12,58,077,,19,02,043,,24,27,150,*4D

6:02:15:406 Nachm. 03/26/17 - $GLGSV,3,1,10,74,08,306,21,82,63,066,16,73,66,320,30,65,09,000,28*65

6:02:15:407 Nachm. 03/26/17 - $GLGSV,3,2,10,72,16,313,29,80,57,112,,79,00,122,,83,45,178,*6E

6:02:15:407 Nachm. 03/26/17 - $GLGSV,3,3,10,81,17,030,,71,04,267,*69

6:02:15:407 Nachm. 03/26/17 - $GPGGA,160212.0,5208.340938,N,01138.679641,E,1,05,1.5,52.6,M,45.0,M,,*61

6:02:15:407 Nachm. 03/26/17 - $GNGNS,160212.0,5208.340938,N,01138.679641,E,AA,08,1.5,52.6,45.0,,*58

6:02:15:407 Nachm. 03/26/17 - $GPVTG,211.0,T,210.6,M,0.0,N,0.0,K,A*24

6:02:15:407 Nachm. 03/26/17 - $GPRMC,160212.0,A,5208.340938,N,01138.679641,E,0.0,211.0,260317,0.4,E,A*0E

6:02:15:408 Nachm. 03/26/17 - $GPGSA,A,2,14,25,29,31,32,,,,,,,,1.7,1.5,0.9*32

6:02:15:408 Nachm. 03/26/17 - $GNGSA,A,2,14,25,29,31,32,,,,,,,,1.7,1.5,0.9*2C

6:02:15:408 Nachm. 03/26/17 - $GNGSA,A,2,65,73,82,,,,,,,,,,1.7,1.5,0.9*2B

6:02:16:385 Nachm. 03/26/17 - $GPGSV,3,1,11,14,31,286,23,25,70,286,30,29,34,209,18,31,23,307,31*75

6:02:16:386 Nachm. 03/26/17 - $GPGSV,3,2,11,32,29,257,14,02,36,097,,03,01,347,,06,24,049,*71

6:02:16:387 Nachm. 03/26/17 - $GPGSV,3,3,11,12,58,077,,19,02,043,,24,27,150,*4D

6:02:16:389 Nachm. 03/26/17 - $GLGSV,3,1,10,74,08,306,25,82,63,066,16,73,66,320,29,65,09,000,25*64

6:02:16:391 Nachm. 03/26/17 - $GLGSV,3,2,10,72,16,313,28,80,57,112,,79,00,122,,83,45,178,*6F

6:02:16:400 Nachm. 03/26/17 - $GLGSV,3,3,10,81,17,030,,71,04,267,*69

6:02:16:401 Nachm. 03/26/17 - $GPGGA,160213.0,5208.340972,N,01138.679656,E,1,05,1.5,52.6,M,45.0,M,,*68

6:02:16:402 Nachm. 03/26/17 - $GNGNS,160213.0,5208.340972,N,01138.679656,E,AA,08,1.5,52.6,45.0,,*51

6:02:16:402 Nachm. 03/26/17 - $GPVTG,211.0,T,210.6,M,0.0,N,0.0,K,A*24

6:02:16:403 Nachm. 03/26/17 - $GPRMC,160213.0,A,5208.340972,N,01138.679656,E,0.0,211.0,260317,0.4,E,A*07

6:02:16:409 Nachm. 03/26/17 - $GPGSA,A,2,14,25,29,31,32,,,,,,,,1.7,1.5,0.9*32

6:02:16:418 Nachm. 03/26/17 - $GNGSA,A,2,14,25,29,31,32,,,,,,,,1.7,1.5,0.9*2C

6:02:16:418 Nachm. 03/26/17 - $GNGSA,A,2,65,73,82,,,,,,,,,,1.7,1.5,0.9*2B

6:02:17:384 Nachm. 03/26/17 - $GPGSV,3,1,11,14,31,286,26,25,70,286,31,29,34,209,18,31,23,307,28*79

6:02:17:386 Nachm. 03/26/17 - $GPGSV,3,2,11,32,29,257,14,02,36,097,,03,01,347,,06,24,049,*71

6:02:17:386 Nachm. 03/26/17 - $GPGSV,3,3,11,12,58,077,,19,02,043,,24,27,150,*4D

6:02:17:387 Nachm. 03/26/17 - $GLGSV,3,1,10,74,08,306,25,82,63,066,16,73,66,320,30,65,09,000,24*6D

6:02:17:388 Nachm. 03/26/17 - $GLGSV,3,2,10,72,16,313,29,80,57,112,,79,00,122,,83,45,178,*6E

6:02:17:409 Nachm. 03/26/17 - $GLGSV,3,3,10,81,17,030,,71,04,267,*69

6:02:17:417 Nachm. 03/26/17 - $GPGGA,160214.0,5208.340987,N,01138.679669,E,1,05,1.5,52.7,M,45.0,M,,*68

6:02:17:419 Nachm. 03/26/17 - $GNGNS,160214.0,5208.340987,N,01138.679669,E,AA,08,1.5,52.7,45.0,,*51

6:02:17:419 Nachm. 03/26/17 - $GPVTG,211.0,T,210.6,M,0.0,N,0.0,K,A*24

6:02:17:420 Nachm. 03/26/17 - $GPRMC,160214.0,A,5208.340987,N,01138.679669,E,0.0,211.0,260317,0.4,E,A*06

6:02:17:420 Nachm. 03/26/17 - $GPGSA,A,2,14,25,29,31,32,,,,,,,,1.7,1.5,0.9*32

6:02:17:420 Nachm. 03/26/17 - $GNGSA,A,2,14,25,29,31,32,,,,,,,,1.7,1.5,0.9*2C

6:02:17:421 Nachm. 03/26/17 - $GNGSA,A,2,65,73,82,,,,,,,,,,1.7,1.5,0.9*2B

6:02:18:384 Nachm. 03/26/17 - $GPGSV,3,1,11,14,31,286,32,25,70,286,34,29,34,209,18,31,23,307,30*70

6:02:18:386 Nachm. 03/26/17 - $GPGSV,3,2,11,32,29,257,16,02,36,097,,03,01,347,,06,24,049,*73

6:02:18:387 Nachm. 03/26/17 - $GPGSV,3,3,11,12,58,077,,19,02,043,,24,27,150,*4D

6:02:18:396 Nachm. 03/26/17 - $GLGSV,3,1,10,74,08,306,22,82,63,066,16,73,66,320,30,65,09,000,21*6F

6:02:18:396 Nachm. 03/26/17 - $GLGSV,3,2,10,72,16,313,27,80,57,112,,79,00,122,,83,45,178,*60

6:02:18:398 Nachm. 03/26/17 - $GLGSV,3,3,10,81,17,030,,71,04,267,*69

6:02:18:402 Nachm. 03/26/17 - $GPGGA,160215.0,5208.340870,N,01138.679573,E,1,05,1.5,52.6,M,45.0,M,,*69

6:02:18:405 Nachm. 03/26/17 - $GNGNS,160215.0,5208.340870,N,01138.679573,E,AA,08,1.5,52.6,45.0,,*50

6:02:18:405 Nachm. 03/26/17 - $GPVTG,211.0,T,210.6,M,0.0,N,0.0,K,A*24

6:02:18:405 Nachm. 03/26/17 - $GPRMC,160215.0,A,5208.340870,N,01138.679573,E,0.0,211.0,260317,0.4,E,A*06

6:02:18:406 Nachm. 03/26/17 - $GPGSA,A,2,14,25,29,31,32,,,,,,,,1.7,1.5,0.9*32

6:02:18:406 Nachm. 03/26/17 - $GNGSA,A,2,14,25,29,31,32,,,,,,,,1.7,1.5,0.9*2C

6:02:18:406 Nachm. 03/26/17 - $GNGSA,A,2,65,73,82,,,,,,,,,,1.7,1.5,0.9*2B

6:02:19:384 Nachm. 03/26/17 - $GPGSV,3,1,11,14,31,286,29,25,70,286,31,29,34,209,17,31,23,307,29*78

6:02:19:386 Nachm. 03/26/17 - $GPGSV,3,2,11,32,29,257,16,02,36,097,,03,01,347,,06,24,049,*73

6:02:19:387 Nachm. 03/26/17 - $GPGSV,3,3,11,12,58,077,,19,02,043,,24,27,150,*4D

6:02:19:387 Nachm. 03/26/17 - $GLGSV,3,1,10,74,08,306,22,82,63,066,16,73,66,320,31,65,09,000,24*6B

6:02:19:388 Nachm. 03/26/17 - $GLGSV,3,2,10,72,16,313,28,80,57,112,,79,00,122,,83,45,178,*6F

6:02:19:393 Nachm. 03/26/17 - $GLGSV,3,3,10,81,17,030,,71,04,267,*69

6:02:19:394 Nachm. 03/26/17 - $GPGGA,160216.0,5208.340911,N,01138.679616,E,1,05,1.5,52.6,M,45.0,M,,*6C

6:02:19:395 Nachm. 03/26/17 - $GNGNS,160216.0,5208.340911,N,01138.679616,E,AA,08,1.5,52.6,45.0,,*55

6:02:19:407 Nachm. 03/26/17 - $GPVTG,211.0,T,210.6,M,0.0,N,0.0,K,A*24

6:02:19:407 Nachm. 03/26/17 - $GPRMC,160216.0,A,5208.340911,N,01138.679616,E,0.0,211.0,260317,0.4,E,A*03

6:02:19:407 Nachm. 03/26/17 - $GPGSA,A,2,14,25,29,31,32,,,,,,,,1.7,1.5,0.9*32

6:02:19:407 Nachm. 03/26/17 - $GNGSA,A,2,14,25,29,31,32,,,,,,,,1.7,1.5,0.9*2C

6:02:19:408 Nachm. 03/26/17 - $GNGSA,A,2,65,73,82,,,,,,,,,,1.7,1.5,0.9*2B

6:02:20:386 Nachm. 03/26/17 - $GPGSV,3,1,11,14,31,286,28,25,70,286,31,29,34,209,17,31,23,307,28*78

6:02:20:386 Nachm. 03/26/17 - $GPGSV,3,2,11,32,29,257,16,02,36,097,,03,01,347,,06,24,049,*73

6:02:20:390 Nachm. 03/26/17 - $GPGSV,3,3,11,12,58,077,,19,02,043,,24,27,150,*4D

6:02:20:400 Nachm. 03/26/17 - $GLGSV,3,1,10,74,08,306,22,82,63,066,16,73,66,320,31,65,09,000,26*69

6:02:20:402 Nachm. 03/26/17 - $GLGSV,3,2,10,72,16,313,28,80,57,112,,79,00,122,,83,45,178,*6F

6:02:20:403 Nachm. 03/26/17 - $GLGSV,3,3,10,81,17,030,,71,04,267,*69

6:02:20:405 Nachm. 03/26/17 - $GPGGA,160217.0,5208.340883,N,01138.679554,E,1,05,1.5,52.7,M,45.0,M,,*63

6:02:20:411 Nachm. 03/26/17 - $GNGNS,160217.0,5208.340883,N,01138.679554,E,AA,08,1.5,52.7,45.0,,*5A

6:02:20:411 Nachm. 03/26/17 - $GPVTG,211.0,T,210.6,M,0.0,N,0.0,K,A*24

6:02:20:412 Nachm. 03/26/17 - $GPRMC,160217.0,A,5208.340883,N,01138.679554,E,0.0,211.0,260317,0.4,E,A*0D

6:02:20:413 Nachm. 03/26/17 - $GPGSA,A,2,14,25,29,31,32,,,,,,,,1.7,1.5,0.9*32

6:02:20:416 Nachm. 03/26/17 - $GNGSA,A,2,14,25,29,31,32,,,,,,,,1.7,1.5,0.9*2C

6:02:20:416 Nachm. 03/26/17 - $GNGSA,A,2,65,73,82,,,,,,,,,,1.7,1.5,0.9*2B

6:02:21:385 Nachm. 03/26/17 - $GPGSV,3,1,11,14,31,286,25,25,70,286,23,29,34,209,17,31,23,307,31*7E

6:02:21:386 Nachm. 03/26/17 - $GPGSV,3,2,11,32,29,257,16,02,36,097,,03,01,347,,06,24,049,*73

6:02:21:388 Nachm. 03/26/17 - $GPGSV,3,3,11,12,58,077,,19,02,043,,24,27,150,*4D

6:02:21:402 Nachm. 03/26/17 - $GLGSV,3,1,10,74,08,306,23,82,63,066,13,73,66,320,27,65,09,000,25*69

6:02:21:406 Nachm. 03/26/17 - $GLGSV,3,2,10,72,16,313,29,80,57,112,,79,00,122,,83,45,178,*6E

6:02:21:412 Nachm. 03/26/17 - $GLGSV,3,3,10,81,17,030,,71,04,267,*69

6:02:21:416 Nachm. 03/26/17 - $GPGGA,160218.0,5208.340872,N,01138.679597,E,1,05,1.5,52.7,M,45.0,M,,*6D

6:02:21:417 Nachm. 03/26/17 - $GNGNS,160218.0,5208.340872,N,01138.679597,E,AA,08,1.5,52.7,45.0,,*54

6:02:21:417 Nachm. 03/26/17 - $GPVTG,211.0,T,210.6,M,0.0,N,0.0,K,A*24

6:02:21:418 Nachm. 03/26/17 - $GPRMC,160218.0,A,5208.340872,N,01138.679597,E,0.0,211.0,260317,0.4,E,A*03

6:02:21:418 Nachm. 03/26/17 - $GPGSA,A,2,14,25,29,31,32,,,,,,,,1.7,1.5,0.9*32

6:02:21:418 Nachm. 03/26/17 - $GNGSA,A,2,14,25,29,31,32,,,,,,,,1.7,1.5,0.9*2C

6:02:21:418 Nachm. 03/26/17 - $GNGSA,A,2,65,73,82,,,,,,,,,,1.7,1.5,0.9*2B

6:02:22:384 Nachm. 03/26/17 - $GPGSV,3,1,11,14,31,286,21,25,70,286,29,29,34,209,17,31,23,307,30*71

6:02:22:386 Nachm. 03/26/17 - $GPGSV,3,2,11,32,29,257,16,02,36,097,,03,01,347,,06,24,049,*73

6:02:22:387 Nachm. 03/26/17 - $GPGSV,3,3,11,12,58,077,,19,02,043,,24,27,150,*4D

6:02:22:390 Nachm. 03/26/17 - $GLGSV,3,1,10,74,08,306,24,82,63,066,13,73,66,320,28,65,09,000,27*63

6:02:22:391 Nachm. 03/26/17 - $GLGSV,3,2,10,72,16,313,21,80,57,112,,79,00,122,,83,45,178,*66

6:02:22:397 Nachm. 03/26/17 - $GLGSV,3,3,10,81,17,030,,71,04,267,*69

6:02:22:401 Nachm. 03/26/17 - $GPGGA,160219.0,5208.340777,N,01138.679553,E,1,05,1.5,52.6,M,45.0,M,,*6F

6:02:22:401 Nachm. 03/26/17 - $GNGNS,160219.0,5208.340777,N,01138.679553,E,AA,08,1.5,52.6,45.0,,*56

6:02:22:402 Nachm. 03/26/17 - $GPVTG,211.0,T,210.6,M,0.0,N,0.0,K,A*24

6:02:22:402 Nachm. 03/26/17 - $GPRMC,160219.0,A,5208.340777,N,01138.679553,E,0.0,211.0,260317,0.4,E,A*00

6:02:22:403 Nachm. 03/26/17 - $GPGSA,A,2,14,25,29,31,32,,,,,,,,1.7,1.5,0.9*32

6:02:22:403 Nachm. 03/26/17 - $GNGSA,A,2,14,25,29,31,32,,,,,,,,1.7,1.5,0.9*2C

6:02:22:403 Nachm. 03/26/17 - $GNGSA,A,2,65,73,82,,,,,,,,,,1.7,1.5,0.9*2B

6:02:23:384 Nachm. 03/26/17 - $GPGSV,3,1,11,14,31,286,23,25,70,286,29,29,34,209,17,31,23,307,24*76

6:02:23:387 Nachm. 03/26/17 - $GPGSV,3,2,11,32,29,257,16,02,36,097,,03,01,347,,06,24,049,*73

6:02:23:389 Nachm. 03/26/17 - $GPGSV,3,3,11,12,58,077,,19,02,043,,24,27,150,*4D

6:02:23:389 Nachm. 03/26/17 - $GLGSV,3,1,10,74,08,306,24,82,63,066,13,73,66,320,21,65,09,000,26*6B

6:02:23:390 Nachm. 03/26/17 - $GLGSV,3,2,10,72,16,313,27,80,57,112,,79,00,122,,83,45,178,*60

6:02:23:401 Nachm. 03/26/17 - $GLGSV,3,3,10,81,17,030,,71,04,267,*69

6:02:23:401 Nachm. 03/26/17 - $GPGGA,160220.0,5208.340769,N,01138.679526,E,1,05,1.5,52.6,M,45.0,M,,*68

6:02:23:410 Nachm. 03/26/17 - $GNGNS,160220.0,5208.340769,N,01138.679526,E,AA,08,1.5,52.6,45.0,,*51

6:02:23:411 Nachm. 03/26/17 - $GPVTG,211.0,T,210.6,M,0.0,N,0.0,K,A*24

6:02:23:411 Nachm. 03/26/17 - $GPRMC,160220.0,A,5208.340769,N,01138.679526,E,0.0,211.0,260317,0.4,E,A*07

6:02:23:412 Nachm. 03/26/17 - $GPGSA,A,2,14,25,29,31,32,,,,,,,,1.7,1.5,0.9*32

6:02:23:412 Nachm. 03/26/17 - $GNGSA,A,2,14,25,29,31,32,,,,,,,,1.7,1.5,0.9*2C

6:02:23:413 Nachm. 03/26/17 - $GNGSA,A,2,65,73,82,,,,,,,,,,1.7,1.5,0.9*2B

6:02:24:384 Nachm. 03/26/17 - $GPGSV,3,1,11,14,31,286,25,25,70,286,29,29,34,209,19,31,23,307,25*7F

6:02:24:386 Nachm. 03/26/17 - $GPGSV,3,2,11,32,29,257,16,02,36,097,,03,01,347,,06,24,049,*73

6:02:24:391 Nachm. 03/26/17 - $GPGSV,3,3,11,12,58,077,,19,02,043,,24,27,150,*4D

6:02:24:399 Nachm. 03/26/17 - $GLGSV,3,1,10,74,08,306,24,82,63,066,13,73,66,320,21,65,09,000,27*6A

6:02:24:401 Nachm. 03/26/17 - $GLGSV,3,2,10,72,16,313,28,80,57,112,,79,00,122,,83,45,178,*6F

6:02:24:404 Nachm. 03/26/17 - $GLGSV,3,3,10,81,17,030,,71,04,267,*69

6:02:24:405 Nachm. 03/26/17 - $GPGGA,160221.0,5208.340839,N,01138.679408,E,1,05,1.5,52.8,M,45.0,M,,*60

6:02:24:407 Nachm. 03/26/17 - $GNGNS,160221.0,5208.340839,N,01138.679408,E,AA,08,1.5,52.8,45.0,,*59

6:02:24:408 Nachm. 03/26/17 - $GPVTG,211.0,T,210.6,M,0.0,N,0.0,K,A*24

6:02:24:410 Nachm. 03/26/17 - $GPRMC,160221.0,A,5208.340839,N,01138.679408,E,0.0,211.0,260317,0.4,E,A*01

6:02:24:411 Nachm. 03/26/17 - $GPGSA,A,2,14,25,29,31,32,,,,,,,,1.7,1.5,0.9*32

6:02:24:413 Nachm. 03/26/17 - $GNGSA,A,2,14,25,29,31,32,,,,,,,,1.7,1.5,0.9*2C

6:02:24:414 Nachm. 03/26/17 - $GNGSA,A,2,65,73,82,,,,,,,,,,1.7,1.5,0.9*2B

6:02:25:386 Nachm. 03/26/17 - $GPGSV,3,1,11,14,31,286,26,25,70,286,29,29,34,209,19,31,23,307,28*71

6:02:25:387 Nachm. 03/26/17 - $GPGSV,3,2,11,32,29,257,16,02,36,097,,03,01,347,,06,24,049,*73

6:02:25:389 Nachm. 03/26/17 - $GPGSV,3,3,11,12,58,077,,19,02,043,,24,27,150,*4D

6:02:25:390 Nachm. 03/26/17 - $GLGSV,3,1,10,74,08,306,14,82,63,066,13,73,66,320,21,65,09,000,27*69

6:02:25:390 Nachm. 03/26/17 - $GLGSV,3,2,10,72,16,313,27,80,57,112,,79,00,122,,83,45,178,*60

6:02:25:391 Nachm. 03/26/17 - $GLGSV,3,3,10,81,17,030,,71,04,267,*69

6:02:25:396 Nachm. 03/26/17 - $GPGGA,160222.0,5208.340863,N,01138.679405,E,1,05,1.5,52.8,M,45.0,M,,*61

6:02:25:397 Nachm. 03/26/17 - $GNGNS,160222.0,5208.340863,N,01138.679405,E,AA,08,1.5,52.8,45.0,,*58

6:02:25:399 Nachm. 03/26/17 - $GPVTG,211.0,T,210.6,M,0.0,N,0.0,K,A*24

6:02:25:400 Nachm. 03/26/17 - $GPRMC,160222.0,A,5208.340863,N,01138.679405,E,0.0,211.0,260317,0.4,E,A*00

6:02:25:401 Nachm. 03/26/17 - $GPGSA,A,2,14,25,29,31,32,,,,,,,,1.7,1.5,0.9*32

6:02:25:403 Nachm. 03/26/17 - $GNGSA,A,2,14,25,29,31,32,,,,,,,,1.7,1.5,0.9*2C

6:02:25:404 Nachm. 03/26/17 - $GNGSA,A,2,65,73,82,,,,,,,,,,1.7,1.5,0.9*2B

6:02:26:385 Nachm. 03/26/17 - $GPGSV,3,1,11,12,58,077,15,14,31,286,25,25,70,286,29,29,34,209,20*7F

6:02:26:386 Nachm. 03/26/17 - $GPGSV,3,2,11,31,23,307,29,32,29,257,16,02,36,097,,03,01,347,*72

6:02:26:389 Nachm. 03/26/17 - $GPGSV,3,3,11,06,24,049,,19,02,043,,24,27,150,*4E

6:02:26:390 Nachm. 03/26/17 - $GLGSV,3,1,10,74,08,306,14,82,63,066,13,73,66,320,21,65,09,000,26*68

6:02:26:392 Nachm. 03/26/17 - $GLGSV,3,2,10,72,16,313,26,80,57,112,,79,00,122,,83,45,178,*61

6:02:26:411 Nachm. 03/26/17 - $GLGSV,3,3,10,81,17,030,,71,04,267,*69

6:02:26:412 Nachm. 03/26/17 - $GPGGA,160223.0,5208.340888,N,01138.679368,E,1,06,1.2,52.8,M,45.0,M,,*6D

6:02:26:413 Nachm. 03/26/17 - $GNGNS,160223.0,5208.340888,N,01138.679368,E,AA,09,1.2,52.8,45.0,,*56

6:02:26:414 Nachm. 03/26/17 - $GPVTG,211.0,T,210.6,M,0.0,N,0.0,K,A*24

6:02:26:414 Nachm. 03/26/17 - $GPRMC,160223.0,A,5208.340888,N,01138.679368,E,0.0,211.0,260317,0.4,E,A*08

6:02:26:415 Nachm. 03/26/17 - $GPGSA,A,2,12,14,25,29,31,32,,,,,,,1.5,1.2,0.9*34

6:02:26:416 Nachm. 03/26/17 - $GNGSA,A,2,12,14,25,29,31,32,,,,,,,1.5,1.2,0.9*2A

6:02:26:416 Nachm. 03/26/17 - $GNGSA,A,2,65,73,82,,,,,,,,,,1.5,1.2,0.9*2E

6:02:27:385 Nachm. 03/26/17 - $GPGSV,3,1,11,12,58,077,15,14,31,286,26,25,70,286,29,29,34,209,19*76

6:02:27:396 Nachm. 03/26/17 - $GPGSV,3,2,11,31,23,307,30,32,29,257,16,02,36,097,,03,01,347,*7A

6:02:27:396 Nachm. 03/26/17 - $GPGSV,3,3,11,06,24,049,,19,02,043,,24,27,150,*4E

6:02:27:398 Nachm. 03/26/17 - $GLGSV,3,1,10,74,08,306,14,82,63,066,13,73,66,320,21,65,09,000,27*69

6:02:27:405 Nachm. 03/26/17 - $GLGSV,3,2,10,72,16,313,26,80,57,112,,79,00,122,,83,45,178,*61

6:02:27:405 Nachm. 03/26/17 - $GLGSV,3,3,10,81,17,030,,71,04,267,*69

6:02:27:405 Nachm. 03/26/17 - $GPGGA,160224.0,5208.340894,N,01138.679342,E,1,06,1.2,52.9,M,45.0,M,,*6E

6:02:27:406 Nachm. 03/26/17 - $GNGNS,160224.0,5208.340894,N,01138.679342,E,AA,09,1.2,52.9,45.0,,*55

6:02:27:406 Nachm. 03/26/17 - $GPVTG,211.0,T,210.6,M,0.0,N,0.0,K,A*24

6:02:27:406 Nachm. 03/26/17 - $GPRMC,160224.0,A,5208.340894,N,01138.679342,E,0.0,211.0,260317,0.4,E,A*0A

6:02:27:406 Nachm. 03/26/17 - $GPGSA,A,2,12,14,25,29,31,32,,,,,,,1.5,1.2,0.9*34

6:02:27:406 Nachm. 03/26/17 - $GNGSA,A,2,12,14,25,29,31,32,,,,,,,1.5,1.2,0.9*2A

6:02:27:406 Nachm. 03/26/17 - $GNGSA,A,2,65,73,82,,,,,,,,,,1.5,1.2,0.9*2E

6:02:28:384 Nachm. 03/26/17 - $GPGSV,3,1,11,12,58,077,15,14,31,286,25,25,70,286,29,29,34,209,18*74

6:02:28:387 Nachm. 03/26/17 - $GPGSV,3,2,11,31,23,307,30,32,29,257,16,02,36,097,,03,01,347,*7A

6:02:28:389 Nachm. 03/26/17 - $GPGSV,3,3,11,06,24,049,,19,02,043,,24,27,150,*4E

6:02:28:406 Nachm. 03/26/17 - $GLGSV,3,1,10,74,08,306,14,82,63,066,13,73,66,320,21,65,09,000,26*68

6:02:28:406 Nachm. 03/26/17 - $GLGSV,3,2,10,72,16,313,24,80,57,112,,79,00,122,,83,45,178,*63

6:02:28:407 Nachm. 03/26/17 - $GLGSV,3,3,10,81,17,030,,71,04,267,*69

6:02:28:407 Nachm. 03/26/17 - $GPGGA,160225.0,5208.340940,N,01138.679378,E,1,06,1.3,52.9,M,45.0,M,,*6F

6:02:28:408 Nachm. 03/26/17 - $GNGNS,160225.0,5208.340940,N,01138.679378,E,AA,08,1.3,52.9,45.0,,*55

6:02:28:408 Nachm. 03/26/17 - $GPVTG,211.0,T,210.6,M,0.0,N,0.0,K,A*24

6:02:28:409 Nachm. 03/26/17 - $GPRMC,160225.0,A,5208.340940,N,01138.679378,E,0.0,211.0,260317,0.4,E,A*0A

6:02:28:410 Nachm. 03/26/17 - $GPGSA,A,2,12,14,25,29,31,32,,,,,,,1.5,1.3,0.9*35

6:02:28:411 Nachm. 03/26/17 - $GNGSA,A,2,12,14,25,29,31,32,,,,,,,1.5,1.3,0.9*2B

6:02:28:411 Nachm. 03/26/17 - $GNGSA,A,2,65,73,,,,,,,,,,,1.5,1.3,0.9*25

6:02:29:385 Nachm. 03/26/17 - $GPGSV,3,1,11,12,58,077,15,14,31,286,26,25,70,286,29,29,34,209,19*76

6:02:29:387 Nachm. 03/26/17 - $GPGSV,3,2,11,31,23,307,30,32,29,257,13,02,36,097,,03,01,347,*7F

6:02:29:392 Nachm. 03/26/17 - $GPGSV,3,3,11,06,24,049,,19,02,043,,24,27,150,*4E

6:02:29:393 Nachm. 03/26/17 - $GLGSV,3,1,10,74,08,306,14,82,63,066,13,73,66,320,21,65,09,000,27*69

6:02:29:397 Nachm. 03/26/17 - $GLGSV,3,2,10,72,16,313,26,80,57,112,,79,00,122,,83,45,178,*61

6:02:29:399 Nachm. 03/26/17 - $GLGSV,3,3,10,81,17,030,,71,04,267,*69

6:02:29:404 Nachm. 03/26/17 - $GPGGA,160226.0,5208.341011,N,01138.679354,E,1,05,1.3,53.0,M,45.0,M,,*65

6:02:29:404 Nachm. 03/26/17 - $GNGNS,160226.0,5208.341011,N,01138.679354,E,AA,07,1.3,53.0,45.0,,*53

6:02:29:405 Nachm. 03/26/17 - $GPVTG,211.0,T,210.6,M,0.0,N,0.0,K,A*24

6:02:29:405 Nachm. 03/26/17 - $GPRMC,160226.0,A,5208.341011,N,01138.679354,E,0.0,211.0,260317,0.4,E,A*0B

6:02:29:405 Nachm. 03/26/17 - $GPGSA,A,2,12,14,29,31,32,,,,,,,,1.5,1.3,0.9*32

6:02:29:405 Nachm. 03/26/17 - $GNGSA,A,2,12,14,29,31,32,,,,,,,,1.5,1.3,0.9*2C

6:02:29:405 Nachm. 03/26/17 - $GNGSA,A,2,65,73,,,,,,,,,,,1.5,1.3,0.9*25

6:02:30:387 Nachm. 03/26/17 - $GPGSV,3,1,11,12,58,077,15,14,31,286,26,25,70,286,29,29,34,209,19*76

6:02:30:388 Nachm. 03/26/17 - $GPGSV,3,2,11,31,23,307,30,32,29,257,13,02,36,097,,03,01,347,*7F

6:02:30:389 Nachm. 03/26/17 - $GPGSV,3,3,11,06,24,049,,19,02,043,,24,27,150,*4E

6:02:30:390 Nachm. 03/26/17 - $GLGSV,3,1,10,74,08,306,14,82,63,066,13,73,66,320,21,65,09,000,27*69

6:02:30:402 Nachm. 03/26/17 - $GLGSV,3,2,10,72,16,313,25,80,57,112,,79,00,122,,83,45,178,*62

6:02:30:403 Nachm. 03/26/17 - $GLGSV,3,3,10,81,17,030,,71,04,267,*69

6:02:30:404 Nachm. 03/26/17 - $GPGGA,160227.0,5208.341038,N,01138.679324,E,1,05,1.3,53.0,M,45.0,M,,*68

6:02:30:405 Nachm. 03/26/17 - $GNGNS,160227.0,5208.341038,N,01138.679324,E,AA,06,1.3,53.0,45.0,,*5F

6:02:30:406 Nachm. 03/26/17 - $GPVTG,211.0,T,210.6,M,0.0,N,0.0,K,A*24

6:02:30:406 Nachm. 03/26/17 - $GPRMC,160227.0,A,5208.341038,N,01138.679324,E,0.0,211.0,260317,0.4,E,A*06

6:02:30:407 Nachm. 03/26/17 - $GPGSA,A,2,12,14,29,31,32,,,,,,,,1.6,1.3,1.0*39

6:02:30:416 Nachm. 03/26/17 - $GNGSA,A,2,12,14,29,31,32,,,,,,,,1.6,1.3,1.0*27

6:02:30:416 Nachm. 03/26/17 - $GNGSA,A,2,65,,,,,,,,,,,,1.6,1.3,1.0*2A

6:02:31:388 Nachm. 03/26/17 - $GPGSV,3,1,11,12,58,077,15,14,31,286,25,25,70,286,11,29,34,209,19*7E

6:02:31:389 Nachm. 03/26/17 - $GPGSV,3,2,11,31,23,307,31,32,29,257,13,02,36,097,,03,01,347,*7E

6:02:31:389 Nachm. 03/26/17 - $GPGSV,3,3,11,06,24,049,,19,02,043,,24,27,150,*4E

6:02:31:390 Nachm. 03/26/17 - $GLGSV,3,1,10,74,08,306,14,82,63,066,13,73,66,320,21,65,09,000,27*69

6:02:31:390 Nachm. 03/26/17 - $GLGSV,3,2,10,72,16,313,24,80,57,112,,79,00,122,,83,45,178,*63

6:02:31:391 Nachm. 03/26/17 - $GLGSV,3,3,10,81,17,030,,71,04,267,*69

6:02:31:404 Nachm. 03/26/17 - $GPGGA,160228.0,5208.341043,N,01138.679292,E,1,06,1.3,53.0,M,45.0,M,,*64

6:02:31:406 Nachm. 03/26/17 - $GNGNS,160228.0,5208.341043,N,01138.679292,E,AA,07,1.3,53.0,45.0,,*51

6:02:31:406 Nachm. 03/26/17 - $GPVTG,211.0,T,210.6,M,0.0,N,0.0,K,A*24

6:02:31:407 Nachm. 03/26/17 - $GPRMC,160228.0,A,5208.341043,N,01138.679292,E,0.0,211.0,260317,0.4,E,A*09

6:02:31:407 Nachm. 03/26/17 - $GPGSA,A,2,12,14,25,29,31,32,,,,,,,1.6,1.3,0.9*36

6:02:31:407 Nachm. 03/26/17 - $GNGSA,A,2,12,14,25,29,31,32,,,,,,,1.6,1.3,0.9*28

6:02:31:407 Nachm. 03/26/17 - $GNGSA,A,2,65,,,,,,,,,,,,1.6,1.3,0.9*22

6:02:32:385 Nachm. 03/26/17 - $GPGSV,3,1,11,12,58,077,15,14,31,286,26,25,70,286,19,29,34,209,18*74

6:02:32:387 Nachm. 03/26/17 - $GPGSV,3,2,11,31,23,307,30,32,29,257,15,02,36,097,,03,01,347,*79

6:02:32:389 Nachm. 03/26/17 - $GPGSV,3,3,11,06,24,049,,19,02,043,,24,27,150,*4E

6:02:32:391 Nachm. 03/26/17 - $GLGSV,3,1,10,74,08,306,14,82,63,066,13,73,66,320,21,65,09,000,27*69

6:02:32:392 Nachm. 03/26/17 - $GLGSV,3,2,10,72,16,313,27,80,57,112,,79,00,122,,83,45,178,*60

6:02:32:394 Nachm. 03/26/17 - $GLGSV,3,3,10,81,17,030,,71,04,267,*69

6:02:32:398 Nachm. 03/26/17 - $GPGGA,160229.0,5208.341227,N,01138.679340,E,1,06,1.3,53.2,M,45.0,M,,*69

6:02:32:402 Nachm. 03/26/17 - $GNGNS,160229.0,5208.341227,N,01138.679340,E,AA,07,1.3,53.2,45.0,,*5C

6:02:32:402 Nachm. 03/26/17 - $GPVTG,211.0,T,210.6,M,0.0,N,0.0,K,A*24

6:02:32:403 Nachm. 03/26/17 - $GPRMC,160229.0,A,5208.341227,N,01138.679340,E,0.0,211.0,260317,0.4,E,A*06

6:02:32:403 Nachm. 03/26/17 - $GPGSA,A,2,12,14,25,29,31,32,,,,,,,1.6,1.3,0.9*36

6:02:32:404 Nachm. 03/26/17 - $GNGSA,A,2,12,14,25,29,31,32,,,,,,,1.6,1.3,0.9*28

6:02:32:404 Nachm. 03/26/17 - $GNGSA,A,2,65,,,,,,,,,,,,1.6,1.3,0.9*22

6:02:33:384 Nachm. 03/26/17 - $GPGSV,3,1,11,12,58,077,15,14,31,286,26,25,70,286,20,29,34,209,18*7E

6:02:33:386 Nachm. 03/26/17 - $GPGSV,3,2,11,31,23,307,30,32,29,257,15,02,36,097,,03,01,347,*79

6:02:33:387 Nachm. 03/26/17 - $GPGSV,3,3,11,06,24,049,,19,02,043,,24,27,150,*4E

6:02:33:391 Nachm. 03/26/17 - $GLGSV,3,1,10,74,08,306,14,82,63,066,13,73,66,320,21,65,09,000,27*69

6:02:33:392 Nachm. 03/26/17 - $GLGSV,3,2,10,72,16,313,26,80,57,112,,79,00,122,,83,45,178,*61

6:02:33:401 Nachm. 03/26/17 - $GLGSV,3,3,10,81,17,030,,71,04,267,*69

6:02:33:401 Nachm. 03/26/17 - $GPGGA,160230.0,5208.341252,N,01138.679329,E,1,06,1.3,53.2,M,45.0,M,,*6C

6:02:33:401 Nachm. 03/26/17 - $GNGNS,160230.0,5208.341252,N,01138.679329,E,AA,07,1.3,53.2,45.0,,*59

6:02:33:401 Nachm. 03/26/17 - $GPVTG,211.0,T,210.6,M,0.0,N,0.0,K,A*24

6:02:33:402 Nachm. 03/26/17 - $GPRMC,160230.0,A,5208.341252,N,01138.679329,E,0.0,211.0,260317,0.4,E,A*03

6:02:33:402 Nachm. 03/26/17 - $GPGSA,A,2,12,14,25,29,31,32,,,,,,,1.6,1.3,0.9*36

6:02:33:402 Nachm. 03/26/17 - $GNGSA,A,2,12,14,25,29,31,32,,,,,,,1.6,1.3,0.9*28

6:02:33:402 Nachm. 03/26/17 - $GNGSA,A,2,65,,,,,,,,,,,,1.6,1.3,0.9*22

6:02:34:385 Nachm. 03/26/17 - $GPGSV,3,1,11,12,58,077,15,14,31,286,25,25,70,286,20,29,34,209,17*72

6:02:34:386 Nachm. 03/26/17 - $GPGSV,3,2,11,31,23,307,31,32,29,257,18,02,36,097,,03,01,347,*75

6:02:34:390 Nachm. 03/26/17 - $GPGSV,3,3,11,06,24,049,,19,02,043,,24,27,150,*4E

6:02:34:391 Nachm. 03/26/17 - $GLGSV,3,1,10,74,08,306,14,82,63,066,13,73,66,320,21,65,09,000,27*69

6:02:34:391 Nachm. 03/26/17 - $GLGSV,3,2,10,72,16,313,25,80,57,112,,79,00,122,,83,45,178,*62

6:02:34:405 Nachm. 03/26/17 - $GLGSV,3,3,10,81,17,030,,71,04,267,*69

6:02:34:406 Nachm. 03/26/17 - $GPGGA,160231.0,5208.341451,N,01138.679346,E,1,06,1.3,53.4,M,45.0,M,,*67

6:02:34:406 Nachm. 03/26/17 - $GNGNS,160231.0,5208.341451,N,01138.679346,E,AA,07,1.3,53.4,45.0,,*52

6:02:34:407 Nachm. 03/26/17 - $GPVTG,211.0,T,210.6,M,0.0,N,0.0,K,A*24

6:02:34:407 Nachm. 03/26/17 - $GPRMC,160231.0,A,5208.341451,N,01138.679346,E,0.0,211.0,260317,0.4,E,A*0E

6:02:34:408 Nachm. 03/26/17 - $GPGSA,A,2,12,14,25,29,31,32,,,,,,,1.6,1.3,0.9*36

6:02:34:408 Nachm. 03/26/17 - $GNGSA,A,2,12,14,25,29,31,32,,,,,,,1.6,1.3,0.9*28

6:02:34:409 Nachm. 03/26/17 - $GNGSA,A,2,65,,,,,,,,,,,,1.6,1.3,0.9*22

6:02:35:384 Nachm. 03/26/17 - $GPGSV,3,1,11,12,58,077,15,14,31,286,26,25,70,286,15,29,34,209,17*77

6:02:35:386 Nachm. 03/26/17 - $GPGSV,3,2,11,31,23,307,31,32,29,257,18,02,36,097,,03,01,347,*75

6:02:35:386 Nachm. 03/26/17 - $GPGSV,3,3,11,06,24,049,,19,02,043,,24,27,150,*4E

6:02:35:391 Nachm. 03/26/17 - $GLGSV,3,1,10,74,08,306,14,82,63,066,13,73,66,320,11,65,09,000,27*6A

6:02:35:399 Nachm. 03/26/17 - $GLGSV,3,2,10,72,16,313,25,80,57,112,,79,00,122,,83,45,178,*62

6:02:35:404 Nachm. 03/26/17 - $GLGSV,3,3,10,81,17,030,,71,04,267,*69

6:02:35:405 Nachm. 03/26/17 - $GPGGA,160232.0,5208.341464,N,01138.679265,E,1,06,1.3,53.4,M,45.0,M,,*62

6:02:35:405 Nachm. 03/26/17 - $GNGNS,160232.0,5208.341464,N,01138.679265,E,AA,08,1.3,53.4,45.0,,*58

6:02:35:406 Nachm. 03/26/17 - $GPVTG,211.0,T,210.6,M,0.0,N,0.0,K,A*24

6:02:35:406 Nachm. 03/26/17 - $GPRMC,160232.0,A,5208.341464,N,01138.679265,E,0.0,211.0,260317,0.4,E,A*0B

6:02:35:407 Nachm. 03/26/17 - $GPGSA,A,2,12,14,25,29,31,32,,,,,,,1.5,1.3,0.9*35

6:02:35:407 Nachm. 03/26/17 - $GNGSA,A,2,12,14,25,29,31,32,,,,,,,1.5,1.3,0.9*2B

6:02:35:408 Nachm. 03/26/17 - $GNGSA,A,2,65,73,,,,,,,,,,,1.5,1.3,0.9*25

6:02:36:384 Nachm. 03/26/17 - $GPGSV,3,1,11,12,58,077,15,14,31,286,26,25,70,286,15,29,34,209,17*77

6:02:36:386 Nachm. 03/26/17 - $GPGSV,3,2,11,31,23,307,30,32,29,257,18,02,36,097,,03,01,347,*74

6:02:36:386 Nachm. 03/26/17 - $GPGSV,3,3,11,06,24,049,,19,02,043,,24,27,150,*4E

6:02:36:386 Nachm. 03/26/17 - $GLGSV,3,1,10,74,08,306,14,82,63,066,13,73,66,320,11,65,09,000,27*6A

6:02:36:386 Nachm. 03/26/17 - $GLGSV,3,2,10,72,16,313,23,80,57,112,,79,00,122,,83,45,178,*64

6:02:36:388 Nachm. 03/26/17 - $GLGSV,3,3,10,81,17,030,,71,04,267,*69

6:02:36:393 Nachm. 03/26/17 - $GPGGA,160233.0,5208.341560,N,01138.679286,E,1,06,1.3,53.5,M,45.0,M,,*6A

6:02:36:394 Nachm. 03/26/17 - $GNGNS,160233.0,5208.341560,N,01138.679286,E,AA,08,1.3,53.5,45.0,,*50

6:02:36:394 Nachm. 03/26/17 - $GPVTG,211.0,T,210.6,M,0.0,N,0.0,K,A*24

6:02:36:395 Nachm. 03/26/17 - $GPRMC,160233.0,A,5208.341560,N,01138.679286,E,0.0,211.0,260317,0.4,E,A*02

6:02:36:395 Nachm. 03/26/17 - $GPGSA,A,2,12,14,25,29,31,32,,,,,,,1.5,1.3,0.9*35

6:02:36:396 Nachm. 03/26/17 - $GNGSA,A,2,12,14,25,29,31,32,,,,,,,1.5,1.3,0.9*2B

6:02:36:396 Nachm. 03/26/17 - $GNGSA,A,2,65,73,,,,,,,,,,,1.5,1.3,0.9*25

6:02:37:385 Nachm. 03/26/17 - $GPGSV,3,1,11,12,58,077,15,14,31,286,23,25,70,286,24,29,34,209,17*70

6:02:37:387 Nachm. 03/26/17 - $GPGSV,3,2,11,31,23,307,30,32,29,257,18,02,36,097,,03,01,347,*74

6:02:37:387 Nachm. 03/26/17 - $GPGSV,3,3,11,06,24,049,,19,02,043,,24,27,150,*4E

6:02:37:390 Nachm. 03/26/17 - $GLGSV,3,1,10,74,08,306,10,82,63,066,13,73,66,320,19,65,09,000,28*69

6:02:37:396 Nachm. 03/26/17 - $GLGSV,3,2,10,72,16,313,22,80,57,112,,79,00,122,,83,45,178,*65

6:02:37:399 Nachm. 03/26/17 - $GLGSV,3,3,10,81,17,030,,71,04,267,*69

6:02:37:399 Nachm. 03/26/17 - $GPGGA,160234.0,5208.341668,N,01138.679347,E,1,06,1.3,53.6,M,45.0,M,,*69

6:02:37:399 Nachm. 03/26/17 - $GNGNS,160234.0,5208.341668,N,01138.679347,E,AA,08,1.3,53.6,45.0,,*53

6:02:37:400 Nachm. 03/26/17 - $GPVTG,211.0,T,210.6,M,0.0,N,0.0,K,A*24

6:02:37:400 Nachm. 03/26/17 - $GPRMC,160234.0,A,5208.341668,N,01138.679347,E,0.0,211.0,260317,0.4,E,A*02

6:02:37:400 Nachm. 03/26/17 - $GPGSA,A,2,12,14,25,29,31,32,,,,,,,1.5,1.3,0.9*35

6:02:37:401 Nachm. 03/26/17 - $GNGSA,A,2,12,14,25,29,31,32,,,,,,,1.5,1.3,0.9*2B

6:02:37:401 Nachm. 03/26/17 - $GNGSA,A,2,65,73,,,,,,,,,,,1.5,1.3,0.9*25

6:02:38:385 Nachm. 03/26/17 - $GPGSV,3,1,11,12,58,077,14,14,31,286,24,25,70,286,23,29,34,209,17*71

6:02:38:386 Nachm. 03/26/17 - $GPGSV,3,2,11,31,23,307,34,32,29,257,18,02,36,097,,03,01,347,*70

6:02:38:392 Nachm. 03/26/17 - $GPGSV,3,3,11,06,24,049,,19,02,043,,24,27,150,*4E

6:02:38:397 Nachm. 03/26/17 - $GLGSV,3,1,10,74,08,306,10,82,63,066,13,73,66,320,23,65,09,000,26*6E

6:02:38:397 Nachm. 03/26/17 - $GLGSV,3,2,10,72,16,313,19,80,57,112,,79,00,122,,83,45,178,*6D

6:02:38:397 Nachm. 03/26/17 - $GLGSV,3,3,10,81,17,030,,71,04,267,*69

6:02:38:397 Nachm. 03/26/17 - $GPGGA,160235.0,5208.341765,N,01138.679427,E,1,06,1.3,53.6,M,45.0,M,,*65

6:02:38:397 Nachm. 03/26/17 - $GNGNS,160235.0,5208.341765,N,01138.679427,E,AA,08,1.3,53.6,45.0,,*5F

6:02:38:398 Nachm. 03/26/17 - $GPVTG,211.0,T,210.6,M,0.0,N,0.0,K,A*24

6:02:38:398 Nachm. 03/26/17 - $GPRMC,160235.0,A,5208.341765,N,01138.679427,E,0.0,211.0,260317,0.4,E,A*0E

6:02:38:398 Nachm. 03/26/17 - $GPGSA,A,2,12,14,25,29,31,32,,,,,,,1.5,1.3,0.9*35

6:02:38:398 Nachm. 03/26/17 - $GNGSA,A,2,12,14,25,29,31,32,,,,,,,1.5,1.3,0.9*2B

6:02:38:398 Nachm. 03/26/17 - $GNGSA,A,2,65,73,,,,,,,,,,,1.5,1.3,0.9*25

6:02:39:385 Nachm. 03/26/17 - $GPGSV,3,1,11,12,58,077,14,14,31,286,27,25,70,286,25,29,34,209,16*75

6:02:39:390 Nachm. 03/26/17 - $GPGSV,3,2,11,31,23,307,33,32,29,257,18,02,36,097,,03,01,347,*77

6:02:39:391 Nachm. 03/26/17 - $GPGSV,3,3,11,06,24,049,,19,02,043,,24,27,150,*4E

6:02:39:392 Nachm. 03/26/17 - $GLGSV,3,1,10,74,08,306,21,82,63,066,13,73,66,320,22,65,09,000,29*62

6:02:39:392 Nachm. 03/26/17 - $GLGSV,3,2,10,72,16,313,17,80,57,112,,79,00,122,,83,45,178,*63

6:02:39:410 Nachm. 03/26/17 - $GLGSV,3,3,10,81,17,030,,71,04,267,*69

6:02:39:411 Nachm. 03/26/17 - $GPGGA,160236.0,5208.341821,N,01138.679432,E,1,06,1.3,53.7,M,45.0,M,,*6C

6:02:39:412 Nachm. 03/26/17 - $GNGNS,160236.0,5208.341821,N,01138.679432,E,AA,08,1.3,53.7,45.0,,*56

6:02:39:413 Nachm. 03/26/17 - $GPVTG,211.0,T,210.6,M,0.0,N,0.0,K,A*24

6:02:39:415 Nachm. 03/26/17 - $GPRMC,160236.0,A,5208.341821,N,01138.679432,E,0.0,211.0,260317,0.4,E,A*06

6:02:39:415 Nachm. 03/26/17 - $GPGSA,A,2,12,14,25,29,31,32,,,,,,,1.5,1.3,0.9*35

6:02:39:416 Nachm. 03/26/17 - $GNGSA,A,2,12,14,25,29,31,32,,,,,,,1.5,1.3,0.9*2B

6:02:39:416 Nachm. 03/26/17 - $GNGSA,A,2,65,73,,,,,,,,,,,1.5,1.3,0.9*25

6:02:40:384 Nachm. 03/26/17 - $GPGSV,3,1,11,12,58,077,14,14,31,286,25,25,70,286,25,29,34,209,16*77

6:02:40:386 Nachm. 03/26/17 - $GPGSV,3,2,11,31,23,307,34,32,29,257,18,02,36,097,,03,01,347,*70

6:02:40:388 Nachm. 03/26/17 - $GPGSV,3,3,11,06,24,049,,19,02,043,,24,27,150,*4E

6:02:40:389 Nachm. 03/26/17 - $GLGSV,3,1,10,74,08,306,22,82,63,066,13,73,66,320,22,65,09,000,29*61

6:02:40:391 Nachm. 03/26/17 - $GLGSV,3,2,10,72,16,313,17,80,57,112,,79,00,122,,83,45,178,*63

6:02:40:397 Nachm. 03/26/17 - $GLGSV,3,3,10,81,17,030,,71,04,267,*69

6:02:40:400 Nachm. 03/26/17 - $GPGGA,160237.0,5208.341861,N,01138.679443,E,1,06,1.3,53.7,M,45.0,M,,*6F

6:02:40:400 Nachm. 03/26/17 - $GNGNS,160237.0,5208.341861,N,01138.679443,E,AA,08,1.3,53.7,45.0,,*55

6:02:40:400 Nachm. 03/26/17 - $GPVTG,211.0,T,210.6,M,0.0,N,0.0,K,A*24

6:02:40:400 Nachm. 03/26/17 - $GPRMC,160237.0,A,5208.341861,N,01138.679443,E,0.0,211.0,260317,0.4,E,A*05

6:02:40:400 Nachm. 03/26/17 - $GPGSA,A,2,12,14,25,29,31,32,,,,,,,1.5,1.3,0.9*35

6:02:40:401 Nachm. 03/26/17 - $GNGSA,A,2,12,14,25,29,31,32,,,,,,,1.5,1.3,0.9*2B

6:02:40:401 Nachm. 03/26/17 - $GNGSA,A,2,65,73,,,,,,,,,,,1.5,1.3,0.9*25

6:02:41:386 Nachm. 03/26/17 - $GPGSV,3,1,11,12,58,077,14,14,31,286,24,25,70,286,25,29,34,209,16*76

6:02:41:386 Nachm. 03/26/17 - $GPGSV,3,2,11,31,23,307,34,32,29,257,18,02,36,097,,03,01,347,*70

6:02:41:387 Nachm. 03/26/17 - $GPGSV,3,3,11,06,24,049,,19,02,043,,24,27,150,*4E

6:02:41:387 Nachm. 03/26/17 - $GLGSV,3,1,10,74,08,306,19,82,63,066,13,73,66,320,23,65,09,000,28*69

6:02:41:389 Nachm. 03/26/17 - $GLGSV,3,2,10,72,16,313,17,80,57,112,,79,00,122,,83,45,178,*63

6:02:41:392 Nachm. 03/26/17 - $GLGSV,3,3,10,81,17,030,,71,04,267,*69

6:02:41:392 Nachm. 03/26/17 - $GPGGA,160238.0,5208.341868,N,01138.679450,E,1,06,1.3,53.7,M,45.0,M,,*6B

6:02:41:392 Nachm. 03/26/17 - $GNGNS,160238.0,5208.341868,N,01138.679450,E,AA,08,1.3,53.7,45.0,,*51

6:02:41:395 Nachm. 03/26/17 - $GPVTG,211.0,T,210.6,M,0.0,N,0.0,K,A*24

6:02:41:396 Nachm. 03/26/17 - $GPRMC,160238.0,A,5208.341868,N,01138.679450,E,0.0,211.0,260317,0.4,E,A*01

6:02:41:396 Nachm. 03/26/17 - $GPGSA,A,2,12,14,25,29,31,32,,,,,,,1.5,1.3,0.9*35

6:02:41:396 Nachm. 03/26/17 - $GNGSA,A,2,12,14,25,29,31,32,,,,,,,1.5,1.3,0.9*2B

6:02:41:397 Nachm. 03/26/17 - $GNGSA,A,2,65,73,,,,,,,,,,,1.5,1.3,0.9*25

6:02:42:385 Nachm. 03/26/17 - $GPGSV,3,1,11,12,58,077,14,14,31,286,23,25,70,286,24,29,34,209,15*73

6:02:42:387 Nachm. 03/26/17 - $GPGSV,3,2,11,31,23,307,34,32,29,257,18,02,36,097,,03,01,347,*70

6:02:42:387 Nachm. 03/26/17 - $GPGSV,3,3,11,06,24,049,,19,02,043,,24,27,150,*4E

6:02:42:391 Nachm. 03/26/17 - $GLGSV,3,1,10,74,08,306,18,82,63,066,13,73,66,320,23,65,09,000,28*68

6:02:42:392 Nachm. 03/26/17 - $GLGSV,3,2,10,72,16,313,17,80,57,112,,79,00,122,,83,45,178,*63

6:02:42:392 Nachm. 03/26/17 - $GLGSV,3,3,10,81,17,030,,71,04,267,*69

6:02:42:398 Nachm. 03/26/17 - $GPGGA,160239.0,5208.341882,N,01138.679450,E,1,06,1.3,53.8,M,45.0,M,,*61

6:02:42:399 Nachm. 03/26/17 - $GNGNS,160239.0,5208.341882,N,01138.679450,E,AA,08,1.3,53.8,45.0,,*5B

6:02:42:399 Nachm. 03/26/17 - $GPVTG,211.0,T,210.6,M,0.0,N,0.0,K,A*24

6:02:42:400 Nachm. 03/26/17 - $GPRMC,160239.0,A,5208.341882,N,01138.679450,E,0.0,211.0,260317,0.4,E,A*04

6:02:42:400 Nachm. 03/26/17 - $GPGSA,A,2,12,14,25,29,31,32,,,,,,,1.5,1.3,0.9*35

6:02:42:401 Nachm. 03/26/17 - $GNGSA,A,2,12,14,25,29,31,32,,,,,,,1.5,1.3,0.9*2B

6:02:42:401 Nachm. 03/26/17 - $GNGSA,A,2,65,73,,,,,,,,,,,1.5,1.3,0.9*25

6:02:43:384 Nachm. 03/26/17 - $GPGSV,3,1,11,12,58,077,14,14,31,286,26,25,70,286,30,29,34,209,15*73

6:02:43:385 Nachm. 03/26/17 - $GPGSV,3,2,11,31,23,307,32,32,29,257,18,02,36,097,,03,01,347,*76

6:02:43:391 Nachm. 03/26/17 - $GPGSV,3,3,11,06,24,049,,19,02,043,,24,27,150,*4E

6:02:43:393 Nachm. 03/26/17 - $GLGSV,3,1,10,74,08,306,28,73,66,320,25,65,09,000,26,72,16,313,19*65

6:02:43:393 Nachm. 03/26/17 - $GLGSV,3,2,10,,63,066,,80,57,112,,79,00,122,,83,45,178,*63

6:02:43:393 Nachm. 03/26/17 - $GLGSV,3,3,10,81,17,030,,71,04,267,*69

6:02:43:394 Nachm. 03/26/17 - $GPGGA,160240.0,5208.341904,N,01138.679481,E,1,05,1.3,53.8,M,45.0,M,,*6F

6:02:43:394 Nachm. 03/26/17 - $GNGNS,160240.0,5208.341904,N,01138.679481,E,AA,07,1.3,53.8,45.0,,*59

6:02:43:394 Nachm. 03/26/17 - $GPVTG,211.0,T,210.6,M,0.0,N,0.0,K,A*24

6:02:43:394 Nachm. 03/26/17 - $GPRMC,160240.0,A,5208.341904,N,01138.679481,E,0.0,211.0,260317,0.4,E,A*09

6:02:43:394 Nachm. 03/26/17 - $GPGSA,A,2,12,14,25,29,31,,,,,,,,1.6,1.3,0.9*37

6:02:43:395 Nachm. 03/26/17 - $GNGSA,A,2,12,14,25,29,31,,,,,,,,1.6,1.3,0.9*29

6:02:43:395 Nachm. 03/26/17 - $GNGSA,A,2,65,73,,,,,,,,,,,1.6,1.3,0.9*26


