5:44:04:385 Nachm. 03/26/17 - $GPGSV,3,1,11,06,26,057,26,12,66,070,18,24,35,149,29,29,26,208,28*7A

5:44:04:386 Nachm. 03/26/17 - $GPGSV,3,2,11,02,32,105,,03,02,354,,14,31,296,,19,09,043,*70

5:44:04:386 Nachm. 03/26/17 - $GPGSV,3,3,11,25,62,278,,31,16,307,,32,33,267,*44

5:44:04:391 Nachm. 03/26/17 - $GLGSV,3,1,10,82,66,090,26,83,34,178,26,81,26,032,24,74,00,302,*6F

5:44:04:392 Nachm. 03/26/17 - $GLGSV,3,2,10,73,56,314,,80,65,099,,79,07,116,,65,06,007,*62

5:44:04:393 Nachm. 03/26/17 - $GLGSV,3,3,10,71,11,272,,72,18,322,*6A

5:44:04:394 Nachm. 03/26/17 - $GPGGA,154401.0,5208.433371,N,01138.449405,E,1,04,2.3,60.7,M,45.0,M,,*61

5:44:04:394 Nachm. 03/26/17 - $GNGNS,154401.0,5208.433371,N,01138.449405,E,AN,04,2.3,60.7,45.0,,*5A

5:44:04:394 Nachm. 03/26/17 - $GPVTG,141.1,T,140.7,M,0.0,N,0.0,K,A*24

5:44:04:394 Nachm. 03/26/17 - $GPRMC,154401.0,A,5208.433371,N,01138.449405,E,0.0,141.1,260317,0.4,E,A*0D

5:44:04:395 Nachm. 03/26/17 - $GPGSA,A,2,06,12,24,29,,,,,,,,,2.4,2.3,0.9*35

5:44:04:395 Nachm. 03/26/17 - $GNGSA,A,2,06,12,24,29,,,,,,,,,2.4,2.3,0.9*2B

5:44:04:395 Nachm. 03/26/17 - $GNGSA,A,2,,,,,,,,,,,,,2.4,2.3,0.9*23

5:44:05:383 Nachm. 03/26/17 - $GPGSV,3,1,11,06,26,057,20,12,66,070,19,24,35,149,23,29,26,208,31*7F

5:44:05:384 Nachm. 03/26/17 - $GPGSV,3,2,11,02,32,105,,03,02,354,,14,31,296,,19,09,043,*70

5:44:05:384 Nachm. 03/26/17 - $GPGSV,3,3,11,25,62,278,,31,16,307,,32,33,267,*44

5:44:05:384 Nachm. 03/26/17 - $GLGSV,3,1,10,82,66,090,19,80,65,099,16,83,34,178,22,81,26,032,17*69

5:44:05:384 Nachm. 03/26/17 - $GLGSV,3,2,10,74,00,302,,73,56,314,,79,07,116,,65,06,007,*6B

5:44:05:385 Nachm. 03/26/17 - $GLGSV,3,3,10,71,11,272,,72,18,322,*6A

5:44:05:385 Nachm. 03/26/17 - $GPGGA,154402.0,5208.433514,N,01138.449388,E,1,04,2.3,60.6,M,45.0,M,,*64

5:44:05:386 Nachm. 03/26/17 - $GNGNS,154402.0,5208.433514,N,01138.449388,E,AN,04,2.3,60.6,45.0,,*5F

5:44:05:387 Nachm. 03/26/17 - $GPVTG,141.1,T,140.7,M,0.0,N,0.0,K,A*24

5:44:05:387 Nachm. 03/26/17 - $GPRMC,154402.0,A,5208.433514,N,01138.449388,E,0.0,141.1,260317,0.4,E,A*09

5:44:05:387 Nachm. 03/26/17 - $GPGSA,A,2,06,12,24,29,,,,,,,,,2.4,2.3,0.9*35

5:44:05:387 Nachm. 03/26/17 - $GNGSA,A,2,06,12,24,29,,,,,,,,,2.4,2.3,0.9*2B

5:44:05:388 Nachm. 03/26/17 - $GNGSA,A,2,,,,,,,,,,,,,2.4,2.3,0.9*23

5:44:06:385 Nachm. 03/26/17 - $GPGSV,3,1,11,06,26,057,19,12,66,070,21,24,35,149,21,25,62,278,17*73

5:44:06:386 Nachm. 03/26/17 - $GPGSV,3,2,11,29,26,208,33,02,32,105,,03,02,354,,14,31,296,*73

5:44:06:393 Nachm. 03/26/17 - $GPGSV,3,3,11,19,09,043,,31,16,307,,32,33,267,*4C

5:44:06:393 Nachm. 03/26/17 - $GLGSV,3,1,10,82,66,090,22,80,65,099,16,83,34,178,18,81,26,032,23*6F

5:44:06:393 Nachm. 03/26/17 - $GLGSV,3,2,10,74,00,302,,73,56,314,,79,07,116,,65,06,007,*6B

5:44:06:393 Nachm. 03/26/17 - $GLGSV,3,3,10,71,11,272,,72,18,322,*6A

5:44:06:393 Nachm. 03/26/17 - $GPGGA,154403.0,5208.433414,N,01138.449287,E,1,05,1.5,60.6,M,45.0,M,,*6E

5:44:06:394 Nachm. 03/26/17 - $GNGNS,154403.0,5208.433414,N,01138.449287,E,AN,05,1.5,60.6,45.0,,*55

5:44:06:395 Nachm. 03/26/17 - $GPVTG,141.1,T,140.7,M,0.0,N,0.0,K,A*24

5:44:06:398 Nachm. 03/26/17 - $GPRMC,154403.0,A,5208.433414,N,01138.449287,E,0.0,141.1,260317,0.4,E,A*07

5:44:06:398 Nachm. 03/26/17 - $GPGSA,A,2,06,12,24,25,29,,,,,,,,1.7,1.5,0.9*37

5:44:06:398 Nachm. 03/26/17 - $GNGSA,A,2,06,12,24,25,29,,,,,,,,1.7,1.5,0.9*29

5:44:06:398 Nachm. 03/26/17 - $GNGSA,A,2,,,,,,,,,,,,,1.7,1.5,0.9*26

5:44:07:384 Nachm. 03/26/17 - $GPGSV,3,1,11,06,26,057,22,12,66,070,21,24,35,149,19,25,62,278,16*71

5:44:07:385 Nachm. 03/26/17 - $GPGSV,3,2,11,29,26,208,32,02,32,105,,03,02,354,,14,31,296,*72

5:44:07:385 Nachm. 03/26/17 - $GPGSV,3,3,11,19,09,043,,31,16,307,,32,33,267,*4C

5:44:07:385 Nachm. 03/26/17 - $GLGSV,3,1,10,82,66,090,21,73,56,314,15,80,65,099,16,83,34,178,19*65

5:44:07:394 Nachm. 03/26/17 - $GLGSV,3,2,10,81,26,032,23,74,00,302,,79,07,116,,65,06,007,*67

5:44:07:395 Nachm. 03/26/17 - $GLGSV,3,3,10,71,11,272,,72,18,322,*6A

5:44:07:396 Nachm. 03/26/17 - $GPGGA,154404.0,5208.433182,N,01138.449016,E,1,05,1.3,60.7,M,45.0,M,,*6E

5:44:07:396 Nachm. 03/26/17 - $GNGNS,154404.0,5208.433182,N,01138.449016,E,AA,06,1.3,60.7,45.0,,*59

5:44:07:401 Nachm. 03/26/17 - $GPVTG,141.1,T,140.7,M,0.0,N,0.0,K,A*24

5:44:07:403 Nachm. 03/26/17 - $GPRMC,154404.0,A,5208.433182,N,01138.449016,E,0.0,141.1,260317,0.4,E,A*00

5:44:07:403 Nachm. 03/26/17 - $GPGSA,A,2,06,12,24,25,29,,,,,,,,1.6,1.3,0.9*30

5:44:07:403 Nachm. 03/26/17 - $GNGSA,A,2,06,12,24,25,29,,,,,,,,1.6,1.3,0.9*2E

5:44:07:404 Nachm. 03/26/17 - $GNGSA,A,2,73,,,,,,,,,,,,1.6,1.3,0.9*25

5:44:08:384 Nachm. 03/26/17 - $GPGSV,3,1,11,06,26,057,20,12,66,070,17,24,35,149,21,25,62,278,16*7D

5:44:08:388 Nachm. 03/26/17 - $GPGSV,3,2,11,29,26,208,30,02,32,105,,03,02,354,,14,31,296,*70

5:44:08:388 Nachm. 03/26/17 - $GPGSV,3,3,11,19,09,043,,31,16,307,,32,33,267,*4C

5:44:08:390 Nachm. 03/26/17 - $GLGSV,3,1,10,82,66,090,20,73,56,314,15,80,65,099,16,83,34,178,16*6B

5:44:08:390 Nachm. 03/26/17 - $GLGSV,3,2,10,81,26,032,21,74,00,302,,79,07,116,,65,06,007,*65

5:44:08:390 Nachm. 03/26/17 - $GLGSV,3,3,10,71,11,272,,72,18,322,*6A

5:44:08:390 Nachm. 03/26/17 - $GPGGA,154405.0,5208.432932,N,01138.448952,E,1,05,1.3,60.8,M,45.0,M,,*6A

5:44:08:390 Nachm. 03/26/17 - $GNGNS,154405.0,5208.432932,N,01138.448952,E,AA,06,1.3,60.8,45.0,,*5D

5:44:08:391 Nachm. 03/26/17 - $GPVTG,141.1,T,140.7,M,0.0,N,0.0,K,A*24

5:44:08:391 Nachm. 03/26/17 - $GPRMC,154405.0,A,5208.432932,N,01138.448952,E,0.0,141.1,260317,0.4,E,A*0B

5:44:08:391 Nachm. 03/26/17 - $GPGSA,A,2,06,12,24,25,29,,,,,,,,1.6,1.3,0.9*30

5:44:08:391 Nachm. 03/26/17 - $GNGSA,A,2,06,12,24,25,29,,,,,,,,1.6,1.3,0.9*2E

5:44:08:391 Nachm. 03/26/17 - $GNGSA,A,2,73,,,,,,,,,,,,1.6,1.3,0.9*25

5:44:09:386 Nachm. 03/26/17 - $GPGSV,3,1,11,02,32,105,15,06,26,057,20,12,66,070,24,24,35,149,24*72

5:44:09:386 Nachm. 03/26/17 - $GPGSV,3,2,11,25,62,278,17,29,26,208,31,03,02,354,,14,31,296,*7E

5:44:09:389 Nachm. 03/26/17 - $GPGSV,3,3,11,19,09,043,,31,16,307,,32,33,267,*4C

5:44:09:400 Nachm. 03/26/17 - $GLGSV,3,1,10,82,66,090,24,73,56,314,15,80,65,099,16,83,34,178,17*6E

5:44:09:400 Nachm. 03/26/17 - $GLGSV,3,2,10,81,26,032,18,74,00,302,,79,07,116,,65,06,007,*6F

5:44:09:403 Nachm. 03/26/17 - $GLGSV,3,3,10,71,11,272,,72,18,322,*6A

5:44:09:403 Nachm. 03/26/17 - $GPGGA,154406.0,5208.433150,N,01138.448748,E,1,06,1.2,61.1,M,45.0,M,,*6B

5:44:09:405 Nachm. 03/26/17 - $GNGNS,154406.0,5208.433150,N,01138.448748,E,AA,07,1.2,61.1,45.0,,*5E

5:44:09:406 Nachm. 03/26/17 - $GPVTG,141.1,T,140.7,M,0.0,N,0.0,K,A*24

5:44:09:406 Nachm. 03/26/17 - $GPRMC,154406.0,A,5208.433150,N,01138.448748,E,0.0,141.1,260317,0.4,E,A*00

5:44:09:406 Nachm. 03/26/17 - $GPGSA,A,2,02,06,12,24,25,29,,,,,,,1.5,1.2,0.9*30

5:44:09:407 Nachm. 03/26/17 - $GNGSA,A,2,02,06,12,24,25,29,,,,,,,1.5,1.2,0.9*2E

5:44:09:407 Nachm. 03/26/17 - $GNGSA,A,2,73,,,,,,,,,,,,1.5,1.2,0.9*27

5:44:10:384 Nachm. 03/26/17 - $GPGSV,3,1,11,02,32,105,16,06,26,057,17,12,66,070,24,24,35,149,24*75

5:44:10:384 Nachm. 03/26/17 - $GPGSV,3,2,11,25,62,278,16,29,26,208,30,03,02,354,,14,31,296,*7E

5:44:10:384 Nachm. 03/26/17 - $GPGSV,3,3,11,19,09,043,,31,16,307,,32,33,267,*4C

5:44:10:385 Nachm. 03/26/17 - $GLGSV,3,1,10,82,66,090,23,73,56,314,15,80,65,099,17,83,34,178,17*68

5:44:10:385 Nachm. 03/26/17 - $GLGSV,3,2,10,81,26,032,19,74,00,302,,79,07,116,,65,06,007,*6E

5:44:10:385 Nachm. 03/26/17 - $GLGSV,3,3,10,71,11,272,,72,18,322,*6A

5:44:10:385 Nachm. 03/26/17 - $GPGGA,154407.0,5208.432924,N,01138.448371,E,1,06,1.2,60.8,M,45.0,M,,*66

5:44:10:385 Nachm. 03/26/17 - $GNGNS,154407.0,5208.432924,N,01138.448371,E,AA,07,1.2,60.8,45.0,,*53

5:44:10:386 Nachm. 03/26/17 - $GPVTG,141.1,T,140.7,M,0.0,N,0.0,K,A*24

5:44:10:386 Nachm. 03/26/17 - $GPRMC,154407.0,A,5208.432924,N,01138.448371,E,0.0,141.1,260317,0.4,E,A*05

5:44:10:386 Nachm. 03/26/17 - $GPGSA,A,2,02,06,12,24,25,29,,,,,,,1.5,1.2,0.9*30

5:44:10:386 Nachm. 03/26/17 - $GNGSA,A,2,02,06,12,24,25,29,,,,,,,1.5,1.2,0.9*2E

5:44:10:386 Nachm. 03/26/17 - $GNGSA,A,2,73,,,,,,,,,,,,1.5,1.2,0.9*27

5:44:11:385 Nachm. 03/26/17 - $GPGSV,3,1,11,02,32,105,16,06,26,057,17,12,66,070,25,24,35,149,25*75

5:44:11:385 Nachm. 03/26/17 - $GPGSV,3,2,11,25,62,278,16,29,26,208,31,03,02,354,,14,31,296,*7F

5:44:11:385 Nachm. 03/26/17 - $GPGSV,3,3,11,19,09,043,,31,16,307,,32,33,267,*4C

5:44:11:386 Nachm. 03/26/17 - $GLGSV,3,1,10,82,66,090,24,73,56,314,14,80,65,099,17,83,34,178,17*6E

5:44:11:386 Nachm. 03/26/17 - $GLGSV,3,2,10,81,26,032,20,74,00,302,,79,07,116,,65,06,007,*64

5:44:11:386 Nachm. 03/26/17 - $GLGSV,3,3,10,71,11,272,,72,18,322,*6A

5:44:11:387 Nachm. 03/26/17 - $GPGGA,154408.0,5208.433030,N,01138.448277,E,1,06,1.2,61.0,M,45.0,M,,*6A

5:44:11:387 Nachm. 03/26/17 - $GNGNS,154408.0,5208.433030,N,01138.448277,E,AA,07,1.2,61.0,45.0,,*5F

5:44:11:389 Nachm. 03/26/17 - $GPVTG,141.1,T,140.7,M,0.0,N,0.0,K,A*24

5:44:11:390 Nachm. 03/26/17 - $GPRMC,154408.0,A,5208.433030,N,01138.448277,E,0.0,141.1,260317,0.4,E,A*00

5:44:11:393 Nachm. 03/26/17 - $GPGSA,A,2,02,06,12,24,25,29,,,,,,,1.5,1.2,0.9*30

5:44:11:398 Nachm. 03/26/17 - $GNGSA,A,2,02,06,12,24,25,29,,,,,,,1.5,1.2,0.9*2E

5:44:11:399 Nachm. 03/26/17 - $GNGSA,A,2,73,,,,,,,,,,,,1.5,1.2,0.9*27

5:44:12:384 Nachm. 03/26/17 - $GPGSV,3,1,11,02,32,105,17,06,26,057,17,12,66,070,24,24,35,149,25*75

5:44:12:384 Nachm. 03/26/17 - $GPGSV,3,2,11,25,62,278,16,29,26,208,30,03,02,354,,14,31,296,*7E

5:44:12:384 Nachm. 03/26/17 - $GPGSV,3,3,11,19,09,043,,31,16,307,,32,33,267,*4C

5:44:12:386 Nachm. 03/26/17 - $GLGSV,3,1,10,82,66,090,25,73,56,314,14,80,65,099,21,83,34,178,17*6A

5:44:12:386 Nachm. 03/26/17 - $GLGSV,3,2,10,81,26,032,19,74,00,302,,79,07,116,,65,06,007,*6E

5:44:12:386 Nachm. 03/26/17 - $GLGSV,3,3,10,71,11,272,,72,18,322,*6A

5:44:12:386 Nachm. 03/26/17 - $GPGGA,154409.0,5208.433094,N,01138.448220,E,1,06,1.2,61.1,M,45.0,M,,*66

5:44:12:386 Nachm. 03/26/17 - $GNGNS,154409.0,5208.433094,N,01138.448220,E,AA,07,1.2,61.1,45.0,,*53

5:44:12:388 Nachm. 03/26/17 - $GPVTG,141.1,T,140.7,M,0.0,N,0.0,K,A*24

5:44:12:388 Nachm. 03/26/17 - $GPRMC,154409.0,A,5208.433094,N,01138.448220,E,0.0,141.1,260317,0.4,E,A*0D

5:44:12:388 Nachm. 03/26/17 - $GPGSA,A,2,02,06,12,24,25,29,,,,,,,1.5,1.2,0.9*30

5:44:12:388 Nachm. 03/26/17 - $GNGSA,A,2,02,06,12,24,25,29,,,,,,,1.5,1.2,0.9*2E

5:44:12:388 Nachm. 03/26/17 - $GNGSA,A,2,73,,,,,,,,,,,,1.5,1.2,0.9*27

5:44:13:384 Nachm. 03/26/17 - $GPGSV,3,1,11,02,32,105,17,06,26,057,17,12,66,070,25,24,35,149,21*70

5:44:13:385 Nachm. 03/26/17 - $GPGSV,3,2,11,25,62,278,16,29,26,208,30,03,02,354,,14,31,296,*7E

5:44:13:385 Nachm. 03/26/17 - $GPGSV,3,3,11,19,09,043,,31,16,307,,32,33,267,*4C

5:44:13:385 Nachm. 03/26/17 - $GLGSV,3,1,10,82,66,090,24,73,56,314,14,80,65,099,17,83,34,178,17*6E

5:44:13:387 Nachm. 03/26/17 - $GLGSV,3,2,10,81,26,032,18,74,00,302,,79,07,116,,65,06,007,*6F

5:44:13:388 Nachm. 03/26/17 - $GLGSV,3,3,10,71,11,272,,72,18,322,*6A

5:44:13:388 Nachm. 03/26/17 - $GPGGA,154410.0,5208.433285,N,01138.448249,E,1,06,1.2,61.5,M,45.0,M,,*67

5:44:13:390 Nachm. 03/26/17 - $GNGNS,154410.0,5208.433285,N,01138.448249,E,AA,07,1.2,61.5,45.0,,*52

5:44:13:391 Nachm. 03/26/17 - $GPVTG,141.1,T,140.7,M,0.0,N,0.0,K,A*24

5:44:13:391 Nachm. 03/26/17 - $GPRMC,154410.0,A,5208.433285,N,01138.448249,E,0.0,141.1,260317,0.4,E,A*08

5:44:13:391 Nachm. 03/26/17 - $GPGSA,A,2,02,06,12,24,25,29,,,,,,,1.5,1.2,0.9*30

5:44:13:391 Nachm. 03/26/17 - $GNGSA,A,2,02,06,12,24,25,29,,,,,,,1.5,1.2,0.9*2E

5:44:13:391 Nachm. 03/26/17 - $GNGSA,A,2,73,,,,,,,,,,,,1.5,1.2,0.9*27

5:44:14:385 Nachm. 03/26/17 - $GPGSV,3,1,11,02,32,105,17,12,66,070,26,24,35,149,22,25,62,278,16*7F

5:44:14:386 Nachm. 03/26/17 - $GPGSV,3,2,11,29,26,208,32,03,02,354,,06,26,057,,14,31,296,*75

5:44:14:386 Nachm. 03/26/17 - $GPGSV,3,3,11,19,09,043,,31,16,307,,32,33,267,*4C

5:44:14:386 Nachm. 03/26/17 - $GLGSV,3,1,10,82,66,090,25,73,56,314,14,80,65,099,20,83,34,178,17*6B

5:44:14:388 Nachm. 03/26/17 - $GLGSV,3,2,10,81,26,032,19,74,00,302,,79,07,116,,65,06,007,*6E

5:44:14:389 Nachm. 03/26/17 - $GLGSV,3,3,10,71,11,272,,72,18,322,*6A

5:44:14:389 Nachm. 03/26/17 - $GPGGA,154411.0,5208.433303,N,01138.448207,E,1,06,1.2,61.5,M,45.0,M,,*63

5:44:14:389 Nachm. 03/26/17 - $GNGNS,154411.0,5208.433303,N,01138.448207,E,AA,07,1.2,61.5,45.0,,*56

5:44:14:389 Nachm. 03/26/17 - $GPVTG,141.1,T,140.7,M,0.0,N,0.0,K,A*24

5:44:14:391 Nachm. 03/26/17 - $GPRMC,154411.0,A,5208.433303,N,01138.448207,E,0.0,141.1,260317,0.4,E,A*0C

5:44:14:391 Nachm. 03/26/17 - $GPGSA,A,2,02,06,12,24,25,29,,,,,,,1.5,1.2,0.9*30

5:44:14:391 Nachm. 03/26/17 - $GNGSA,A,2,02,06,12,24,25,29,,,,,,,1.5,1.2,0.9*2E

5:44:14:391 Nachm. 03/26/17 - $GNGSA,A,2,73,,,,,,,,,,,,1.5,1.2,0.9*27

5:44:15:385 Nachm. 03/26/17 - $GPGSV,3,1,11,02,32,105,21,12,66,070,28,19,09,043,12,24,35,149,25*7F

5:44:15:385 Nachm. 03/26/17 - $GPGSV,3,2,11,25,62,278,20,29,26,208,33,03,02,354,,06,26,057,*72

5:44:15:385 Nachm. 03/26/17 - $GPGSV,3,3,11,14,31,296,,31,16,307,,32,33,267,*40

5:44:15:391 Nachm. 03/26/17 - $GLGSV,3,1,10,82,66,090,27,73,56,314,14,80,65,099,23,83,34,178,17*6A

5:44:15:395 Nachm. 03/26/17 - $GLGSV,3,2,10,81,26,032,20,74,00,302,,79,07,116,,65,06,007,*64

5:44:15:395 Nachm. 03/26/17 - $GLGSV,3,3,10,71,11,272,,72,18,322,*6A

5:44:15:396 Nachm. 03/26/17 - $GPGGA,154412.0,5208.433222,N,01138.448193,E,1,07,1.1,61.5,M,45.0,M,,*6E

5:44:15:396 Nachm. 03/26/17 - $GNGNS,154412.0,5208.433222,N,01138.448193,E,AA,08,1.1,61.5,45.0,,*55

5:44:15:396 Nachm. 03/26/17 - $GPVTG,141.1,T,140.7,M,0.0,N,0.0,K,A*24

5:44:15:396 Nachm. 03/26/17 - $GPRMC,154412.0,A,5208.433222,N,01138.448193,E,0.0,141.1,260317,0.4,E,A*03

5:44:15:396 Nachm. 03/26/17 - $GPGSA,A,2,02,06,12,19,24,25,29,,,,,,1.4,1.1,0.9*3A

5:44:15:396 Nachm. 03/26/17 - $GNGSA,A,2,02,06,12,19,24,25,29,,,,,,1.4,1.1,0.9*24

5:44:15:397 Nachm. 03/26/17 - $GNGSA,A,2,73,,,,,,,,,,,,1.4,1.1,0.9*25

5:44:16:385 Nachm. 03/26/17 - $GPGSV,3,1,11,02,32,105,21,12,66,070,28,19,09,043,12,24,35,149,25*7F

5:44:16:385 Nachm. 03/26/17 - $GPGSV,3,2,11,25,62,278,20,29,26,208,34,32,33,267,17,03,02,354,*71

5:44:16:385 Nachm. 03/26/17 - $GPGSV,3,3,11,06,26,057,,14,31,296,,31,16,307,*42

5:44:16:385 Nachm. 03/26/17 - $GLGSV,3,1,10,82,66,090,27,73,56,314,14,80,65,099,21,83,34,178,17*68

5:44:16:386 Nachm. 03/26/17 - $GLGSV,3,2,10,81,26,032,21,74,00,302,,79,07,116,,65,06,007,*65

5:44:16:386 Nachm. 03/26/17 - $GLGSV,3,3,10,71,11,272,,72,18,322,*6A

5:44:16:386 Nachm. 03/26/17 - $GPGGA,154413.0,5208.433280,N,01138.447969,E,1,08,1.0,61.8,M,45.0,M,,*66

5:44:16:386 Nachm. 03/26/17 - $GNGNS,154413.0,5208.433280,N,01138.447969,E,AA,09,1.0,61.8,45.0,,*53

5:44:16:387 Nachm. 03/26/17 - $GPVTG,141.1,T,140.7,M,0.0,N,0.0,K,A*24

5:44:16:388 Nachm. 03/26/17 - $GPRMC,154413.0,A,5208.433280,N,01138.447969,E,0.0,141.1,260317,0.4,E,A*08

5:44:16:388 Nachm. 03/26/17 - $GPGSA,A,2,02,06,12,19,24,25,29,32,,,,,1.3,1.0,0.9*3D

5:44:16:388 Nachm. 03/26/17 - $GNGSA,A,2,02,06,12,19,24,25,29,32,,,,,1.3,1.0,0.9*23

5:44:16:388 Nachm. 03/26/17 - $GNGSA,A,2,73,,,,,,,,,,,,1.3,1.0,0.9*23

5:44:17:385 Nachm. 03/26/17 - $GPGSV,3,1,11,02,32,105,21,12,66,070,28,19,09,043,12,24,35,149,25*7F

5:44:17:385 Nachm. 03/26/17 - $GPGSV,3,2,11,25,62,278,22,29,26,208,33,32,33,267,16,03,02,354,*75

5:44:17:385 Nachm. 03/26/17 - $GPGSV,3,3,11,06,26,057,,14,31,296,,31,16,307,*42

5:44:17:385 Nachm. 03/26/17 - $GLGSV,3,1,10,82,66,090,27,73,56,314,16,80,65,099,23,83,34,178,17*68

5:44:17:386 Nachm. 03/26/17 - $GLGSV,3,2,10,81,26,032,20,74,00,302,,79,07,116,,65,06,007,*64

5:44:17:386 Nachm. 03/26/17 - $GLGSV,3,3,10,71,11,272,,72,18,322,*6A

5:44:17:386 Nachm. 03/26/17 - $GPGGA,154414.0,5208.433209,N,01138.448066,E,1,07,1.0,61.7,M,45.0,M,,*69

5:44:17:386 Nachm. 03/26/17 - $GNGNS,154414.0,5208.433209,N,01138.448066,E,AA,08,1.0,61.7,45.0,,*52

5:44:17:386 Nachm. 03/26/17 - $GPVTG,141.1,T,140.7,M,0.0,N,0.0,K,A*24

5:44:17:387 Nachm. 03/26/17 - $GPRMC,154414.0,A,5208.433209,N,01138.448066,E,0.0,141.1,260317,0.4,E,A*07

5:44:17:387 Nachm. 03/26/17 - $GPGSA,A,2,02,12,19,24,25,29,32,,,,,,1.3,1.0,0.9*3B

5:44:17:387 Nachm. 03/26/17 - $GNGSA,A,2,02,12,19,24,25,29,32,,,,,,1.3,1.0,0.9*25

5:44:17:387 Nachm. 03/26/17 - $GNGSA,A,2,73,,,,,,,,,,,,1.3,1.0,0.9*23

5:44:18:385 Nachm. 03/26/17 - $GPGSV,3,1,11,02,32,105,22,06,26,057,15,12,66,070,29,19,09,043,12*72

5:44:18:386 Nachm. 03/26/17 - $GPGSV,3,2,11,24,35,149,23,25,62,278,23,29,26,208,33,32,33,267,16*7A

5:44:18:386 Nachm. 03/26/17 - $GPGSV,3,3,11,03,02,354,,14,31,296,,31,16,307,*41

5:44:18:387 Nachm. 03/26/17 - $GLGSV,3,1,10,82,66,090,26,73,56,314,16,80,65,099,20,83,34,178,17*6A

5:44:18:387 Nachm. 03/26/17 - $GLGSV,3,2,10,81,26,032,20,74,00,302,,79,07,116,,65,06,007,*64

5:44:18:388 Nachm. 03/26/17 - $GLGSV,3,3,10,71,11,272,,72,18,322,*6A

5:44:18:388 Nachm. 03/26/17 - $GPGGA,154415.0,5208.433190,N,01138.448122,E,1,08,1.0,61.6,M,45.0,M,,*64

5:44:18:393 Nachm. 03/26/17 - $GNGNS,154415.0,5208.433190,N,01138.448122,E,AA,09,1.0,61.6,45.0,,*51

5:44:18:393 Nachm. 03/26/17 - $GPVTG,141.1,T,140.7,M,0.0,N,0.0,K,A*24

5:44:18:393 Nachm. 03/26/17 - $GPRMC,154415.0,A,5208.433190,N,01138.448122,E,0.0,141.1,260317,0.4,E,A*04

5:44:18:394 Nachm. 03/26/17 - $GPGSA,A,2,02,06,12,19,24,25,29,32,,,,,1.3,1.0,0.9*3D

5:44:18:394 Nachm. 03/26/17 - $GNGSA,A,2,02,06,12,19,24,25,29,32,,,,,1.3,1.0,0.9*23

5:44:18:394 Nachm. 03/26/17 - $GNGSA,A,2,73,,,,,,,,,,,,1.3,1.0,0.9*23

5:44:19:384 Nachm. 03/26/17 - $GPGSV,3,1,11,02,32,105,19,12,66,070,26,19,09,043,12,24,35,149,22*7D

5:44:19:384 Nachm. 03/26/17 - $GPGSV,3,2,11,25,62,278,19,29,26,208,33,32,33,267,15,03,02,354,*7E

5:44:19:384 Nachm. 03/26/17 - $GPGSV,3,3,11,06,26,057,,14,31,296,,31,16,307,*42

5:44:19:386 Nachm. 03/26/17 - $GLGSV,3,1,10,82,66,090,23,73,56,314,16,80,65,099,18,83,34,178,17*64

5:44:19:386 Nachm. 03/26/17 - $GLGSV,3,2,10,81,26,032,20,74,00,302,,79,07,116,,65,06,007,*64

5:44:19:386 Nachm. 03/26/17 - $GLGSV,3,3,10,71,11,272,,72,18,322,*6A

5:44:19:387 Nachm. 03/26/17 - $GPGGA,154416.0,5208.433204,N,01138.448108,E,1,08,1.0,61.7,M,45.0,M,,*60

5:44:19:387 Nachm. 03/26/17 - $GNGNS,154416.0,5208.433204,N,01138.448108,E,AA,09,1.0,61.7,45.0,,*55

5:44:19:387 Nachm. 03/26/17 - $GPVTG,141.1,T,140.7,M,0.0,N,0.0,K,A*24

5:44:19:388 Nachm. 03/26/17 - $GPRMC,154416.0,A,5208.433204,N,01138.448108,E,0.0,141.1,260317,0.4,E,A*01

5:44:19:388 Nachm. 03/26/17 - $GPGSA,A,2,02,06,12,19,24,25,29,32,,,,,1.3,1.0,0.9*3D

5:44:19:388 Nachm. 03/26/17 - $GNGSA,A,2,02,06,12,19,24,25,29,32,,,,,1.3,1.0,0.9*23

5:44:19:388 Nachm. 03/26/17 - $GNGSA,A,2,73,,,,,,,,,,,,1.3,1.0,0.9*23

5:44:20:385 Nachm. 03/26/17 - $GPGSV,3,1,11,02,32,105,19,12,66,070,24,19,09,043,12,24,35,149,19*77

5:44:20:386 Nachm. 03/26/17 - $GPGSV,3,2,11,25,62,278,19,29,26,208,31,32,33,267,15,03,02,354,*7C

5:44:20:386 Nachm. 03/26/17 - $GPGSV,3,3,11,06,26,057,,14,31,296,,31,16,307,*42

5:44:20:387 Nachm. 03/26/17 - $GLGSV,3,1,10,82,66,090,24,73,56,314,16,80,65,099,18,83,34,178,11*65

5:44:20:387 Nachm. 03/26/17 - $GLGSV,3,2,10,81,26,032,14,74,00,302,,79,07,116,,65,06,007,*63

5:44:20:387 Nachm. 03/26/17 - $GLGSV,3,3,10,71,11,272,,72,18,322,*6A

5:44:20:388 Nachm. 03/26/17 - $GPGGA,154417.0,5208.433207,N,01138.448114,E,1,08,1.0,61.7,M,45.0,M,,*6F

5:44:20:388 Nachm. 03/26/17 - $GNGNS,154417.0,5208.433207,N,01138.448114,E,AA,09,1.0,61.7,45.0,,*5A

5:44:20:388 Nachm. 03/26/17 - $GPVTG,141.1,T,140.7,M,0.0,N,0.0,K,A*24

5:44:20:388 Nachm. 03/26/17 - $GPRMC,154417.0,A,5208.433207,N,01138.448114,E,0.0,141.1,260317,0.4,E,A*0E

5:44:20:388 Nachm. 03/26/17 - $GPGSA,A,2,02,06,12,19,24,25,29,32,,,,,1.3,1.0,0.9*3D

5:44:20:388 Nachm. 03/26/17 - $GNGSA,A,2,02,06,12,19,24,25,29,32,,,,,1.3,1.0,0.9*23

5:44:20:388 Nachm. 03/26/17 - $GNGSA,A,2,73,,,,,,,,,,,,1.3,1.0,0.9*23

5:44:21:385 Nachm. 03/26/17 - $GPGSV,3,1,11,02,32,105,20,12,66,070,29,19,09,043,12,24,35,149,23*79

5:44:21:385 Nachm. 03/26/17 - $GPGSV,3,2,11,25,62,278,20,29,26,208,33,32,33,267,14,03,02,354,*75

5:44:21:386 Nachm. 03/26/17 - $GPGSV,3,3,11,06,26,057,,14,31,296,,31,16,307,*42

5:44:21:388 Nachm. 03/26/17 - $GLGSV,3,1,10,82,66,090,27,73,56,314,15,80,65,099,20,83,34,178,11*6E

5:44:21:388 Nachm. 03/26/17 - $GLGSV,3,2,10,81,26,032,20,74,00,302,,79,07,116,,65,06,007,*64

5:44:21:391 Nachm. 03/26/17 - $GLGSV,3,3,10,71,11,272,,72,18,322,*6A

5:44:21:392 Nachm. 03/26/17 - $GPGGA,154418.0,5208.433191,N,01138.448174,E,1,08,1.0,61.7,M,45.0,M,,*6A

5:44:21:392 Nachm. 03/26/17 - $GNGNS,154418.0,5208.433191,N,01138.448174,E,AA,09,1.0,61.7,45.0,,*5F

5:44:21:404 Nachm. 03/26/17 - $GPVTG,141.1,T,140.7,M,0.0,N,0.0,K,A*24

5:44:21:404 Nachm. 03/26/17 - $GPRMC,154418.0,A,5208.433191,N,01138.448174,E,0.0,141.1,260317,0.4,E,A*0B

5:44:21:404 Nachm. 03/26/17 - $GPGSA,A,2,02,06,12,19,24,25,29,32,,,,,1.3,1.0,0.9*3D

5:44:21:404 Nachm. 03/26/17 - $GNGSA,A,2,02,06,12,19,24,25,29,32,,,,,1.3,1.0,0.9*23

5:44:21:405 Nachm. 03/26/17 - $GNGSA,A,2,73,,,,,,,,,,,,1.3,1.0,0.9*23

5:44:22:386 Nachm. 03/26/17 - $GPGSV,3,1,11,02,32,105,23,12,66,070,29,19,09,043,12,24,35,149,22*7B

5:44:22:387 Nachm. 03/26/17 - $GPGSV,3,2,11,25,62,278,23,29,26,208,33,32,33,267,14,03,02,354,*76

5:44:22:388 Nachm. 03/26/17 - $GPGSV,3,3,11,06,26,057,,14,31,296,,31,16,307,*42

5:44:22:398 Nachm. 03/26/17 - $GLGSV,3,1,10,82,66,090,26,73,56,314,18,80,65,099,21,83,34,178,11*63

5:44:22:402 Nachm. 03/26/17 - $GLGSV,3,2,10,81,26,032,17,74,00,302,,79,07,116,,65,06,007,*60

5:44:22:403 Nachm. 03/26/17 - $GLGSV,3,3,10,71,11,272,,72,18,322,*6A

5:44:22:403 Nachm. 03/26/17 - $GPGGA,154419.0,5208.433140,N,01138.448279,E,1,07,1.1,61.6,M,45.0,M,,*66

5:44:22:403 Nachm. 03/26/17 - $GNGNS,154419.0,5208.433140,N,01138.448279,E,AA,08,1.1,61.6,45.0,,*5D

5:44:22:403 Nachm. 03/26/17 - $GPVTG,141.1,T,140.7,M,0.0,N,0.0,K,A*24

5:44:22:403 Nachm. 03/26/17 - $GPRMC,154419.0,A,5208.433140,N,01138.448279,E,0.0,141.1,260317,0.4,E,A*08

5:44:22:404 Nachm. 03/26/17 - $GPGSA,A,2,02,06,12,24,25,29,32,,,,,,1.4,1.1,0.9*33

5:44:22:404 Nachm. 03/26/17 - $GNGSA,A,2,02,06,12,24,25,29,32,,,,,,1.4,1.1,0.9*2D

5:44:22:404 Nachm. 03/26/17 - $GNGSA,A,2,73,,,,,,,,,,,,1.4,1.1,0.9*25

5:44:23:388 Nachm. 03/26/17 - $GPGSV,3,1,11,02,32,105,23,12,66,070,28,19,09,043,12,24,35,149,22*7A

5:44:23:389 Nachm. 03/26/17 - $GPGSV,3,2,11,25,62,278,21,29,26,208,33,32,33,267,13,03,02,354,*73

5:44:23:393 Nachm. 03/26/17 - $GPGSV,3,3,11,06,26,057,,14,31,296,,31,16,307,*42

5:44:23:394 Nachm. 03/26/17 - $GLGSV,3,1,10,82,66,090,27,73,56,314,18,80,65,099,21,83,34,178,11*62

5:44:23:396 Nachm. 03/26/17 - $GLGSV,3,2,10,81,26,032,20,74,00,302,,79,07,116,,65,06,007,*64

5:44:23:402 Nachm. 03/26/17 - $GLGSV,3,3,10,71,11,272,,72,18,322,*6A

5:44:23:402 Nachm. 03/26/17 - $GPGGA,154420.0,5208.433114,N,01138.448332,E,1,07,1.1,61.6,M,45.0,M,,*63

5:44:23:404 Nachm. 03/26/17 - $GNGNS,154420.0,5208.433114,N,01138.448332,E,AA,08,1.1,61.6,45.0,,*58

5:44:23:405 Nachm. 03/26/17 - $GPVTG,141.1,T,140.7,M,0.0,N,0.0,K,A*24

5:44:23:405 Nachm. 03/26/17 - $GPRMC,154420.0,A,5208.433114,N,01138.448332,E,0.0,141.1,260317,0.4,E,A*0D

5:44:23:405 Nachm. 03/26/17 - $GPGSA,A,2,02,06,12,24,25,29,32,,,,,,1.4,1.1,0.9*33

5:44:23:405 Nachm. 03/26/17 - $GNGSA,A,2,02,06,12,24,25,29,32,,,,,,1.4,1.1,0.9*2D

5:44:23:405 Nachm. 03/26/17 - $GNGSA,A,2,73,,,,,,,,,,,,1.4,1.1,0.9*25

5:44:24:386 Nachm. 03/26/17 - $GPGSV,3,1,11,02,32,105,22,06,26,057,15,12,66,070,29,14,31,296,13*7F

5:44:24:387 Nachm. 03/26/17 - $GPGSV,3,2,11,19,09,043,12,24,35,149,21,25,62,278,23,29,26,208,33*78

5:44:24:387 Nachm. 03/26/17 - $GPGSV,3,3,11,32,33,267,13,03,02,354,,31,16,307,*4B

5:44:24:394 Nachm. 03/26/17 - $GLGSV,3,1,10,82,66,090,26,73,56,314,18,80,65,099,20,83,34,178,13*60

5:44:24:398 Nachm. 03/26/17 - $GLGSV,3,2,10,81,26,032,20,74,00,302,,79,07,116,,65,06,007,*64

5:44:24:399 Nachm. 03/26/17 - $GLGSV,3,3,10,71,11,272,,72,18,322,*6A

5:44:24:399 Nachm. 03/26/17 - $GPGGA,154421.0,5208.433124,N,01138.448334,E,1,08,1.0,61.6,M,45.0,M,,*69

5:44:24:400 Nachm. 03/26/17 - $GNGNS,154421.0,5208.433124,N,01138.448334,E,AA,09,1.0,61.6,45.0,,*5C

5:44:24:400 Nachm. 03/26/17 - $GPVTG,141.1,T,140.7,M,0.0,N,0.0,K,A*24

5:44:24:401 Nachm. 03/26/17 - $GPRMC,154421.0,A,5208.433124,N,01138.448334,E,0.0,141.1,260317,0.4,E,A*09

5:44:24:401 Nachm. 03/26/17 - $GPGSA,A,2,02,06,12,14,24,25,29,32,,,,,1.3,1.0,0.9*30

5:44:24:402 Nachm. 03/26/17 - $GNGSA,A,2,02,06,12,14,24,25,29,32,,,,,1.3,1.0,0.9*2E

5:44:24:402 Nachm. 03/26/17 - $GNGSA,A,2,73,,,,,,,,,,,,1.3,1.0,0.9*23

5:44:25:386 Nachm. 03/26/17 - $GPGSV,3,1,11,02,32,105,21,12,66,070,28,14,31,296,13,19,09,043,12*7C

5:44:25:387 Nachm. 03/26/17 - $GPGSV,3,2,11,24,35,149,20,25,62,278,21,29,26,208,32,32,33,267,13*7F

5:44:25:388 Nachm. 03/26/17 - $GPGSV,3,3,11,03,02,354,,06,26,057,,31,16,307,*4B

5:44:25:394 Nachm. 03/26/17 - $GLGSV,3,1,10,82,66,090,25,73,56,314,18,80,65,099,19,83,34,178,13*69

5:44:25:395 Nachm. 03/26/17 - $GLGSV,3,2,10,81,26,032,17,74,00,302,,79,07,116,,65,06,007,*60

5:44:25:397 Nachm. 03/26/17 - $GLGSV,3,3,10,71,11,272,,72,18,322,*6A

5:44:25:402 Nachm. 03/26/17 - $GPGGA,154422.0,5208.433128,N,01138.448336,E,1,08,1.0,61.6,M,45.0,M,,*64

5:44:25:403 Nachm. 03/26/17 - $GNGNS,154422.0,5208.433128,N,01138.448336,E,AA,09,1.0,61.6,45.0,,*51

5:44:25:403 Nachm. 03/26/17 - $GPVTG,141.1,T,140.7,M,0.0,N,0.0,K,A*24

5:44:25:403 Nachm. 03/26/17 - $GPRMC,154422.0,A,5208.433128,N,01138.448336,E,0.0,141.1,260317,0.4,E,A*04

5:44:25:404 Nachm. 03/26/17 - $GPGSA,A,2,02,06,12,14,24,25,29,32,,,,,1.3,1.0,0.9*30

5:44:25:404 Nachm. 03/26/17 - $GNGSA,A,2,02,06,12,14,24,25,29,32,,,,,1.3,1.0,0.9*2E

5:44:25:405 Nachm. 03/26/17 - $GNGSA,A,2,73,,,,,,,,,,,,1.3,1.0,0.9*23

5:44:26:384 Nachm. 03/26/17 - $GPGSV,3,1,11,02,32,105,21,12,66,070,28,14,31,296,13,19,09,043,12*7C

5:44:26:385 Nachm. 03/26/17 - $GPGSV,3,2,11,24,35,149,22,25,62,278,20,29,26,208,31,32,33,267,12*7E

5:44:26:385 Nachm. 03/26/17 - $GPGSV,3,3,11,03,02,354,,06,26,057,,31,16,307,*4B

5:44:26:386 Nachm. 03/26/17 - $GLGSV,3,1,10,82,66,090,25,73,56,314,15,80,65,099,20,83,34,178,13*6E

5:44:26:387 Nachm. 03/26/17 - $GLGSV,3,2,10,81,26,032,18,74,00,302,,79,07,116,,65,06,007,*6F

5:44:26:387 Nachm. 03/26/17 - $GLGSV,3,3,10,71,11,272,,72,18,322,*6A

5:44:26:388 Nachm. 03/26/17 - $GPGGA,154423.0,5208.433120,N,01138.448352,E,1,08,1.0,61.6,M,45.0,M,,*6F

5:44:26:388 Nachm. 03/26/17 - $GNGNS,154423.0,5208.433120,N,01138.448352,E,AA,09,1.0,61.6,45.0,,*5A

5:44:26:388 Nachm. 03/26/17 - $GPVTG,141.1,T,140.7,M,0.0,N,0.0,K,A*24

5:44:26:389 Nachm. 03/26/17 - $GPRMC,154423.0,A,5208.433120,N,01138.448352,E,0.0,141.1,260317,0.4,E,A*0F

5:44:26:391 Nachm. 03/26/17 - $GPGSA,A,2,02,06,12,14,24,25,29,32,,,,,1.3,1.0,0.9*30

5:44:26:392 Nachm. 03/26/17 - $GNGSA,A,2,02,06,12,14,24,25,29,32,,,,,1.3,1.0,0.9*2E

5:44:26:392 Nachm. 03/26/17 - $GNGSA,A,2,73,,,,,,,,,,,,1.3,1.0,0.9*23

5:44:27:385 Nachm. 03/26/17 - $GPGSV,3,1,11,02,32,105,21,12,66,070,28,14,31,296,13,19,09,043,12*7C

5:44:27:386 Nachm. 03/26/17 - $GPGSV,3,2,11,24,35,149,21,25,62,278,22,29,26,208,32,32,33,267,12*7C

5:44:27:386 Nachm. 03/26/17 - $GPGSV,3,3,11,03,02,354,,06,26,057,,31,16,307,*4B

5:44:27:387 Nachm. 03/26/17 - $GLGSV,3,1,10,82,66,090,27,73,56,314,15,80,65,099,21,83,34,178,13*6D

5:44:27:387 Nachm. 03/26/17 - $GLGSV,3,2,10,81,26,032,19,74,00,302,,79,07,116,,65,06,007,*6E

5:44:27:387 Nachm. 03/26/17 - $GLGSV,3,3,10,71,11,272,,72,18,322,*6A

5:44:27:387 Nachm. 03/26/17 - $GPGGA,154424.0,5208.433120,N,01138.448353,E,1,08,1.0,61.6,M,45.0,M,,*69

5:44:27:392 Nachm. 03/26/17 - $GNGNS,154424.0,5208.433120,N,01138.448353,E,AA,09,1.0,61.6,45.0,,*5C

5:44:27:394 Nachm. 03/26/17 - $GPVTG,141.1,T,140.7,M,0.0,N,0.0,K,A*24

5:44:27:394 Nachm. 03/26/17 - $GPRMC,154424.0,A,5208.433120,N,01138.448353,E,0.0,141.1,260317,0.4,E,A*09

5:44:27:394 Nachm. 03/26/17 - $GPGSA,A,2,02,06,12,14,24,25,29,32,,,,,1.3,1.0,0.9*30

5:44:27:394 Nachm. 03/26/17 - $GNGSA,A,2,02,06,12,14,24,25,29,32,,,,,1.3,1.0,0.9*2E

5:44:27:394 Nachm. 03/26/17 - $GNGSA,A,2,73,,,,,,,,,,,,1.3,1.0,0.9*23

5:44:28:384 Nachm. 03/26/17 - $GPGSV,3,1,11,02,32,105,21,12,66,070,29,14,31,296,13,19,09,043,12*7D

5:44:28:385 Nachm. 03/26/17 - $GPGSV,3,2,11,24,35,149,21,25,62,278,23,29,26,208,33,32,33,267,12*7C

5:44:28:385 Nachm. 03/26/17 - $GPGSV,3,3,11,03,02,354,,06,26,057,,31,16,307,*4B

5:44:28:389 Nachm. 03/26/17 - $GLGSV,3,1,10,82,66,090,27,73,56,314,15,80,65,099,21,83,34,178,13*6D

5:44:28:390 Nachm. 03/26/17 - $GLGSV,3,2,10,81,26,032,19,74,00,302,,79,07,116,,65,06,007,*6E

5:44:28:391 Nachm. 03/26/17 - $GLGSV,3,3,10,71,11,272,,72,18,322,*6A

5:44:28:391 Nachm. 03/26/17 - $GPGGA,154425.0,5208.433109,N,01138.448368,E,1,08,1.0,61.6,M,45.0,M,,*6B

5:44:28:391 Nachm. 03/26/17 - $GNGNS,154425.0,5208.433109,N,01138.448368,E,AA,09,1.0,61.6,45.0,,*5E

5:44:28:392 Nachm. 03/26/17 - $GPVTG,141.1,T,140.7,M,0.0,N,0.0,K,A*24

5:44:28:392 Nachm. 03/26/17 - $GPRMC,154425.0,A,5208.433109,N,01138.448368,E,0.0,141.1,260317,0.4,E,A*0B

5:44:28:393 Nachm. 03/26/17 - $GPGSA,A,2,02,06,12,14,24,25,29,32,,,,,1.3,1.0,0.9*30

5:44:28:394 Nachm. 03/26/17 - $GNGSA,A,2,02,06,12,14,24,25,29,32,,,,,1.3,1.0,0.9*2E

5:44:28:394 Nachm. 03/26/17 - $GNGSA,A,2,73,,,,,,,,,,,,1.3,1.0,0.9*23

5:44:29:385 Nachm. 03/26/17 - $GPGSV,3,1,11,02,32,105,21,12,66,070,19,14,31,296,13,19,09,043,12*7E

5:44:29:388 Nachm. 03/26/17 - $GPGSV,3,2,11,24,35,149,18,25,62,278,20,29,26,208,29,32,33,267,12*7E

5:44:29:388 Nachm. 03/26/17 - $GPGSV,3,3,11,03,02,354,,06,26,057,,31,16,307,*4B

5:44:29:388 Nachm. 03/26/17 - $GLGSV,3,1,10,82,66,090,20,73,56,314,15,80,65,099,21,83,34,178,15*6C

5:44:29:389 Nachm. 03/26/17 - $GLGSV,3,2,10,81,26,032,20,74,00,302,,79,07,116,,65,06,007,*64

5:44:29:389 Nachm. 03/26/17 - $GLGSV,3,3,10,71,11,272,,72,18,322,*6A

5:44:29:389 Nachm. 03/26/17 - $GPGGA,154426.0,5208.433111,N,01138.448368,E,1,08,1.0,61.6,M,45.0,M,,*61

5:44:29:389 Nachm. 03/26/17 - $GNGNS,154426.0,5208.433111,N,01138.448368,E,AA,09,1.0,61.6,45.0,,*54

5:44:29:392 Nachm. 03/26/17 - $GPVTG,141.1,T,140.7,M,0.0,N,0.0,K,A*24

5:44:29:393 Nachm. 03/26/17 - $GPRMC,154426.0,A,5208.433111,N,01138.448368,E,0.0,141.1,260317,0.4,E,A*01

5:44:29:393 Nachm. 03/26/17 - $GPGSA,A,2,02,06,12,14,24,25,29,32,,,,,1.3,1.0,0.9*30

5:44:29:396 Nachm. 03/26/17 - $GNGSA,A,2,02,06,12,14,24,25,29,32,,,,,1.3,1.0,0.9*2E

5:44:29:399 Nachm. 03/26/17 - $GNGSA,A,2,73,,,,,,,,,,,,1.3,1.0,0.9*23

5:44:30:386 Nachm. 03/26/17 - $GPGSV,3,1,11,02,32,105,21,12,66,070,17,14,31,296,13,19,09,043,12*70

5:44:30:391 Nachm. 03/26/17 - $GPGSV,3,2,11,24,35,149,17,25,62,278,19,29,26,208,30,32,33,267,12*73

5:44:30:392 Nachm. 03/26/17 - $GPGSV,3,3,11,03,02,354,,06,26,057,,31,16,307,*4B

5:44:30:402 Nachm. 03/26/17 - $GLGSV,3,1,10,82,66,090,19,73,56,314,15,80,65,099,21,83,34,178,22*62

5:44:30:403 Nachm. 03/26/17 - $GLGSV,3,2,10,81,26,032,20,74,00,302,,79,07,116,,65,06,007,*64

5:44:30:404 Nachm. 03/26/17 - $GLGSV,3,3,10,71,11,272,,72,18,322,*6A

5:44:30:411 Nachm. 03/26/17 - $GPGGA,154427.0,5208.433112,N,01138.448368,E,1,08,1.0,61.6,M,45.0,M,,*63

5:44:30:412 Nachm. 03/26/17 - $GNGNS,154427.0,5208.433112,N,01138.448368,E,AA,09,1.0,61.6,45.0,,*56

5:44:30:414 Nachm. 03/26/17 - $GPVTG,141.1,T,140.7,M,0.0,N,0.0,K,A*24

5:44:30:415 Nachm. 03/26/17 - $GPRMC,154427.0,A,5208.433112,N,01138.448368,E,0.0,141.1,260317,0.4,E,A*03

5:44:30:415 Nachm. 03/26/17 - $GPGSA,A,2,02,06,12,14,24,25,29,32,,,,,1.3,1.0,0.9*30

5:44:30:416 Nachm. 03/26/17 - $GNGSA,A,2,02,06,12,14,24,25,29,32,,,,,1.3,1.0,0.9*2E

5:44:30:416 Nachm. 03/26/17 - $GNGSA,A,2,73,,,,,,,,,,,,1.3,1.0,0.9*23

5:44:31:386 Nachm. 03/26/17 - $GPGSV,3,1,11,02,32,105,21,12,66,070,24,14,31,296,13,19,09,043,12*70

5:44:31:388 Nachm. 03/26/17 - $GPGSV,3,2,11,24,35,149,21,25,62,278,21,29,26,208,32,32,33,267,12*7F

5:44:31:392 Nachm. 03/26/17 - $GPGSV,3,3,11,03,02,354,,06,26,057,,31,16,307,*4B

5:44:31:403 Nachm. 03/26/17 - $GLGSV,3,1,10,82,66,090,20,73,56,314,15,80,65,099,21,83,34,178,21*6B

5:44:31:405 Nachm. 03/26/17 - $GLGSV,3,2,10,81,26,032,17,74,00,302,,79,07,116,,65,06,007,*60

5:44:31:414 Nachm. 03/26/17 - $GLGSV,3,3,10,71,11,272,,72,18,322,*6A

5:44:31:414 Nachm. 03/26/17 - $GPGGA,154428.0,5208.433112,N,01138.448368,E,1,07,1.2,61.6,M,45.0,M,,*61

5:44:31:415 Nachm. 03/26/17 - $GNGNS,154428.0,5208.433112,N,01138.448368,E,AA,08,1.2,61.6,45.0,,*5A

5:44:31:416 Nachm. 03/26/17 - $GPVTG,141.1,T,140.7,M,0.0,N,0.0,K,A*24

5:44:31:416 Nachm. 03/26/17 - $GPRMC,154428.0,A,5208.433112,N,01138.448368,E,0.0,141.1,260317,0.4,E,A*0C

5:44:31:417 Nachm. 03/26/17 - $GPGSA,A,2,02,12,14,24,25,29,32,,,,,,1.5,1.2,0.9*32

5:44:31:418 Nachm. 03/26/17 - $GNGSA,A,2,02,12,14,24,25,29,32,,,,,,1.5,1.2,0.9*2C

5:44:31:418 Nachm. 03/26/17 - $GNGSA,A,2,73,,,,,,,,,,,,1.5,1.2,0.9*27

5:44:32:385 Nachm. 03/26/17 - $GPGSV,3,1,11,02,32,105,15,12,66,070,28,14,31,296,13,19,09,043,12*7B

5:44:32:386 Nachm. 03/26/17 - $GPGSV,3,2,11,24,35,149,25,25,62,278,23,29,26,208,33,32,33,267,12*78

5:44:32:387 Nachm. 03/26/17 - $GPGSV,3,3,11,03,02,354,,06,26,057,,31,16,307,*4B

5:44:32:388 Nachm. 03/26/17 - $GLGSV,3,1,10,82,66,090,24,73,56,314,15,80,65,099,15,83,34,178,17*6D

5:44:32:388 Nachm. 03/26/17 - $GLGSV,3,2,10,81,26,032,18,74,00,302,,79,07,116,,65,06,007,*6F

5:44:32:388 Nachm. 03/26/17 - $GLGSV,3,3,10,71,11,272,,72,18,322,*6A

5:44:32:388 Nachm. 03/26/17 - $GPGGA,154429.0,5208.433113,N,01138.448370,E,1,07,1.2,61.6,M,45.0,M,,*68

5:44:32:391 Nachm. 03/26/17 - $GNGNS,154429.0,5208.433113,N,01138.448370,E,AA,08,1.2,61.6,45.0,,*53

5:44:32:391 Nachm. 03/26/17 - $GPVTG,141.1,T,140.7,M,0.0,N,0.0,K,A*24

5:44:32:392 Nachm. 03/26/17 - $GPRMC,154429.0,A,5208.433113,N,01138.448370,E,0.0,141.1,260317,0.4,E,A*05

5:44:32:392 Nachm. 03/26/17 - $GPGSA,A,2,02,12,14,24,25,29,32,,,,,,1.5,1.2,0.9*32

5:44:32:392 Nachm. 03/26/17 - $GNGSA,A,2,02,12,14,24,25,29,32,,,,,,1.5,1.2,0.9*2C

5:44:32:392 Nachm. 03/26/17 - $GNGSA,A,2,73,,,,,,,,,,,,1.5,1.2,0.9*27

5:44:33:387 Nachm. 03/26/17 - $GPGSV,3,1,11,02,32,105,15,12,66,070,23,14,31,296,13,19,09,043,12*70

5:44:33:387 Nachm. 03/26/17 - $GPGSV,3,2,11,24,35,149,27,25,62,278,23,29,26,208,30,32,33,267,12*79

5:44:33:388 Nachm. 03/26/17 - $GPGSV,3,3,11,03,02,354,,06,26,057,,31,16,307,*4B

5:44:33:391 Nachm. 03/26/17 - $GLGSV,3,1,10,82,66,090,21,73,56,314,15,80,65,099,15,83,34,178,19*66

5:44:33:391 Nachm. 03/26/17 - $GLGSV,3,2,10,81,26,032,23,74,00,302,,79,07,116,,65,06,007,*67

5:44:33:391 Nachm. 03/26/17 - $GLGSV,3,3,10,71,11,272,,72,18,322,*6A

5:44:33:391 Nachm. 03/26/17 - $GPGGA,154430.0,5208.433113,N,01138.448364,E,1,06,1.3,61.6,M,45.0,M,,*65

5:44:33:391 Nachm. 03/26/17 - $GNGNS,154430.0,5208.433113,N,01138.448364,E,AN,06,1.3,61.6,45.0,,*5E

5:44:33:391 Nachm. 03/26/17 - $GPVTG,141.1,T,140.7,M,0.0,N,0.0,K,A*24

5:44:33:393 Nachm. 03/26/17 - $GPRMC,154430.0,A,5208.433113,N,01138.448364,E,0.0,141.1,260317,0.4,E,A*08

5:44:33:394 Nachm. 03/26/17 - $GPGSA,A,2,02,12,14,24,25,29,,,,,,,1.6,1.3,0.9*31

5:44:33:395 Nachm. 03/26/17 - $GNGSA,A,2,02,12,14,24,25,29,,,,,,,1.6,1.3,0.9*2F

5:44:33:395 Nachm. 03/26/17 - $GNGSA,A,2,,,,,,,,,,,,,1.6,1.3,0.9*21

5:44:34:385 Nachm. 03/26/17 - $GPGSV,3,1,11,02,32,105,17,06,26,057,21,12,66,070,23,14,31,296,13*74

5:44:34:390 Nachm. 03/26/17 - $GPGSV,3,2,11,24,35,149,25,25,62,278,23,29,26,208,30,32,33,267,12*7B

5:44:34:390 Nachm. 03/26/17 - $GPGSV,3,3,11,03,02,354,,19,09,043,,31,16,307,*4D

5:44:34:392 Nachm. 03/26/17 - $GLGSV,3,1,10,82,66,090,22,73,56,314,15,80,65,099,14,83,34,178,19*64

5:44:34:392 Nachm. 03/26/17 - $GLGSV,3,2,10,81,26,032,25,74,00,302,,79,07,116,,65,06,007,*61

5:44:34:392 Nachm. 03/26/17 - $GLGSV,3,3,10,71,11,272,,72,18,322,*6A

5:44:34:392 Nachm. 03/26/17 - $GPGGA,154431.0,5208.433113,N,01138.448360,E,1,07,1.1,61.6,M,45.0,M,,*63

5:44:34:392 Nachm. 03/26/17 - $GNGNS,154431.0,5208.433113,N,01138.448360,E,AN,07,1.1,61.6,45.0,,*58

5:44:34:404 Nachm. 03/26/17 - $GPVTG,141.1,T,140.7,M,0.0,N,0.0,K,A*24

5:44:34:407 Nachm. 03/26/17 - $GPRMC,154431.0,A,5208.433113,N,01138.448360,E,0.0,141.1,260317,0.4,E,A*0D

5:44:34:408 Nachm. 03/26/17 - $GPGSA,A,2,02,06,12,14,24,25,29,,,,,,1.4,1.1,0.9*37

5:44:34:423 Nachm. 03/26/17 - $GNGSA,A,2,02,06,12,14,24,25,29,,,,,,1.4,1.1,0.9*29

5:44:34:424 Nachm. 03/26/17 - $GNGSA,A,2,,,,,,,,,,,,,1.4,1.1,0.9*21

5:44:35:385 Nachm. 03/26/17 - $GPGSV,3,1,11,02,32,105,18,06,26,057,21,12,66,070,26,14,31,296,13*7E

5:44:35:385 Nachm. 03/26/17 - $GPGSV,3,2,11,24,35,149,27,25,62,278,23,29,26,208,32,32,33,267,12*7B

5:44:35:386 Nachm. 03/26/17 - $GPGSV,3,3,11,03,02,354,,19,09,043,,31,16,307,*4D

5:44:35:397 Nachm. 03/26/17 - $GLGSV,3,1,10,82,66,090,24,73,56,314,14,80,65,099,18,83,34,178,19*6F

5:44:35:399 Nachm. 03/26/17 - $GLGSV,3,2,10,81,26,032,23,74,00,302,,79,07,116,,65,06,007,*67

5:44:35:399 Nachm. 03/26/17 - $GLGSV,3,3,10,71,11,272,,72,18,322,*6A

5:44:35:416 Nachm. 03/26/17 - $GPGGA,154432.0,5208.433157,N,01138.448381,E,1,06,1.2,61.5,M,45.0,M,,*6E

5:44:35:416 Nachm. 03/26/17 - $GNGNS,154432.0,5208.433157,N,01138.448381,E,AA,07,1.2,61.5,45.0,,*5B

5:44:35:417 Nachm. 03/26/17 - $GPVTG,141.1,T,140.7,M,0.0,N,0.0,K,A*24

5:44:35:417 Nachm. 03/26/17 - $GPRMC,154432.0,A,5208.433157,N,01138.448381,E,0.0,141.1,260317,0.4,E,A*01

5:44:35:423 Nachm. 03/26/17 - $GPGSA,A,2,02,06,12,24,25,29,,,,,,,1.5,1.2,0.9*30

5:44:35:423 Nachm. 03/26/17 - $GNGSA,A,2,02,06,12,24,25,29,,,,,,,1.5,1.2,0.9*2E

5:44:35:423 Nachm. 03/26/17 - $GNGSA,A,2,73,,,,,,,,,,,,1.5,1.2,0.9*27

5:44:36:384 Nachm. 03/26/17 - $GPGSV,3,1,11,02,32,105,18,06,26,057,21,12,66,070,27,14,31,296,13*7F

5:44:36:384 Nachm. 03/26/17 - $GPGSV,3,2,11,24,35,149,27,25,62,278,23,29,26,208,32,32,33,267,12*7B

5:44:36:384 Nachm. 03/26/17 - $GPGSV,3,3,11,03,02,354,,19,09,043,,31,16,307,*4D

5:44:36:389 Nachm. 03/26/17 - $GLGSV,3,1,10,82,66,090,26,73,56,314,14,80,65,099,19,83,34,178,16*63

5:44:36:390 Nachm. 03/26/17 - $GLGSV,3,2,10,81,26,032,22,74,00,302,,79,07,116,,65,06,007,*66

5:44:36:390 Nachm. 03/26/17 - $GLGSV,3,3,10,71,11,272,,72,18,322,*6A

5:44:36:390 Nachm. 03/26/17 - $GPGGA,154433.0,5208.433173,N,01138.448387,E,1,06,1.2,61.5,M,45.0,M,,*6F

5:44:36:390 Nachm. 03/26/17 - $GNGNS,154433.0,5208.433173,N,01138.448387,E,AA,07,1.2,61.5,45.0,,*5A

5:44:36:391 Nachm. 03/26/17 - $GPVTG,141.1,T,140.7,M,0.0,N,0.0,K,A*24

5:44:36:391 Nachm. 03/26/17 - $GPRMC,154433.0,A,5208.433173,N,01138.448387,E,0.0,141.1,260317,0.4,E,A*00

5:44:36:391 Nachm. 03/26/17 - $GPGSA,A,2,02,06,12,24,25,29,,,,,,,1.5,1.2,0.9*30

5:44:36:391 Nachm. 03/26/17 - $GNGSA,A,2,02,06,12,24,25,29,,,,,,,1.5,1.2,0.9*2E

5:44:36:391 Nachm. 03/26/17 - $GNGSA,A,2,73,,,,,,,,,,,,1.5,1.2,0.9*27

5:44:37:384 Nachm. 03/26/17 - $GPGSV,3,1,11,02,32,105,17,06,26,057,21,12,66,070,28,14,31,296,13*7F

5:44:37:384 Nachm. 03/26/17 - $GPGSV,3,2,11,24,35,149,29,25,62,278,15,29,26,208,32,32,33,267,12*70

5:44:37:385 Nachm. 03/26/17 - $GPGSV,3,3,11,03,02,354,,19,09,043,,31,16,307,*4D

5:44:37:389 Nachm. 03/26/17 - $GLGSV,3,1,10,82,66,090,27,73,56,314,19,80,65,099,21,83,34,178,22*63

5:44:37:389 Nachm. 03/26/17 - $GLGSV,3,2,10,81,26,032,22,74,00,302,,79,07,116,,65,06,007,*66

5:44:37:389 Nachm. 03/26/17 - $GLGSV,3,3,10,71,11,272,,72,18,322,*6A

5:44:37:389 Nachm. 03/26/17 - $GPGGA,154434.0,5208.433189,N,01138.448372,E,1,06,1.2,61.5,M,45.0,M,,*67

5:44:37:389 Nachm. 03/26/17 - $GNGNS,154434.0,5208.433189,N,01138.448372,E,AA,07,1.2,61.5,45.0,,*52

5:44:37:390 Nachm. 03/26/17 - $GPVTG,141.1,T,140.7,M,0.0,N,0.0,K,A*24

5:44:37:390 Nachm. 03/26/17 - $GPRMC,154434.0,A,5208.433189,N,01138.448372,E,0.0,141.1,260317,0.4,E,A*08

5:44:37:390 Nachm. 03/26/17 - $GPGSA,A,2,02,06,12,24,25,29,,,,,,,1.5,1.2,0.9*30

5:44:37:390 Nachm. 03/26/17 - $GNGSA,A,2,02,06,12,24,25,29,,,,,,,1.5,1.2,0.9*2E

5:44:37:390 Nachm. 03/26/17 - $GNGSA,A,2,73,,,,,,,,,,,,1.5,1.2,0.9*27

5:44:38:383 Nachm. 03/26/17 - $GPGSV,3,1,11,02,32,105,17,06,26,057,17,12,66,070,27,14,31,296,13*75

5:44:38:384 Nachm. 03/26/17 - $GPGSV,3,2,11,24,35,149,29,25,62,278,15,29,26,208,30,32,33,267,11*71

5:44:38:386 Nachm. 03/26/17 - $GPGSV,3,3,11,03,02,354,,19,09,043,,31,16,307,*4D

5:44:38:388 Nachm. 03/26/17 - $GLGSV,3,1,10,82,66,090,26,73,56,314,19,80,65,099,18,83,34,178,21*6B

5:44:38:390 Nachm. 03/26/17 - $GLGSV,3,2,10,81,26,032,22,74,00,302,,79,07,116,,65,06,007,*66

5:44:38:390 Nachm. 03/26/17 - $GLGSV,3,3,10,71,11,272,,72,18,322,*6A

5:44:38:390 Nachm. 03/26/17 - $GPGGA,154435.0,5208.433180,N,01138.448367,E,1,07,1.1,61.5,M,45.0,M,,*69

5:44:38:390 Nachm. 03/26/17 - $GNGNS,154435.0,5208.433180,N,01138.448367,E,AA,08,1.1,61.5,45.0,,*52

5:44:38:391 Nachm. 03/26/17 - $GPVTG,141.1,T,140.7,M,0.0,N,0.0,K,A*24

5:44:38:391 Nachm. 03/26/17 - $GPRMC,154435.0,A,5208.433180,N,01138.448367,E,0.0,141.1,260317,0.4,E,A*04

5:44:38:391 Nachm. 03/26/17 - $GPGSA,A,2,02,06,12,24,25,29,32,,,,,,1.4,1.1,0.9*33

5:44:38:391 Nachm. 03/26/17 - $GNGSA,A,2,02,06,12,24,25,29,32,,,,,,1.4,1.1,0.9*2D

5:44:38:391 Nachm. 03/26/17 - $GNGSA,A,2,73,,,,,,,,,,,,1.4,1.1,0.9*25

5:44:39:384 Nachm. 03/26/17 - $GPGSV,3,1,11,02,32,105,17,06,26,057,16,12,66,070,27,14,31,296,13*74

5:44:39:385 Nachm. 03/26/17 - $GPGSV,3,2,11,24,35,149,32,25,62,278,15,29,26,208,30,03,02,354,*7A

5:44:39:385 Nachm. 03/26/17 - $GPGSV,3,3,11,19,09,043,,31,16,307,,32,33,267,*4C

5:44:39:390 Nachm. 03/26/17 - $GLGSV,3,1,10,82,66,090,26,73,56,314,18,80,65,099,20,83,34,178,24*64

5:44:39:391 Nachm. 03/26/17 - $GLGSV,3,2,10,81,26,032,22,74,00,302,,79,07,116,,65,06,007,*66

5:44:39:391 Nachm. 03/26/17 - $GLGSV,3,3,10,71,11,272,,72,18,322,*6A

5:44:39:391 Nachm. 03/26/17 - $GPGGA,154436.0,5208.433186,N,01138.448363,E,1,07,1.1,61.5,M,45.0,M,,*68

5:44:39:392 Nachm. 03/26/17 - $GNGNS,154436.0,5208.433186,N,01138.448363,E,AA,08,1.1,61.5,45.0,,*53

5:44:39:392 Nachm. 03/26/17 - $GPVTG,141.1,T,140.7,M,0.0,N,0.0,K,A*24

5:44:39:392 Nachm. 03/26/17 - $GPRMC,154436.0,A,5208.433186,N,01138.448363,E,0.0,141.1,260317,0.4,E,A*05

5:44:39:393 Nachm. 03/26/17 - $GPGSA,A,2,02,06,12,24,25,29,32,,,,,,1.4,1.1,0.9*33

5:44:39:393 Nachm. 03/26/17 - $GNGSA,A,2,02,06,12,24,25,29,32,,,,,,1.4,1.1,0.9*2D

5:44:39:393 Nachm. 03/26/17 - $GNGSA,A,2,73,,,,,,,,,,,,1.4,1.1,0.9*25


