6:06:04:383 Nachm. 03/26/17 - $GPGSV,3,1,11,12,57,078,20,14,31,285,31,25,72,289,33,29,36,210,25*76

6:06:04:385 Nachm. 03/26/17 - $GPGSV,3,2,11,31,25,307,20,32,28,255,30,02,36,094,,03,01,345,*7B

6:06:04:387 Nachm. 03/26/17 - $GPGSV,3,3,11,06,23,047,,19,00,045,,24,25,150,*41

6:06:04:387 Nachm. 03/26/17 - $GLGSV,3,1,09,74,09,307,16,82,61,061,21,73,68,322,17,65,10,358,12*6E

6:06:04:387 Nachm. 03/26/17 - $GLGSV,3,2,09,83,47,178,17,72,16,310,17,80,55,115,,81,16,030,*6B

6:06:04:387 Nachm. 03/26/17 - $GLGSV,3,3,09,71,02,265,*59

6:06:04:387 Nachm. 03/26/17 - $GPGGA,160601.0,5208.413889,N,01138.729591,E,1,06,1.3,62.0,M,45.0,M,,*67

6:06:04:389 Nachm. 03/26/17 - $GNGNS,160601.0,5208.413889,N,01138.729591,E,AA,08,1.3,62.0,45.0,,*5D

6:06:04:390 Nachm. 03/26/17 - $GPVTG,53.3,T,52.8,M,1.5,N,2.7,K,A*28

6:06:04:390 Nachm. 03/26/17 - $GPRMC,160601.0,A,5208.413889,N,01138.729591,E,1.5,53.3,260317,0.4,E,A*3B

6:06:04:390 Nachm. 03/26/17 - $GPGSA,A,2,12,14,25,29,31,32,,,,,,,1.6,1.3,0.9*36

6:06:04:390 Nachm. 03/26/17 - $GNGSA,A,2,12,14,25,29,31,32,,,,,,,1.6,1.3,0.9*28

6:06:04:390 Nachm. 03/26/17 - $GNGSA,A,2,73,82,,,,,,,,,,,1.6,1.3,0.9*2F

6:06:05:388 Nachm. 03/26/17 - $GPGSV,3,1,11,12,57,078,20,14,31,285,31,25,72,289,31,29,36,210,33*73

6:06:05:390 Nachm. 03/26/17 - $GPGSV,3,2,11,31,25,307,22,32,28,255,29,02,36,094,,03,01,345,*71

6:06:05:392 Nachm. 03/26/17 - $GPGSV,3,3,11,06,23,047,,19,00,045,,24,25,150,*41

6:06:05:393 Nachm. 03/26/17 - $GLGSV,3,1,09,74,09,307,26,82,61,061,12,73,68,322,17,65,10,358,12*6D

6:06:05:394 Nachm. 03/26/17 - $GLGSV,3,2,09,83,47,178,18,72,16,310,17,80,55,115,,81,16,030,*64

6:06:05:395 Nachm. 03/26/17 - $GLGSV,3,3,09,71,02,265,*59

6:06:05:402 Nachm. 03/26/17 - $GPGGA,160602.0,5208.413536,N,01138.728913,E,1,06,1.3,61.3,M,45.0,M,,*6A

6:06:05:403 Nachm. 03/26/17 - $GNGNS,160602.0,5208.413536,N,01138.728913,E,AA,08,1.3,61.3,45.0,,*50

6:06:05:403 Nachm. 03/26/17 - $GPVTG,53.3,T,52.8,M,0.5,N,1.0,K,A*2D

6:06:05:404 Nachm. 03/26/17 - $GPRMC,160602.0,A,5208.413536,N,01138.728913,E,0.5,53.3,260317,0.4,E,A*37

6:06:05:408 Nachm. 03/26/17 - $GPGSA,A,2,12,14,25,29,31,32,,,,,,,1.6,1.3,0.9*36

6:06:05:409 Nachm. 03/26/17 - $GNGSA,A,2,12,14,25,29,31,32,,,,,,,1.6,1.3,0.9*28

6:06:05:409 Nachm. 03/26/17 - $GNGSA,A,2,73,82,,,,,,,,,,,1.6,1.3,0.9*2F

6:06:06:384 Nachm. 03/26/17 - $GPGSV,3,1,11,14,31,285,32,25,72,289,29,29,36,210,34,31,25,307,20*71

6:06:06:385 Nachm. 03/26/17 - $GPGSV,3,2,11,32,28,255,31,02,36,094,,03,01,345,,06,23,047,*7D

6:06:06:387 Nachm. 03/26/17 - $GPGSV,3,3,11,12,57,078,,19,00,045,,24,25,150,*4B

6:06:06:391 Nachm. 03/26/17 - $GLGSV,3,1,09,74,09,307,18,82,61,061,12,73,68,322,14,65,10,358,12*63

6:06:06:393 Nachm. 03/26/17 - $GLGSV,3,2,09,83,47,178,19,72,16,310,17,80,55,115,,81,16,030,*65

6:06:06:395 Nachm. 03/26/17 - $GLGSV,3,3,09,71,02,265,*59

6:06:06:396 Nachm. 03/26/17 - $GPGGA,160603.0,5208.413965,N,01138.728850,E,1,06,1.3,60.8,M,45.0,M,,*6D

6:06:06:402 Nachm. 03/26/17 - $GNGNS,160603.0,5208.413965,N,01138.728850,E,AA,08,1.3,60.8,45.0,,*57

6:06:06:414 Nachm. 03/26/17 - $GPVTG,53.3,T,52.8,M,0.0,N,0.0,K,A*29

6:06:06:415 Nachm. 03/26/17 - $GPRMC,160603.0,A,5208.413965,N,01138.728850,E,0.0,53.3,260317,0.4,E,A*3F

6:06:06:415 Nachm. 03/26/17 - $GPGSA,A,2,12,14,25,29,31,32,,,,,,,1.6,1.3,0.9*36

6:06:06:416 Nachm. 03/26/17 - $GNGSA,A,2,12,14,25,29,31,32,,,,,,,1.6,1.3,0.9*28

6:06:06:416 Nachm. 03/26/17 - $GNGSA,A,2,73,82,,,,,,,,,,,1.6,1.3,0.9*2F

6:06:07:384 Nachm. 03/26/17 - $GPGSV,3,1,11,14,31,285,28,24,25,150,12,25,72,289,30,29,36,210,30*73

6:06:07:388 Nachm. 03/26/17 - $GPGSV,3,2,11,31,25,307,19,32,28,255,32,02,36,094,,03,01,345,*73

6:06:07:389 Nachm. 03/26/17 - $GPGSV,3,3,11,06,23,047,,12,57,078,,19,00,045,*4A

6:06:07:389 Nachm. 03/26/17 - $GLGSV,3,1,09,74,09,307,19,82,61,061,12,73,68,322,17,65,10,358,12*61

6:06:07:389 Nachm. 03/26/17 - $GLGSV,3,2,09,83,47,178,18,72,16,310,17,80,55,115,,81,16,030,*64

6:06:07:392 Nachm. 03/26/17 - $GLGSV,3,3,09,71,02,265,*59

6:06:07:398 Nachm. 03/26/17 - $GPGGA,160604.0,5208.414025,N,01138.728394,E,1,07,1.1,61.4,M,45.0,M,,*6D

6:06:07:400 Nachm. 03/26/17 - $GNGNS,160604.0,5208.414025,N,01138.728394,E,AA,09,1.1,61.4,45.0,,*57

6:06:07:401 Nachm. 03/26/17 - $GPVTG,53.3,T,52.8,M,0.0,N,0.0,K,A*29

6:06:07:402 Nachm. 03/26/17 - $GPRMC,160604.0,A,5208.414025,N,01138.728394,E,0.0,53.3,260317,0.4,E,A*31

6:06:07:403 Nachm. 03/26/17 - $GPGSA,A,2,12,14,24,25,29,31,32,,,,,,1.5,1.1,0.9*31

6:06:07:404 Nachm. 03/26/17 - $GNGSA,A,2,12,14,24,25,29,31,32,,,,,,1.5,1.1,0.9*2F

6:06:07:405 Nachm. 03/26/17 - $GNGSA,A,2,73,82,,,,,,,,,,,1.5,1.1,0.9*2E

6:06:08:384 Nachm. 03/26/17 - $GPGSV,3,1,11,14,31,285,27,24,25,150,12,25,72,289,33,29,36,210,28*76

6:06:08:391 Nachm. 03/26/17 - $GPGSV,3,2,11,31,25,307,22,32,28,255,34,02,36,094,,03,01,345,*7D

6:06:08:393 Nachm. 03/26/17 - $GPGSV,3,3,11,06,23,047,,12,57,078,,19,00,045,*4A

6:06:08:395 Nachm. 03/26/17 - $GLGSV,3,1,09,74,09,307,21,82,61,061,12,73,68,322,19,65,10,358,12*64

6:06:08:396 Nachm. 03/26/17 - $GLGSV,3,2,09,83,47,178,20,72,16,310,17,80,55,115,,81,16,030,*6F

6:06:08:398 Nachm. 03/26/17 - $GLGSV,3,3,09,71,02,265,*59

6:06:08:398 Nachm. 03/26/17 - $GPGGA,160605.0,5208.414142,N,01138.727818,E,1,06,1.3,60.9,M,45.0,M,,*63

6:06:08:399 Nachm. 03/26/17 - $GNGNS,160605.0,5208.414142,N,01138.727818,E,AA,08,1.3,60.9,45.0,,*59

6:06:08:399 Nachm. 03/26/17 - $GPVTG,53.3,T,52.8,M,0.0,N,0.0,K,A*29

6:06:08:399 Nachm. 03/26/17 - $GPRMC,160605.0,A,5208.414142,N,01138.727818,E,0.0,53.3,260317,0.4,E,A*30

6:06:08:399 Nachm. 03/26/17 - $GPGSA,A,2,14,24,25,29,31,32,,,,,,,1.6,1.3,0.9*33

6:06:08:399 Nachm. 03/26/17 - $GNGSA,A,2,14,24,25,29,31,32,,,,,,,1.6,1.3,0.9*2D

6:06:08:400 Nachm. 03/26/17 - $GNGSA,A,2,73,82,,,,,,,,,,,1.6,1.3,0.9*2F

6:06:09:384 Nachm. 03/26/17 - $GPGSV,3,1,11,12,57,078,18,14,31,285,28,24,25,150,12,25,72,289,33*79

6:06:09:385 Nachm. 03/26/17 - $GPGSV,3,2,11,29,36,210,29,31,25,307,19,32,28,255,34,02,36,094,*73

6:06:09:386 Nachm. 03/26/17 - $GPGSV,3,3,11,03,01,345,,06,23,047,,19,00,045,*44

6:06:09:387 Nachm. 03/26/17 - $GLGSV,3,1,09,74,09,307,23,82,61,061,12,73,68,322,20,65,10,358,12*6C

6:06:09:391 Nachm. 03/26/17 - $GLGSV,3,2,09,83,47,178,21,72,16,310,12,80,55,115,,81,16,030,*6B

6:06:09:392 Nachm. 03/26/17 - $GLGSV,3,3,09,71,02,265,*59

6:06:09:401 Nachm. 03/26/17 - $GPGGA,160606.0,5208.414571,N,01138.728100,E,1,07,1.1,61.0,M,45.0,M,,*60

6:06:09:402 Nachm. 03/26/17 - $GNGNS,160606.0,5208.414571,N,01138.728100,E,AA,09,1.1,61.0,45.0,,*5A

6:06:09:403 Nachm. 03/26/17 - $GPVTG,53.3,T,52.8,M,0.0,N,0.0,K,A*29

6:06:09:403 Nachm. 03/26/17 - $GPRMC,160606.0,A,5208.414571,N,01138.728100,E,0.0,53.3,260317,0.4,E,A*38

6:06:09:404 Nachm. 03/26/17 - $GPGSA,A,2,12,14,24,25,29,31,32,,,,,,1.5,1.1,0.9*31

6:06:09:404 Nachm. 03/26/17 - $GNGSA,A,2,12,14,24,25,29,31,32,,,,,,1.5,1.1,0.9*2F

6:06:09:404 Nachm. 03/26/17 - $GNGSA,A,2,73,82,,,,,,,,,,,1.5,1.1,0.9*2E

6:06:10:384 Nachm. 03/26/17 - $GPGSV,3,1,11,12,57,078,18,14,31,285,28,24,25,150,17,25,72,289,32*7D

6:06:10:385 Nachm. 03/26/17 - $GPGSV,3,2,11,29,36,210,29,31,25,307,19,32,28,255,35,02,36,094,*72

6:06:10:385 Nachm. 03/26/17 - $GPGSV,3,3,11,03,01,345,,06,23,047,,19,00,045,*44

6:06:10:386 Nachm. 03/26/17 - $GLGSV,3,1,09,74,09,307,23,82,61,061,12,73,68,322,19,80,55,115,16*63

6:06:10:387 Nachm. 03/26/17 - $GLGSV,3,2,09,65,10,358,12,83,47,178,20,72,16,310,12,81,16,030,*68

6:06:10:387 Nachm. 03/26/17 - $GLGSV,3,3,09,71,02,265,*59

6:06:10:400 Nachm. 03/26/17 - $GPGGA,160607.0,5208.414864,N,01138.727574,E,1,07,1.1,61.3,M,45.0,M,,*63

6:06:10:402 Nachm. 03/26/17 - $GNGNS,160607.0,5208.414864,N,01138.727574,E,AA,09,1.1,61.3,45.0,,*59

6:06:10:402 Nachm. 03/26/17 - $GPVTG,53.3,T,52.8,M,0.0,N,0.0,K,A*29

6:06:10:403 Nachm. 03/26/17 - $GPRMC,160607.0,A,5208.414864,N,01138.727574,E,0.0,53.3,260317,0.4,E,A*38

6:06:10:403 Nachm. 03/26/17 - $GPGSA,A,2,12,14,24,25,29,31,32,,,,,,1.5,1.1,0.9*31

6:06:10:404 Nachm. 03/26/17 - $GNGSA,A,2,12,14,24,25,29,31,32,,,,,,1.5,1.1,0.9*2F

6:06:10:404 Nachm. 03/26/17 - $GNGSA,A,2,73,82,,,,,,,,,,,1.5,1.1,0.9*2E

6:06:11:383 Nachm. 03/26/17 - $GPGSV,3,1,11,12,57,078,18,14,31,285,29,24,25,150,19,25,72,289,32*72

6:06:11:384 Nachm. 03/26/17 - $GPGSV,3,2,11,29,36,210,29,31,25,307,17,32,28,255,35,02,36,094,*7C

6:06:11:384 Nachm. 03/26/17 - $GPGSV,3,3,11,03,01,345,,06,23,047,,19,00,045,*44

6:06:11:384 Nachm. 03/26/17 - $GLGSV,3,1,09,74,09,307,23,82,61,061,12,73,68,322,18,80,55,115,16*62

6:06:11:393 Nachm. 03/26/17 - $GLGSV,3,2,09,65,10,358,12,83,47,178,18,72,16,310,15,81,16,030,*64

6:06:11:394 Nachm. 03/26/17 - $GLGSV,3,3,09,71,02,265,*59

6:06:11:394 Nachm. 03/26/17 - $GPGGA,160608.0,5208.415097,N,01138.727478,E,1,07,1.1,62.4,M,45.0,M,,*60

6:06:11:395 Nachm. 03/26/17 - $GNGNS,160608.0,5208.415097,N,01138.727478,E,AA,09,1.1,62.4,45.0,,*5A

6:06:11:395 Nachm. 03/26/17 - $GPVTG,53.3,T,52.8,M,0.0,N,0.0,K,A*29

6:06:11:396 Nachm. 03/26/17 - $GPRMC,160608.0,A,5208.415097,N,01138.727478,E,0.0,53.3,260317,0.4,E,A*3F

6:06:11:396 Nachm. 03/26/17 - $GPGSA,A,2,12,14,24,25,29,31,32,,,,,,1.5,1.1,0.9*31

6:06:11:396 Nachm. 03/26/17 - $GNGSA,A,2,12,14,24,25,29,31,32,,,,,,1.5,1.1,0.9*2F

6:06:11:397 Nachm. 03/26/17 - $GNGSA,A,2,73,82,,,,,,,,,,,1.5,1.1,0.9*2E

6:06:12:384 Nachm. 03/26/17 - $GPGSV,3,1,11,12,57,078,18,14,31,285,30,24,25,150,19,25,72,289,28*71

6:06:12:385 Nachm. 03/26/17 - $GPGSV,3,2,11,29,36,210,30,31,25,307,17,32,28,255,33,02,36,094,*72

6:06:12:393 Nachm. 03/26/17 - $GPGSV,3,3,11,03,01,345,,06,23,047,,19,00,045,*44

6:06:12:394 Nachm. 03/26/17 - $GLGSV,3,1,09,74,09,307,18,82,61,061,12,73,68,322,17,80,55,115,16*65

6:06:12:394 Nachm. 03/26/17 - $GLGSV,3,2,09,65,10,358,12,83,47,178,17,72,16,310,15,81,16,030,*6B

6:06:12:394 Nachm. 03/26/17 - $GLGSV,3,3,09,71,02,265,*59

6:06:12:394 Nachm. 03/26/17 - $GPGGA,160609.0,5208.415368,N,01138.727329,E,1,07,1.2,63.1,M,45.0,M,,*66

6:06:12:399 Nachm. 03/26/17 - $GNGNS,160609.0,5208.415368,N,01138.727329,E,AA,08,1.2,63.1,45.0,,*5D

6:06:12:401 Nachm. 03/26/17 - $GPVTG,53.3,T,52.8,M,0.0,N,0.0,K,A*29

6:06:12:407 Nachm. 03/26/17 - $GPRMC,160609.0,A,5208.415368,N,01138.727329,E,0.0,53.3,260317,0.4,E,A*3E

6:06:12:408 Nachm. 03/26/17 - $GPGSA,A,2,12,14,24,25,29,31,32,,,,,,1.5,1.2,0.9*32

6:06:12:413 Nachm. 03/26/17 - $GNGSA,A,2,12,14,24,25,29,31,32,,,,,,1.5,1.2,0.9*2C

6:06:12:418 Nachm. 03/26/17 - $GNGSA,A,2,73,,,,,,,,,,,,1.5,1.2,0.9*27

6:06:13:384 Nachm. 03/26/17 - $GPGSV,3,1,11,02,36,094,14,12,57,078,18,14,31,285,30,24,25,150,17*7B

6:06:13:385 Nachm. 03/26/17 - $GPGSV,3,2,11,25,72,289,25,29,36,210,29,31,25,307,17,32,28,255,32*77

6:06:13:385 Nachm. 03/26/17 - $GPGSV,3,3,11,03,01,345,,06,23,047,,19,00,045,*44

6:06:13:391 Nachm. 03/26/17 - $GLGSV,3,1,09,74,09,307,21,82,61,061,12,73,68,322,17,80,55,115,15*6C

6:06:13:391 Nachm. 03/26/17 - $GLGSV,3,2,09,65,10,358,12,83,47,178,16,72,16,310,15,81,16,030,*6A

6:06:13:392 Nachm. 03/26/17 - $GLGSV,3,3,09,71,02,265,*59

6:06:13:395 Nachm. 03/26/17 - $GPGGA,160610.0,5208.415567,N,01138.726917,E,1,08,1.1,63.7,M,45.0,M,,*6B

6:06:13:402 Nachm. 03/26/17 - $GNGNS,160610.0,5208.415567,N,01138.726917,E,AA,09,1.1,63.7,45.0,,*5E

6:06:13:403 Nachm. 03/26/17 - $GPVTG,53.3,T,52.8,M,0.0,N,0.0,K,A*29

6:06:13:403 Nachm. 03/26/17 - $GPRMC,160610.0,A,5208.415567,N,01138.726917,E,0.0,53.3,260317,0.4,E,A*39

6:06:13:404 Nachm. 03/26/17 - $GPGSA,A,2,02,12,14,24,25,29,31,32,,,,,1.4,1.1,0.9*32

6:06:13:407 Nachm. 03/26/17 - $GNGSA,A,2,02,12,14,24,25,29,31,32,,,,,1.4,1.1,0.9*2C

6:06:13:408 Nachm. 03/26/17 - $GNGSA,A,2,73,,,,,,,,,,,,1.4,1.1,0.9*25

6:06:14:384 Nachm. 03/26/17 - $GPGSV,3,1,11,02,36,094,14,12,57,078,17,14,31,285,30,24,25,150,17*74

6:06:14:384 Nachm. 03/26/17 - $GPGSV,3,2,11,25,72,289,30,29,36,210,31,31,25,307,17,32,28,255,34*7C

6:06:14:384 Nachm. 03/26/17 - $GPGSV,3,3,11,03,01,345,,06,23,047,,19,00,045,*44

6:06:14:385 Nachm. 03/26/17 - $GLGSV,3,1,09,74,09,307,22,82,61,061,12,73,68,322,15,80,55,115,15*6D

6:06:14:385 Nachm. 03/26/17 - $GLGSV,3,2,09,65,10,358,12,83,47,178,20,72,16,310,15,81,16,030,*6F

6:06:14:385 Nachm. 03/26/17 - $GLGSV,3,3,09,71,02,265,*59

6:06:14:386 Nachm. 03/26/17 - $GPGGA,160611.0,5208.415652,N,01138.727005,E,1,08,1.1,64.0,M,45.0,M,,*64

6:06:14:387 Nachm. 03/26/17 - $GNGNS,160611.0,5208.415652,N,01138.727005,E,AA,09,1.1,64.0,45.0,,*51

6:06:14:387 Nachm. 03/26/17 - $GPVTG,53.3,T,52.8,M,0.0,N,0.0,K,A*29

6:06:14:387 Nachm. 03/26/17 - $GPRMC,160611.0,A,5208.415652,N,01138.727005,E,0.0,53.3,260317,0.4,E,A*36

6:06:14:390 Nachm. 03/26/17 - $GPGSA,A,2,02,12,14,24,25,29,31,32,,,,,1.4,1.1,0.9*32

6:06:14:390 Nachm. 03/26/17 - $GNGSA,A,2,02,12,14,24,25,29,31,32,,,,,1.4,1.1,0.9*2C

6:06:14:391 Nachm. 03/26/17 - $GNGSA,A,2,73,,,,,,,,,,,,1.4,1.1,0.9*25

6:06:15:385 Nachm. 03/26/17 - $GPGSV,3,1,11,02,36,094,15,12,57,078,17,14,31,285,31,24,25,150,17*74

6:06:15:385 Nachm. 03/26/17 - $GPGSV,3,2,11,25,72,289,30,29,36,210,31,31,25,307,14,32,28,255,34*7F

6:06:15:386 Nachm. 03/26/17 - $GPGSV,3,3,11,03,01,345,,06,23,047,,19,00,045,*44

6:06:15:386 Nachm. 03/26/17 - $GLGSV,3,1,09,74,09,307,21,82,61,061,10,73,68,322,18,80,55,115,15*61

6:06:15:386 Nachm. 03/26/17 - $GLGSV,3,2,09,65,10,358,12,83,47,178,18,72,16,310,12,81,16,030,*63

6:06:15:387 Nachm. 03/26/17 - $GLGSV,3,3,09,71,02,265,*59

6:06:15:387 Nachm. 03/26/17 - $GPGGA,160612.0,5208.415669,N,01138.726933,E,1,08,1.0,64.5,M,45.0,M,,*66

6:06:15:389 Nachm. 03/26/17 - $GNGNS,160612.0,5208.415669,N,01138.726933,E,AA,10,1.0,64.5,45.0,,*5B

6:06:15:389 Nachm. 03/26/17 - $GPVTG,53.3,T,52.8,M,0.0,N,0.0,K,A*29

6:06:15:393 Nachm. 03/26/17 - $GPRMC,160612.0,A,5208.415669,N,01138.726933,E,0.0,53.3,260317,0.4,E,A*30

6:06:15:394 Nachm. 03/26/17 - $GPGSA,A,2,02,12,14,24,25,29,31,32,,,,,1.4,1.0,0.9*33

6:06:15:395 Nachm. 03/26/17 - $GNGSA,A,2,02,12,14,24,25,29,31,32,,,,,1.4,1.0,0.9*2D

6:06:15:395 Nachm. 03/26/17 - $GNGSA,A,2,73,82,,,,,,,,,,,1.4,1.0,0.9*2E

6:06:16:383 Nachm. 03/26/17 - $GPGSV,3,1,11,02,36,094,16,12,57,078,17,14,31,285,28,24,25,150,17*7F

6:06:16:384 Nachm. 03/26/17 - $GPGSV,3,2,11,25,72,289,28,29,36,210,29,31,25,307,14,32,28,255,33*78

6:06:16:384 Nachm. 03/26/17 - $GPGSV,3,3,11,03,01,345,,06,23,047,,19,00,045,*44

6:06:16:384 Nachm. 03/26/17 - $GLGSV,3,1,09,74,09,307,20,82,61,061,10,73,68,322,18,80,55,115,15*60

6:06:16:386 Nachm. 03/26/17 - $GLGSV,3,2,09,65,10,358,12,83,47,178,18,72,16,310,12,81,16,030,*63

6:06:16:386 Nachm. 03/26/17 - $GLGSV,3,3,09,71,02,265,*59

6:06:16:386 Nachm. 03/26/17 - $GPGGA,160613.0,5208.415729,N,01138.726923,E,1,08,1.0,64.4,M,45.0,M,,*62

6:06:16:386 Nachm. 03/26/17 - $GNGNS,160613.0,5208.415729,N,01138.726923,E,AA,10,1.0,64.4,45.0,,*5F

6:06:16:386 Nachm. 03/26/17 - $GPVTG,53.3,T,52.8,M,0.0,N,0.0,K,A*29

6:06:16:386 Nachm. 03/26/17 - $GPRMC,160613.0,A,5208.415729,N,01138.726923,E,0.0,53.3,260317,0.4,E,A*35

6:06:16:387 Nachm. 03/26/17 - $GPGSA,A,2,02,12,14,24,25,29,31,32,,,,,1.4,1.0,0.9*33

6:06:16:387 Nachm. 03/26/17 - $GNGSA,A,2,02,12,14,24,25,29,31,32,,,,,1.4,1.0,0.9*2D

6:06:16:387 Nachm. 03/26/17 - $GNGSA,A,2,73,82,,,,,,,,,,,1.4,1.0,0.9*2E

6:06:17:384 Nachm. 03/26/17 - $GPGSV,3,1,11,02,36,094,15,12,57,078,17,14,31,285,27,24,25,150,17*73

6:06:17:384 Nachm. 03/26/17 - $GPGSV,3,2,11,25,72,289,28,29,36,210,29,31,25,307,14,32,28,255,32*79

6:06:17:384 Nachm. 03/26/17 - $GPGSV,3,3,11,03,01,345,,06,23,047,,19,00,045,*44

6:06:17:386 Nachm. 03/26/17 - $GLGSV,3,1,09,74,09,307,18,82,61,061,10,73,68,322,15,80,55,115,14*67

6:06:17:386 Nachm. 03/26/17 - $GLGSV,3,2,09,65,10,358,12,83,47,178,18,72,16,310,12,81,16,030,*63

6:06:17:387 Nachm. 03/26/17 - $GLGSV,3,3,09,71,02,265,*59

6:06:17:387 Nachm. 03/26/17 - $GPGGA,160614.0,5208.415702,N,01138.726862,E,1,08,1.0,64.5,M,45.0,M,,*69

6:06:17:388 Nachm. 03/26/17 - $GNGNS,160614.0,5208.415702,N,01138.726862,E,AA,10,1.0,64.5,45.0,,*54

6:06:17:388 Nachm. 03/26/17 - $GPVTG,53.3,T,52.8,M,0.0,N,0.0,K,A*29

6:06:17:388 Nachm. 03/26/17 - $GPRMC,160614.0,A,5208.415702,N,01138.726862,E,0.0,53.3,260317,0.4,E,A*3F

6:06:17:388 Nachm. 03/26/17 - $GPGSA,A,2,02,12,14,24,25,29,31,32,,,,,1.4,1.0,0.9*33

6:06:17:388 Nachm. 03/26/17 - $GNGSA,A,2,02,12,14,24,25,29,31,32,,,,,1.4,1.0,0.9*2D

6:06:17:389 Nachm. 03/26/17 - $GNGSA,A,2,73,82,,,,,,,,,,,1.4,1.0,0.9*2E

6:06:18:387 Nachm. 03/26/17 - $GPGSV,3,1,11,02,36,094,15,12,57,078,17,14,31,285,28,24,25,150,17*7C

6:06:18:390 Nachm. 03/26/17 - $GPGSV,3,2,11,25,72,289,28,29,36,210,29,31,25,307,14,32,28,255,32*79

6:06:18:391 Nachm. 03/26/17 - $GPGSV,3,3,11,03,01,345,,06,23,047,,19,00,045,*44

6:06:18:391 Nachm. 03/26/17 - $GLGSV,3,1,09,74,09,307,17,82,61,061,10,73,68,322,15,80,55,115,14*68

6:06:18:391 Nachm. 03/26/17 - $GLGSV,3,2,09,65,10,358,12,83,47,178,13,72,16,310,12,81,16,030,*68

6:06:18:391 Nachm. 03/26/17 - $GLGSV,3,3,09,71,02,265,*59

6:06:18:391 Nachm. 03/26/17 - $GPGGA,160615.0,5208.415711,N,01138.726888,E,1,08,1.0,64.5,M,45.0,M,,*6E

6:06:18:392 Nachm. 03/26/17 - $GNGNS,160615.0,5208.415711,N,01138.726888,E,AA,10,1.0,64.5,45.0,,*53

6:06:18:392 Nachm. 03/26/17 - $GPVTG,53.3,T,52.8,M,0.0,N,0.0,K,A*29

6:06:18:392 Nachm. 03/26/17 - $GPRMC,160615.0,A,5208.415711,N,01138.726888,E,0.0,53.3,260317,0.4,E,A*38

6:06:18:392 Nachm. 03/26/17 - $GPGSA,A,2,02,12,14,24,25,29,31,32,,,,,1.4,1.0,0.9*33

6:06:18:392 Nachm. 03/26/17 - $GNGSA,A,2,02,12,14,24,25,29,31,32,,,,,1.4,1.0,0.9*2D

6:06:18:397 Nachm. 03/26/17 - $GNGSA,A,2,73,82,,,,,,,,,,,1.4,1.0,0.9*2E

6:06:19:383 Nachm. 03/26/17 - $GPGSV,3,1,11,02,36,094,15,12,57,078,17,14,31,285,29,24,25,150,14*7E

6:06:19:384 Nachm. 03/26/17 - $GPGSV,3,2,11,25,72,289,28,29,36,210,30,31,25,307,14,32,28,255,33*70

6:06:19:385 Nachm. 03/26/17 - $GPGSV,3,3,11,03,01,345,,06,23,047,,19,00,045,*44

6:06:19:386 Nachm. 03/26/17 - $GLGSV,3,1,09,74,09,307,18,82,61,061,10,73,68,322,15,80,55,115,15*66

6:06:19:391 Nachm. 03/26/17 - $GLGSV,3,2,09,65,10,358,12,83,47,178,13,72,16,310,12,81,16,030,*68

6:06:19:391 Nachm. 03/26/17 - $GLGSV,3,3,09,71,02,265,*59

6:06:19:391 Nachm. 03/26/17 - $GPGGA,160616.0,5208.415699,N,01138.726705,E,1,08,1.0,64.7,M,45.0,M,,*64

6:06:19:392 Nachm. 03/26/17 - $GNGNS,160616.0,5208.415699,N,01138.726705,E,AA,10,1.0,64.7,45.0,,*59

6:06:19:392 Nachm. 03/26/17 - $GPVTG,53.3,T,52.8,M,0.0,N,0.0,K,A*29

6:06:19:392 Nachm. 03/26/17 - $GPRMC,160616.0,A,5208.415699,N,01138.726705,E,0.0,53.3,260317,0.4,E,A*30

6:06:19:392 Nachm. 03/26/17 - $GPGSA,A,2,02,12,14,24,25,29,31,32,,,,,1.4,1.0,0.9*33

6:06:19:392 Nachm. 03/26/17 - $GNGSA,A,2,02,12,14,24,25,29,31,32,,,,,1.4,1.0,0.9*2D

6:06:19:392 Nachm. 03/26/17 - $GNGSA,A,2,73,82,,,,,,,,,,,1.4,1.0,0.9*2E

6:06:20:383 Nachm. 03/26/17 - $GPGSV,3,1,11,02,36,094,15,12,57,078,16,14,31,285,31,24,25,150,14*76

6:06:20:383 Nachm. 03/26/17 - $GPGSV,3,2,11,25,72,289,26,29,36,210,31,31,25,307,15,32,28,255,32*7F

6:06:20:384 Nachm. 03/26/17 - $GPGSV,3,3,11,03,01,345,,06,23,047,,19,00,045,*44

6:06:20:384 Nachm. 03/26/17 - $GLGSV,3,1,09,74,09,307,20,82,61,061,12,73,68,322,15,80,55,115,13*69

6:06:20:384 Nachm. 03/26/17 - $GLGSV,3,2,09,65,10,358,12,83,47,178,13,72,16,310,12,81,16,030,*68

6:06:20:384 Nachm. 03/26/17 - $GLGSV,3,3,09,71,02,265,*59

6:06:20:384 Nachm. 03/26/17 - $GPGGA,160617.0,5208.415677,N,01138.726628,E,1,08,1.0,64.9,M,45.0,M,,*65

6:06:20:387 Nachm. 03/26/17 - $GNGNS,160617.0,5208.415677,N,01138.726628,E,AA,10,1.0,64.9,45.0,,*58

6:06:20:387 Nachm. 03/26/17 - $GPVTG,53.3,T,52.8,M,0.0,N,0.0,K,A*29

6:06:20:388 Nachm. 03/26/17 - $GPRMC,160617.0,A,5208.415677,N,01138.726628,E,0.0,53.3,260317,0.4,E,A*3F

6:06:20:388 Nachm. 03/26/17 - $GPGSA,A,2,02,12,14,24,25,29,31,32,,,,,1.4,1.0,0.9*33

6:06:20:388 Nachm. 03/26/17 - $GNGSA,A,2,02,12,14,24,25,29,31,32,,,,,1.4,1.0,0.9*2D

6:06:20:388 Nachm. 03/26/17 - $GNGSA,A,2,73,82,,,,,,,,,,,1.4,1.0,0.9*2E

6:06:21:383 Nachm. 03/26/17 - $GPGSV,3,1,11,02,36,094,15,12,57,078,16,14,31,285,29,24,25,150,14*7F

6:06:21:384 Nachm. 03/26/17 - $GPGSV,3,2,11,25,72,289,25,29,36,210,29,31,25,307,18,32,28,255,27*7C

6:06:21:384 Nachm. 03/26/17 - $GPGSV,3,3,11,03,01,345,,06,23,047,,19,00,045,*44

6:06:21:384 Nachm. 03/26/17 - $GLGSV,3,1,09,74,09,307,22,82,61,061,12,73,68,322,15,80,55,115,13*6B

6:06:21:388 Nachm. 03/26/17 - $GLGSV,3,2,09,65,10,358,12,83,47,178,13,72,16,310,13,81,16,030,*69

6:06:21:389 Nachm. 03/26/17 - $GLGSV,3,3,09,71,02,265,*59

6:06:21:389 Nachm. 03/26/17 - $GPGGA,160618.0,5208.415659,N,01138.726597,E,1,08,1.0,65.0,M,45.0,M,,*69

6:06:21:389 Nachm. 03/26/17 - $GNGNS,160618.0,5208.415659,N,01138.726597,E,AA,10,1.0,65.0,45.0,,*54

6:06:21:389 Nachm. 03/26/17 - $GPVTG,53.3,T,52.8,M,0.0,N,0.0,K,A*29

6:06:21:389 Nachm. 03/26/17 - $GPRMC,160618.0,A,5208.415659,N,01138.726597,E,0.0,53.3,260317,0.4,E,A*3B

6:06:21:390 Nachm. 03/26/17 - $GPGSA,A,2,02,12,14,24,25,29,31,32,,,,,1.4,1.0,0.9*33

6:06:21:390 Nachm. 03/26/17 - $GNGSA,A,2,02,12,14,24,25,29,31,32,,,,,1.4,1.0,0.9*2D

6:06:21:390 Nachm. 03/26/17 - $GNGSA,A,2,73,82,,,,,,,,,,,1.4,1.0,0.9*2E

6:06:22:384 Nachm. 03/26/17 - $GPGSV,3,1,11,02,36,094,15,12,57,078,16,14,31,285,31,24,25,150,14*76

6:06:22:388 Nachm. 03/26/17 - $GPGSV,3,2,11,25,72,289,28,29,36,210,31,31,25,307,20,32,28,255,29*7D

6:06:22:391 Nachm. 03/26/17 - $GPGSV,3,3,11,03,01,345,,06,23,047,,19,00,045,*44

6:06:22:392 Nachm. 03/26/17 - $GLGSV,3,1,09,74,09,307,22,82,61,061,15,73,68,322,15,80,55,115,13*6C

6:06:22:394 Nachm. 03/26/17 - $GLGSV,3,2,09,65,10,358,12,83,47,178,13,72,16,310,13,81,16,030,*69

6:06:22:395 Nachm. 03/26/17 - $GLGSV,3,3,09,71,02,265,*59

6:06:22:396 Nachm. 03/26/17 - $GPGGA,160619.0,5208.415636,N,01138.726451,E,1,08,1.0,65.1,M,45.0,M,,*6B

6:06:22:401 Nachm. 03/26/17 - $GNGNS,160619.0,5208.415636,N,01138.726451,E,AA,10,1.0,65.1,45.0,,*56

6:06:22:404 Nachm. 03/26/17 - $GPVTG,53.3,T,52.8,M,0.0,N,0.0,K,A*29

6:06:22:405 Nachm. 03/26/17 - $GPRMC,160619.0,A,5208.415636,N,01138.726451,E,0.0,53.3,260317,0.4,E,A*38

6:06:22:408 Nachm. 03/26/17 - $GPGSA,A,2,02,12,14,24,25,29,31,32,,,,,1.4,1.0,0.9*33

6:06:22:408 Nachm. 03/26/17 - $GNGSA,A,2,02,12,14,24,25,29,31,32,,,,,1.4,1.0,0.9*2D

6:06:22:408 Nachm. 03/26/17 - $GNGSA,A,2,73,82,,,,,,,,,,,1.4,1.0,0.9*2E

6:06:23:384 Nachm. 03/26/17 - $GPGSV,3,1,11,02,36,094,15,12,57,078,16,14,31,285,32,24,25,150,15*74

6:06:23:386 Nachm. 03/26/17 - $GPGSV,3,2,11,25,72,289,32,29,36,210,33,31,25,307,18,32,28,255,33*74

6:06:23:390 Nachm. 03/26/17 - $GPGSV,3,3,11,03,01,345,,06,23,047,,19,00,045,*44

6:06:23:391 Nachm. 03/26/17 - $GLGSV,3,1,09,74,09,307,23,82,61,061,15,73,68,322,15,80,55,115,13*6D

6:06:23:392 Nachm. 03/26/17 - $GLGSV,3,2,09,65,10,358,12,83,47,178,13,72,16,310,15,81,16,030,*6F

6:06:23:392 Nachm. 03/26/17 - $GLGSV,3,3,09,71,02,265,*59

6:06:23:392 Nachm. 03/26/17 - $GPGGA,160620.0,5208.415619,N,01138.726284,E,1,08,1.0,65.3,M,45.0,M,,*60

6:06:23:396 Nachm. 03/26/17 - $GNGNS,160620.0,5208.415619,N,01138.726284,E,AA,10,1.0,65.3,45.0,,*5D

6:06:23:396 Nachm. 03/26/17 - $GPVTG,53.3,T,52.8,M,0.0,N,0.0,K,A*29

6:06:23:397 Nachm. 03/26/17 - $GPRMC,160620.0,A,5208.415619,N,01138.726284,E,0.0,53.3,260317,0.4,E,A*31

6:06:23:400 Nachm. 03/26/17 - $GPGSA,A,2,02,12,14,24,25,29,31,32,,,,,1.4,1.0,0.9*33

6:06:23:401 Nachm. 03/26/17 - $GNGSA,A,2,02,12,14,24,25,29,31,32,,,,,1.4,1.0,0.9*2D

6:06:23:402 Nachm. 03/26/17 - $GNGSA,A,2,73,82,,,,,,,,,,,1.4,1.0,0.9*2E

6:06:24:385 Nachm. 03/26/17 - $GPGSV,3,1,11,12,57,078,16,14,31,285,32,24,25,150,15,25,72,289,32*7A

6:06:24:390 Nachm. 03/26/17 - $GPGSV,3,2,11,29,36,210,34,31,25,307,18,32,28,255,33,02,36,094,*79

6:06:24:391 Nachm. 03/26/17 - $GPGSV,3,3,11,03,01,345,,06,23,047,,19,00,045,*44

6:06:24:393 Nachm. 03/26/17 - $GLGSV,3,1,09,74,09,307,24,82,61,061,15,73,68,322,13,80,55,115,13*6C

6:06:24:395 Nachm. 03/26/17 - $GLGSV,3,2,09,65,10,358,12,83,47,178,17,72,16,310,15,81,16,030,*6B

6:06:24:396 Nachm. 03/26/17 - $GLGSV,3,3,09,71,02,265,*59

6:06:24:410 Nachm. 03/26/17 - $GPGGA,160621.0,5208.415604,N,01138.726235,E,1,08,1.0,65.4,M,45.0,M,,*60

6:06:24:417 Nachm. 03/26/17 - $GNGNS,160621.0,5208.415604,N,01138.726235,E,AA,10,1.0,65.4,45.0,,*5D

6:06:24:417 Nachm. 03/26/17 - $GPVTG,53.3,T,52.8,M,0.0,N,0.0,K,A*29

6:06:24:418 Nachm. 03/26/17 - $GPRMC,160621.0,A,5208.415604,N,01138.726235,E,0.0,53.3,260317,0.4,E,A*36

6:06:24:419 Nachm. 03/26/17 - $GPGSA,A,2,02,12,14,24,25,29,31,32,,,,,1.4,1.0,0.9*33

6:06:24:419 Nachm. 03/26/17 - $GNGSA,A,2,02,12,14,24,25,29,31,32,,,,,1.4,1.0,0.9*2D

6:06:24:419 Nachm. 03/26/17 - $GNGSA,A,2,73,82,,,,,,,,,,,1.4,1.0,0.9*2E

6:06:25:384 Nachm. 03/26/17 - $GPGSV,3,1,11,12,57,078,16,14,31,285,32,24,25,150,17,25,72,289,32*78

6:06:25:385 Nachm. 03/26/17 - $GPGSV,3,2,11,29,36,210,33,31,25,307,16,32,28,255,35,02,36,094,*76

6:06:25:386 Nachm. 03/26/17 - $GPGSV,3,3,11,03,01,345,,06,23,047,,19,00,045,*44

6:06:25:394 Nachm. 03/26/17 - $GLGSV,3,1,09,74,09,307,21,82,61,061,16,73,68,322,13,80,55,115,13*6A

6:06:25:401 Nachm. 03/26/17 - $GLGSV,3,2,09,83,47,178,17,72,16,310,14,,10,358,,81,16,030,*6A

6:06:25:408 Nachm. 03/26/17 - $GLGSV,3,3,09,71,02,265,*59

6:06:25:408 Nachm. 03/26/17 - $GPGGA,160622.0,5208.415589,N,01138.726264,E,1,08,1.0,65.4,M,45.0,M,,*61

6:06:25:410 Nachm. 03/26/17 - $GNGNS,160622.0,5208.415589,N,01138.726264,E,AA,10,1.0,65.4,45.0,,*5C

6:06:25:414 Nachm. 03/26/17 - $GPVTG,53.3,T,52.8,M,0.0,N,0.0,K,A*29

6:06:25:415 Nachm. 03/26/17 - $GPRMC,160622.0,A,5208.415589,N,01138.726264,E,0.0,53.3,260317,0.4,E,A*37

6:06:25:416 Nachm. 03/26/17 - $GPGSA,A,2,02,12,14,24,25,29,31,32,,,,,1.4,1.0,0.9*33

6:06:25:416 Nachm. 03/26/17 - $GNGSA,A,2,02,12,14,24,25,29,31,32,,,,,1.4,1.0,0.9*2D

6:06:25:417 Nachm. 03/26/17 - $GNGSA,A,2,73,82,,,,,,,,,,,1.4,1.0,0.9*2E

6:06:26:385 Nachm. 03/26/17 - $GPGSV,3,1,11,12,57,078,16,14,31,285,32,24,25,150,17,25,72,289,32*78

6:06:26:387 Nachm. 03/26/17 - $GPGSV,3,2,11,29,36,210,32,31,25,307,18,32,28,255,35,02,36,094,*79

6:06:26:390 Nachm. 03/26/17 - $GPGSV,3,3,11,03,01,345,,06,23,047,,19,00,045,*44

6:06:26:392 Nachm. 03/26/17 - $GLGSV,3,1,09,74,09,307,23,82,61,061,16,73,68,322,13,80,55,115,13*68

6:06:26:399 Nachm. 03/26/17 - $GLGSV,3,2,09,83,47,178,17,72,16,310,14,65,10,358,,81,16,030,*69

6:06:26:400 Nachm. 03/26/17 - $GLGSV,3,3,09,71,02,265,*59

6:06:26:401 Nachm. 03/26/17 - $GPGGA,160623.0,5208.415584,N,01138.726224,E,1,08,1.0,65.5,M,45.0,M,,*68

6:06:26:402 Nachm. 03/26/17 - $GNGNS,160623.0,5208.415584,N,01138.726224,E,AA,10,1.0,65.5,45.0,,*55

6:06:26:403 Nachm. 03/26/17 - $GPVTG,53.3,T,52.8,M,0.0,N,0.0,K,A*29

6:06:26:404 Nachm. 03/26/17 - $GPRMC,160623.0,A,5208.415584,N,01138.726224,E,0.0,53.3,260317,0.4,E,A*3F

6:06:26:405 Nachm. 03/26/17 - $GPGSA,A,2,02,12,14,24,25,29,31,32,,,,,1.4,1.0,0.9*33

6:06:26:406 Nachm. 03/26/17 - $GNGSA,A,2,02,12,14,24,25,29,31,32,,,,,1.4,1.0,0.9*2D

6:06:26:412 Nachm. 03/26/17 - $GNGSA,A,2,73,82,,,,,,,,,,,1.4,1.0,0.9*2E

6:06:27:385 Nachm. 03/26/17 - $GPGSV,3,1,11,02,36,094,17,12,57,078,16,14,31,285,31,24,25,150,17*77

6:06:27:389 Nachm. 03/26/17 - $GPGSV,3,2,11,25,72,289,33,29,36,210,32,31,25,307,18,32,28,255,36*71

6:06:27:394 Nachm. 03/26/17 - $GPGSV,3,3,11,03,01,345,,06,23,047,,19,00,045,*44

6:06:27:394 Nachm. 03/26/17 - $GLGSV,3,1,09,74,09,307,22,82,61,061,16,73,68,322,15,80,55,115,13*6F

6:06:27:394 Nachm. 03/26/17 - $GLGSV,3,2,09,83,47,178,17,72,16,310,14,65,10,358,,81,16,030,*69

6:06:27:394 Nachm. 03/26/17 - $GLGSV,3,3,09,71,02,265,*59

6:06:27:394 Nachm. 03/26/17 - $GPGGA,160624.0,5208.415584,N,01138.726223,E,1,07,1.1,65.5,M,45.0,M,,*66

6:06:27:402 Nachm. 03/26/17 - $GNGNS,160624.0,5208.415584,N,01138.726223,E,AA,09,1.1,65.5,45.0,,*5C

6:06:27:403 Nachm. 03/26/17 - $GPVTG,53.3,T,52.8,M,0.0,N,0.0,K,A*29

6:06:27:404 Nachm. 03/26/17 - $GPRMC,160624.0,A,5208.415584,N,01138.726223,E,0.0,53.3,260317,0.4,E,A*3F

6:06:27:405 Nachm. 03/26/17 - $GPGSA,A,2,02,14,24,25,29,31,32,,,,,,1.4,1.1,0.9*31

6:06:27:406 Nachm. 03/26/17 - $GNGSA,A,2,02,14,24,25,29,31,32,,,,,,1.4,1.1,0.9*2F

6:06:27:408 Nachm. 03/26/17 - $GNGSA,A,2,73,82,,,,,,,,,,,1.4,1.1,0.9*2F

6:06:28:383 Nachm. 03/26/17 - $GPGSV,3,1,11,12,57,078,16,14,31,285,28,24,25,150,17,25,72,289,33*72

6:06:28:383 Nachm. 03/26/17 - $GPGSV,3,2,11,29,36,210,32,31,25,307,18,32,28,255,36,02,36,094,*7A

6:06:28:383 Nachm. 03/26/17 - $GPGSV,3,3,11,03,01,345,,06,23,047,,19,00,045,*44

6:06:28:385 Nachm. 03/26/17 - $GLGSV,3,1,09,74,09,307,22,82,61,061,16,73,68,322,15,80,55,115,13*6F

6:06:28:386 Nachm. 03/26/17 - $GLGSV,3,2,09,83,47,178,17,72,16,310,14,65,10,358,,81,16,030,*69

6:06:28:388 Nachm. 03/26/17 - $GLGSV,3,3,09,71,02,265,*59

6:06:28:389 Nachm. 03/26/17 - $GPGGA,160625.0,5208.415587,N,01138.726246,E,1,07,1.1,65.4,M,45.0,M,,*66

6:06:28:389 Nachm. 03/26/17 - $GNGNS,160625.0,5208.415587,N,01138.726246,E,AA,09,1.1,65.4,45.0,,*5C

6:06:28:390 Nachm. 03/26/17 - $GPVTG,53.3,T,52.8,M,0.0,N,0.0,K,A*29

6:06:28:390 Nachm. 03/26/17 - $GPRMC,160625.0,A,5208.415587,N,01138.726246,E,0.0,53.3,260317,0.4,E,A*3E

6:06:28:390 Nachm. 03/26/17 - $GPGSA,A,2,02,14,24,25,29,31,32,,,,,,1.4,1.1,0.9*31

6:06:28:391 Nachm. 03/26/17 - $GNGSA,A,2,02,14,24,25,29,31,32,,,,,,1.4,1.1,0.9*2F

6:06:28:391 Nachm. 03/26/17 - $GNGSA,A,2,73,82,,,,,,,,,,,1.4,1.1,0.9*2F

6:06:29:383 Nachm. 03/26/17 - $GPGSV,3,1,11,12,57,078,16,14,31,285,27,24,25,150,17,25,72,289,32*7C

6:06:29:384 Nachm. 03/26/17 - $GPGSV,3,2,11,29,36,210,31,31,25,307,18,32,28,255,35,02,36,094,*7A

6:06:29:385 Nachm. 03/26/17 - $GPGSV,3,3,11,03,01,345,,06,23,047,,19,00,045,*44

6:06:29:386 Nachm. 03/26/17 - $GLGSV,3,1,09,74,09,307,21,82,61,061,16,73,68,322,15,80,55,115,13*6C

6:06:29:387 Nachm. 03/26/17 - $GLGSV,3,2,09,83,47,178,17,72,16,310,14,65,10,358,,81,16,030,*69

6:06:29:387 Nachm. 03/26/17 - $GLGSV,3,3,09,71,02,265,*59

6:06:29:388 Nachm. 03/26/17 - $GPGGA,160626.0,5208.415588,N,01138.726267,E,1,07,1.1,65.4,M,45.0,M,,*69

6:06:29:391 Nachm. 03/26/17 - $GNGNS,160626.0,5208.415588,N,01138.726267,E,AA,09,1.1,65.4,45.0,,*53

6:06:29:391 Nachm. 03/26/17 - $GPVTG,53.3,T,52.8,M,0.0,N,0.0,K,A*29

6:06:29:392 Nachm. 03/26/17 - $GPRMC,160626.0,A,5208.415588,N,01138.726267,E,0.0,53.3,260317,0.4,E,A*31

6:06:29:392 Nachm. 03/26/17 - $GPGSA,A,2,02,14,24,25,29,31,32,,,,,,1.4,1.1,0.9*31

6:06:29:392 Nachm. 03/26/17 - $GNGSA,A,2,02,14,24,25,29,31,32,,,,,,1.4,1.1,0.9*2F

6:06:29:393 Nachm. 03/26/17 - $GNGSA,A,2,73,82,,,,,,,,,,,1.4,1.1,0.9*2F

6:06:30:384 Nachm. 03/26/17 - $GPGSV,3,1,11,12,57,078,16,14,31,285,28,24,25,150,16,25,72,289,33*73

6:06:30:385 Nachm. 03/26/17 - $GPGSV,3,2,11,29,36,210,32,31,25,307,18,32,28,255,37,02,36,094,*7B

6:06:30:385 Nachm. 03/26/17 - $GPGSV,3,3,11,03,01,345,,06,23,047,,19,00,045,*44

6:06:30:388 Nachm. 03/26/17 - $GLGSV,3,1,09,74,09,307,21,82,61,061,14,73,68,322,15,80,55,115,13*6E

6:06:30:393 Nachm. 03/26/17 - $GLGSV,3,2,09,83,47,178,17,72,16,310,14,65,10,358,,81,16,030,*69

6:06:30:394 Nachm. 03/26/17 - $GLGSV,3,3,09,71,02,265,*59

6:06:30:394 Nachm. 03/26/17 - $GPGGA,160627.0,5208.415625,N,01138.726303,E,1,07,1.1,65.4,M,45.0,M,,*6F

6:06:30:394 Nachm. 03/26/17 - $GNGNS,160627.0,5208.415625,N,01138.726303,E,AA,09,1.1,65.4,45.0,,*55

6:06:30:395 Nachm. 03/26/17 - $GPVTG,53.3,T,52.8,M,0.0,N,0.0,K,A*29

6:06:30:395 Nachm. 03/26/17 - $GPRMC,160627.0,A,5208.415625,N,01138.726303,E,0.0,53.3,260317,0.4,E,A*37

6:06:30:395 Nachm. 03/26/17 - $GPGSA,A,2,02,14,24,25,29,31,32,,,,,,1.4,1.1,0.9*31

6:06:30:396 Nachm. 03/26/17 - $GNGSA,A,2,02,14,24,25,29,31,32,,,,,,1.4,1.1,0.9*2F

6:06:30:396 Nachm. 03/26/17 - $GNGSA,A,2,73,82,,,,,,,,,,,1.4,1.1,0.9*2F

6:06:31:385 Nachm. 03/26/17 - $GPGSV,3,1,11,12,57,078,16,14,31,285,29,24,25,150,16,25,72,289,34*75

6:06:31:386 Nachm. 03/26/17 - $GPGSV,3,2,11,29,36,210,32,31,25,307,18,32,28,255,37,02,36,094,*7B

6:06:31:386 Nachm. 03/26/17 - $GPGSV,3,3,11,03,01,345,,06,23,047,,19,00,045,*44

6:06:31:387 Nachm. 03/26/17 - $GLGSV,3,1,09,74,09,307,22,82,61,061,14,73,68,322,15,80,55,115,13*6D

6:06:31:388 Nachm. 03/26/17 - $GLGSV,3,2,09,83,47,178,17,72,16,310,12,65,10,358,,81,16,030,*6F

6:06:31:388 Nachm. 03/26/17 - $GLGSV,3,3,09,71,02,265,*59

6:06:31:388 Nachm. 03/26/17 - $GPGGA,160628.0,5208.415627,N,01138.726326,E,1,07,1.1,65.4,M,45.0,M,,*65

6:06:31:391 Nachm. 03/26/17 - $GNGNS,160628.0,5208.415627,N,01138.726326,E,AA,09,1.1,65.4,45.0,,*5F

6:06:31:393 Nachm. 03/26/17 - $GPVTG,53.3,T,52.8,M,0.0,N,0.0,K,A*29

6:06:31:394 Nachm. 03/26/17 - $GPRMC,160628.0,A,5208.415627,N,01138.726326,E,0.0,53.3,260317,0.4,E,A*3D

6:06:31:395 Nachm. 03/26/17 - $GPGSA,A,2,02,14,24,25,29,31,32,,,,,,1.4,1.1,0.9*31

6:06:31:397 Nachm. 03/26/17 - $GNGSA,A,2,02,14,24,25,29,31,32,,,,,,1.4,1.1,0.9*2F

6:06:31:398 Nachm. 03/26/17 - $GNGSA,A,2,73,82,,,,,,,,,,,1.4,1.1,0.9*2F

6:06:32:386 Nachm. 03/26/17 - $GPGSV,3,1,11,12,57,078,16,14,31,285,29,24,25,150,16,25,72,289,34*75

6:06:32:391 Nachm. 03/26/17 - $GPGSV,3,2,11,29,36,210,33,31,25,307,18,32,28,255,37,02,36,094,*7A

6:06:32:391 Nachm. 03/26/17 - $GPGSV,3,3,11,03,01,345,,06,23,047,,19,00,045,*44

6:06:32:391 Nachm. 03/26/17 - $GLGSV,3,1,09,74,09,307,22,82,61,061,14,73,68,322,14,80,55,115,13*6C

6:06:32:392 Nachm. 03/26/17 - $GLGSV,3,2,09,83,47,178,10,72,16,310,12,65,10,358,,81,16,030,*68

6:06:32:393 Nachm. 03/26/17 - $GLGSV,3,3,09,71,02,265,*59

6:06:32:393 Nachm. 03/26/17 - $GPGGA,160629.0,5208.415628,N,01138.726340,E,1,07,1.1,65.4,M,45.0,M,,*6B

6:06:32:395 Nachm. 03/26/17 - $GNGNS,160629.0,5208.415628,N,01138.726340,E,AA,09,1.1,65.4,45.0,,*51

6:06:32:398 Nachm. 03/26/17 - $GPVTG,53.3,T,52.8,M,0.0,N,0.0,K,A*29

6:06:32:398 Nachm. 03/26/17 - $GPRMC,160629.0,A,5208.415628,N,01138.726340,E,0.0,53.3,260317,0.4,E,A*33

6:06:32:399 Nachm. 03/26/17 - $GPGSA,A,2,02,14,24,25,29,31,32,,,,,,1.4,1.1,0.9*31

6:06:32:399 Nachm. 03/26/17 - $GNGSA,A,2,02,14,24,25,29,31,32,,,,,,1.4,1.1,0.9*2F

6:06:32:399 Nachm. 03/26/17 - $GNGSA,A,2,73,82,,,,,,,,,,,1.4,1.1,0.9*2F

6:06:33:384 Nachm. 03/26/17 - $GPGSV,3,1,11,12,57,078,16,14,31,285,28,24,25,150,15,25,72,289,34*77

6:06:33:385 Nachm. 03/26/17 - $GPGSV,3,2,11,29,36,210,34,32,28,255,38,02,36,094,,03,01,345,*7A

6:06:33:386 Nachm. 03/26/17 - $GPGSV,3,3,11,06,23,047,,19,00,045,,31,25,307,*45

6:06:33:386 Nachm. 03/26/17 - $GLGSV,3,1,09,74,09,307,21,82,61,061,14,73,68,322,14,80,55,115,13*6F

6:06:33:387 Nachm. 03/26/17 - $GLGSV,3,2,09,83,47,178,10,72,16,310,15,65,10,358,,81,16,030,*6F

6:06:33:387 Nachm. 03/26/17 - $GLGSV,3,3,09,71,02,265,*59

6:06:33:390 Nachm. 03/26/17 - $GPGGA,160630.0,5208.415626,N,01138.726302,E,1,06,1.2,65.5,M,45.0,M,,*68

6:06:33:396 Nachm. 03/26/17 - $GNGNS,160630.0,5208.415626,N,01138.726302,E,AA,08,1.2,65.5,45.0,,*52

6:06:33:396 Nachm. 03/26/17 - $GPVTG,53.3,T,52.8,M,0.0,N,0.0,K,A*29

6:06:33:397 Nachm. 03/26/17 - $GPRMC,160630.0,A,5208.415626,N,01138.726302,E,0.0,53.3,260317,0.4,E,A*33

6:06:33:397 Nachm. 03/26/17 - $GPGSA,A,2,02,14,24,25,29,32,,,,,,,1.6,1.2,0.9*32

6:06:33:398 Nachm. 03/26/17 - $GNGSA,A,2,02,14,24,25,29,32,,,,,,,1.6,1.2,0.9*2C

6:06:33:398 Nachm. 03/26/17 - $GNGSA,A,2,73,82,,,,,,,,,,,1.6,1.2,0.9*2E

6:06:34:384 Nachm. 03/26/17 - $GPGSV,3,1,11,12,57,078,16,14,31,285,29,24,25,150,15,25,72,289,34*76

6:06:34:385 Nachm. 03/26/17 - $GPGSV,3,2,11,29,37,210,33,32,28,255,38,02,36,094,,03,01,345,*7C

6:06:34:390 Nachm. 03/26/17 - $GPGSV,3,3,11,06,23,047,,19,00,045,,31,25,307,*45

6:06:34:391 Nachm. 03/26/17 - $GLGSV,3,1,09,74,09,307,22,82,61,061,14,73,68,322,14,80,55,115,13*6C

6:06:34:392 Nachm. 03/26/17 - $GLGSV,3,2,09,83,47,178,10,72,16,310,17,65,10,358,,81,16,030,*6D

6:06:34:400 Nachm. 03/26/17 - $GLGSV,3,3,09,71,02,265,*59

6:06:34:403 Nachm. 03/26/17 - $GPGGA,160631.0,5208.415628,N,01138.726305,E,1,05,1.5,65.4,M,45.0,M,,*65

6:06:34:407 Nachm. 03/26/17 - $GNGNS,160631.0,5208.415628,N,01138.726305,E,AA,07,1.5,65.4,45.0,,*53

6:06:34:408 Nachm. 03/26/17 - $GPVTG,53.3,T,52.8,M,0.0,N,0.0,K,A*29

6:06:34:409 Nachm. 03/26/17 - $GPRMC,160631.0,A,5208.415628,N,01138.726305,E,0.0,53.3,260317,0.4,E,A*3B

6:06:34:410 Nachm. 03/26/17 - $GPGSA,A,2,14,24,25,29,32,,,,,,,,1.8,1.5,0.9*39

6:06:34:410 Nachm. 03/26/17 - $GNGSA,A,2,14,24,25,29,32,,,,,,,,1.8,1.5,0.9*27

6:06:34:411 Nachm. 03/26/17 - $GNGSA,A,2,73,82,,,,,,,,,,,1.8,1.5,0.9*27

6:06:35:386 Nachm. 03/26/17 - $GPGSV,3,1,11,12,57,078,16,14,31,285,28,24,25,150,15,25,72,289,34*77

6:06:35:389 Nachm. 03/26/17 - $GPGSV,3,2,11,29,37,210,33,32,28,255,37,02,36,094,,03,01,345,*73

6:06:35:389 Nachm. 03/26/17 - $GPGSV,3,3,11,06,23,047,,19,00,045,,31,25,307,*45

6:06:35:390 Nachm. 03/26/17 - $GLGSV,3,1,09,74,09,307,20,82,61,061,14,73,68,322,14,80,55,115,13*6E

6:06:35:390 Nachm. 03/26/17 - $GLGSV,3,2,09,83,47,178,10,72,16,310,17,65,10,358,,81,16,030,*6D

6:06:35:391 Nachm. 03/26/17 - $GLGSV,3,3,09,71,02,265,*59

6:06:35:392 Nachm. 03/26/17 - $GPGGA,160632.0,5208.415628,N,01138.726308,E,1,05,1.5,65.4,M,45.0,M,,*6B

6:06:35:394 Nachm. 03/26/17 - $GNGNS,160632.0,5208.415628,N,01138.726308,E,AA,07,1.5,65.4,45.0,,*5D

6:06:35:403 Nachm. 03/26/17 - $GPVTG,53.3,T,52.8,M,0.0,N,0.0,K,A*29

6:06:35:403 Nachm. 03/26/17 - $GPRMC,160632.0,A,5208.415628,N,01138.726308,E,0.0,53.3,260317,0.4,E,A*35

6:06:35:407 Nachm. 03/26/17 - $GPGSA,A,2,14,24,25,29,32,,,,,,,,1.8,1.5,0.9*39

6:06:35:407 Nachm. 03/26/17 - $GNGSA,A,2,14,24,25,29,32,,,,,,,,1.8,1.5,0.9*27

6:06:35:407 Nachm. 03/26/17 - $GNGSA,A,2,73,82,,,,,,,,,,,1.8,1.5,0.9*27

6:06:36:385 Nachm. 03/26/17 - $GPGSV,3,1,11,14,31,285,30,24,25,150,15,25,72,289,31,29,37,210,31*7C

6:06:36:386 Nachm. 03/26/17 - $GPGSV,3,2,11,32,28,255,36,02,36,094,,03,01,345,,06,23,047,*7A

6:06:36:386 Nachm. 03/26/17 - $GPGSV,3,3,11,12,57,078,,19,00,045,,31,25,307,*4F

6:06:36:389 Nachm. 03/26/17 - $GLGSV,3,1,09,74,09,307,17,82,61,061,14,73,68,322,14,80,55,115,13*6A

6:06:36:389 Nachm. 03/26/17 - $GLGSV,3,2,09,83,47,178,10,72,16,310,16,65,10,358,,81,16,030,*6C

6:06:36:389 Nachm. 03/26/17 - $GLGSV,3,3,09,71,02,265,*59

6:06:36:389 Nachm. 03/26/17 - $GPGGA,160633.0,5208.415629,N,01138.726309,E,1,05,1.5,65.4,M,45.0,M,,*6A

6:06:36:391 Nachm. 03/26/17 - $GNGNS,160633.0,5208.415629,N,01138.726309,E,AA,07,1.5,65.4,45.0,,*5C

6:06:36:397 Nachm. 03/26/17 - $GPVTG,53.3,T,52.8,M,0.0,N,0.0,K,A*29

6:06:36:397 Nachm. 03/26/17 - $GPRMC,160633.0,A,5208.415629,N,01138.726309,E,0.0,53.3,260317,0.4,E,A*34

6:06:36:398 Nachm. 03/26/17 - $GPGSA,A,2,14,24,25,29,32,,,,,,,,1.8,1.5,0.9*39

6:06:36:398 Nachm. 03/26/17 - $GNGSA,A,2,14,24,25,29,32,,,,,,,,1.8,1.5,0.9*27

6:06:36:398 Nachm. 03/26/17 - $GNGSA,A,2,73,82,,,,,,,,,,,1.8,1.5,0.9*27

6:06:37:384 Nachm. 03/26/17 - $GPGSV,3,1,11,14,31,285,29,24,25,150,15,25,72,289,33,29,37,210,32*75

6:06:37:385 Nachm. 03/26/17 - $GPGSV,3,2,11,32,28,255,37,02,36,094,,03,01,345,,06,23,047,*7B

6:06:37:386 Nachm. 03/26/17 - $GPGSV,3,3,11,12,57,078,,19,00,045,,31,25,307,*4F

6:06:37:387 Nachm. 03/26/17 - $GLGSV,3,1,09,74,09,307,19,82,61,061,14,73,68,322,14,80,55,115,13*64

6:06:37:391 Nachm. 03/26/17 - $GLGSV,3,2,09,83,47,178,12,72,16,310,16,65,10,358,,81,16,030,*6E

6:06:37:393 Nachm. 03/26/17 - $GLGSV,3,3,09,71,02,265,*59

6:06:37:394 Nachm. 03/26/17 - $GPGGA,160634.0,5208.415629,N,01138.726306,E,1,05,1.7,65.4,M,45.0,M,,*60

6:06:37:401 Nachm. 03/26/17 - $GNGNS,160634.0,5208.415629,N,01138.726306,E,AA,06,1.7,65.4,45.0,,*57

6:06:37:406 Nachm. 03/26/17 - $GPVTG,53.3,T,52.8,M,0.0,N,0.0,K,A*29

6:06:37:407 Nachm. 03/26/17 - $GPRMC,160634.0,A,5208.415629,N,01138.726306,E,0.0,53.3,260317,0.4,E,A*3C

6:06:37:408 Nachm. 03/26/17 - $GPGSA,A,2,14,24,25,29,32,,,,,,,,2.0,1.7,0.9*30

6:06:37:408 Nachm. 03/26/17 - $GNGSA,A,2,14,24,25,29,32,,,,,,,,2.0,1.7,0.9*2E

6:06:37:408 Nachm. 03/26/17 - $GNGSA,A,2,73,,,,,,,,,,,,2.0,1.7,0.9*24

6:06:38:385 Nachm. 03/26/17 - $GPGSV,3,1,11,14,31,285,29,24,25,150,15,25,72,289,33,29,37,210,33*74

6:06:38:386 Nachm. 03/26/17 - $GPGSV,3,2,11,32,28,255,29,02,36,094,,03,01,345,,06,23,047,*74

6:06:38:387 Nachm. 03/26/17 - $GPGSV,3,3,11,12,57,078,,19,00,045,,31,25,307,*4F

6:06:38:393 Nachm. 03/26/17 - $GLGSV,3,1,09,74,09,307,18,82,61,061,14,73,68,322,11,80,55,115,13*60

6:06:38:411 Nachm. 03/26/17 - $GLGSV,3,2,09,83,47,178,25,72,16,310,16,65,10,358,,81,16,030,*6A

6:06:38:419 Nachm. 03/26/17 - $GLGSV,3,3,09,71,02,265,*59

6:06:38:419 Nachm. 03/26/17 - $GPGGA,160635.0,5208.415629,N,01138.726295,E,1,05,1.7,65.4,M,45.0,M,,*6A

6:06:38:420 Nachm. 03/26/17 - $GNGNS,160635.0,5208.415629,N,01138.726295,E,AA,06,1.7,65.4,45.0,,*5D

6:06:38:420 Nachm. 03/26/17 - $GPVTG,53.3,T,52.8,M,0.0,N,0.0,K,A*29

6:06:38:421 Nachm. 03/26/17 - $GPRMC,160635.0,A,5208.415629,N,01138.726295,E,0.0,53.3,260317,0.4,E,A*36

6:06:38:421 Nachm. 03/26/17 - $GPGSA,A,2,14,24,25,29,32,,,,,,,,2.0,1.7,0.9*30

6:06:38:422 Nachm. 03/26/17 - $GNGSA,A,2,14,24,25,29,32,,,,,,,,2.0,1.7,0.9*2E

6:06:38:428 Nachm. 03/26/17 - $GNGSA,A,2,73,,,,,,,,,,,,2.0,1.7,0.9*24

6:06:39:383 Nachm. 03/26/17 - $GPGSV,3,1,11,12,57,078,16,24,25,150,15,25,72,289,34,29,37,210,32*78

6:06:39:387 Nachm. 03/26/17 - $GPGSV,3,2,11,31,25,307,21,32,28,255,27,02,36,094,,03,01,345,*7C

6:06:39:392 Nachm. 03/26/17 - $GPGSV,3,3,11,06,23,047,,14,31,285,,19,00,045,*4C

6:06:39:431 Nachm. 03/26/17 - $GLGSV,3,1,09,74,09,307,18,82,61,061,14,73,68,322,11,83,47,178,24*6F

6:06:39:431 Nachm. 03/26/17 - $GLGSV,3,2,09,72,16,310,16,,55,115,,65,10,358,,81,16,030,*6E

6:06:39:431 Nachm. 03/26/17 - $GLGSV,3,3,09,71,02,265,*59

6:06:39:432 Nachm. 03/26/17 - $GPGGA,160636.0,5208.415629,N,01138.726280,E,1,07,1.2,65.5,M,45.0,M,,*6B

6:06:39:432 Nachm. 03/26/17 - $GNGNS,160636.0,5208.415629,N,01138.726280,E,AA,08,1.2,65.5,45.0,,*50

6:06:39:432 Nachm. 03/26/17 - $GPVTG,53.3,T,52.8,M,0.0,N,0.0,K,A*29

6:06:39:432 Nachm. 03/26/17 - $GPRMC,160636.0,A,5208.415629,N,01138.726280,E,0.0,53.3,260317,0.4,E,A*31

6:06:39:432 Nachm. 03/26/17 - $GPGSA,A,2,12,14,24,25,29,31,32,,,,,,1.5,1.2,0.9*32

6:06:39:433 Nachm. 03/26/17 - $GNGSA,A,2,12,14,24,25,29,31,32,,,,,,1.5,1.2,0.9*2C

6:06:39:433 Nachm. 03/26/17 - $GNGSA,A,2,73,,,,,,,,,,,,1.5,1.2,0.9*27

6:06:40:383 Nachm. 03/26/17 - $GPGSV,3,1,11,12,57,078,16,14,31,285,22,24,25,150,15,25,72,289,33*7A

6:06:40:384 Nachm. 03/26/17 - $GPGSV,3,2,11,29,37,210,28,31,25,307,18,32,28,255,36,02,36,094,*70

6:06:40:385 Nachm. 03/26/17 - $GPGSV,3,3,11,03,01,345,,06,23,047,,19,00,045,*44

6:06:40:389 Nachm. 03/26/17 - $GLGSV,3,1,09,74,09,307,20,82,61,061,14,73,68,322,15,83,47,178,24*60

6:06:40:389 Nachm. 03/26/17 - $GLGSV,3,2,09,72,16,310,15,80,55,115,,65,10,358,,81,16,030,*65

6:06:40:390 Nachm. 03/26/17 - $GLGSV,3,3,09,71,02,265,*59

6:06:40:390 Nachm. 03/26/17 - $GPGGA,160637.0,5208.415627,N,01138.726276,E,1,06,1.4,65.5,M,45.0,M,,*6A

6:06:40:392 Nachm. 03/26/17 - $GNGNS,160637.0,5208.415627,N,01138.726276,E,AA,07,1.4,65.5,45.0,,*5F

6:06:40:392 Nachm. 03/26/17 - $GPVTG,53.3,T,52.8,M,0.0,N,0.0,K,A*29

6:06:40:392 Nachm. 03/26/17 - $GPRMC,160637.0,A,5208.415627,N,01138.726276,E,0.0,53.3,260317,0.4,E,A*37

6:06:40:393 Nachm. 03/26/17 - $GPGSA,A,2,12,14,25,29,31,32,,,,,,,1.7,1.4,0.9*30

6:06:40:393 Nachm. 03/26/17 - $GNGSA,A,2,12,14,25,29,31,32,,,,,,,1.7,1.4,0.9*2E

6:06:40:398 Nachm. 03/26/17 - $GNGSA,A,2,73,,,,,,,,,,,,1.7,1.4,0.9*23

6:06:41:384 Nachm. 03/26/17 - $GPGSV,3,1,11,12,57,078,16,14,31,285,28,24,25,150,15,25,72,289,33*70

6:06:41:385 Nachm. 03/26/17 - $GPGSV,3,2,11,29,37,210,27,31,25,307,17,32,28,255,37,02,36,094,*71

6:06:41:386 Nachm. 03/26/17 - $GPGSV,3,3,11,03,01,345,,06,23,047,,19,00,045,*44

6:06:41:390 Nachm. 03/26/17 - $GLGSV,3,1,09,74,09,307,19,82,61,061,14,73,68,322,17,83,47,178,15*6A

6:06:41:393 Nachm. 03/26/17 - $GLGSV,3,2,09,72,16,310,19,80,55,115,,65,10,358,,81,16,030,*69

6:06:41:394 Nachm. 03/26/17 - $GLGSV,3,3,09,71,02,265,*59

6:06:41:396 Nachm. 03/26/17 - $GPGGA,160638.0,5208.415623,N,01138.726274,E,1,06,1.4,65.5,M,45.0,M,,*63

6:06:41:404 Nachm. 03/26/17 - $GNGNS,160638.0,5208.415623,N,01138.726274,E,AA,07,1.4,65.5,45.0,,*56

6:06:41:409 Nachm. 03/26/17 - $GPVTG,53.3,T,52.8,M,0.0,N,0.0,K,A*29

6:06:41:412 Nachm. 03/26/17 - $GPRMC,160638.0,A,5208.415623,N,01138.726274,E,0.0,53.3,260317,0.4,E,A*3E

6:06:41:413 Nachm. 03/26/17 - $GPGSA,A,2,12,14,25,29,31,32,,,,,,,1.7,1.4,0.9*30

6:06:41:413 Nachm. 03/26/17 - $GNGSA,A,2,12,14,25,29,31,32,,,,,,,1.7,1.4,0.9*2E

6:06:41:414 Nachm. 03/26/17 - $GNGSA,A,2,73,,,,,,,,,,,,1.7,1.4,0.9*23

6:06:42:383 Nachm. 03/26/17 - $GPGSV,3,1,11,12,57,078,16,14,31,285,27,24,25,150,15,25,72,289,33*7F

6:06:42:385 Nachm. 03/26/17 - $GPGSV,3,2,11,29,37,210,28,32,28,255,37,02,36,094,,03,01,345,*79

6:06:42:386 Nachm. 03/26/17 - $GPGSV,3,3,11,06,23,047,,19,00,045,,31,25,307,*45

6:06:42:390 Nachm. 03/26/17 - $GLGSV,3,1,09,74,09,307,19,82,61,061,10,73,68,322,18,83,47,178,17*63

6:06:42:391 Nachm. 03/26/17 - $GLGSV,3,2,09,72,16,310,16,80,55,115,,65,10,358,,81,16,030,*66

6:06:42:392 Nachm. 03/26/17 - $GLGSV,3,3,09,71,02,265,*59

6:06:42:393 Nachm. 03/26/17 - $GPGGA,160639.0,5208.415621,N,01138.726270,E,1,06,1.4,65.5,M,45.0,M,,*64

6:06:42:396 Nachm. 03/26/17 - $GNGNS,160639.0,5208.415621,N,01138.726270,E,AA,07,1.4,65.5,45.0,,*51

6:06:42:401 Nachm. 03/26/17 - $GPVTG,53.3,T,52.8,M,0.0,N,0.0,K,A*29

6:06:42:408 Nachm. 03/26/17 - $GPRMC,160639.0,A,5208.415621,N,01138.726270,E,0.0,53.3,260317,0.4,E,A*39

6:06:42:408 Nachm. 03/26/17 - $GPGSA,A,2,12,14,25,29,31,32,,,,,,,1.7,1.4,0.9*30

6:06:42:408 Nachm. 03/26/17 - $GNGSA,A,2,12,14,25,29,31,32,,,,,,,1.7,1.4,0.9*2E

6:06:42:409 Nachm. 03/26/17 - $GNGSA,A,2,73,,,,,,,,,,,,1.7,1.4,0.9*23

6:06:43:384 Nachm. 03/26/17 - $GPGSV,3,1,11,12,57,078,16,14,31,285,29,24,25,150,15,25,72,289,33*71

6:06:43:385 Nachm. 03/26/17 - $GPGSV,3,2,11,29,37,210,25,32,28,255,35,02,36,094,,03,01,345,*76

6:06:43:386 Nachm. 03/26/17 - $GPGSV,3,3,11,06,23,047,,19,00,045,,31,25,307,*45

6:06:43:386 Nachm. 03/26/17 - $GLGSV,3,1,09,74,09,307,19,82,61,061,17,73,68,322,21,83,47,178,17*6E

6:06:43:386 Nachm. 03/26/17 - $GLGSV,3,2,09,72,16,310,19,80,55,115,,65,10,358,,81,16,030,*69

6:06:43:387 Nachm. 03/26/17 - $GLGSV,3,3,09,71,02,265,*59

6:06:43:387 Nachm. 03/26/17 - $GPGGA,160640.0,5208.415597,N,01138.726148,E,1,06,1.3,65.6,M,45.0,M,,*68

6:06:43:389 Nachm. 03/26/17 - $GNGNS,160640.0,5208.415597,N,01138.726148,E,AA,08,1.3,65.6,45.0,,*52

6:06:43:390 Nachm. 03/26/17 - $GPVTG,53.3,T,52.8,M,0.0,N,0.0,K,A*29

6:06:43:390 Nachm. 03/26/17 - $GPRMC,160640.0,A,5208.415597,N,01138.726148,E,0.0,53.3,260317,0.4,E,A*31

6:06:43:390 Nachm. 03/26/17 - $GPGSA,A,2,12,14,25,29,31,32,,,,,,,1.6,1.3,0.9*36

6:06:43:390 Nachm. 03/26/17 - $GNGSA,A,2,12,14,25,29,31,32,,,,,,,1.6,1.3,0.9*28

6:06:43:394 Nachm. 03/26/17 - $GNGSA,A,2,73,82,,,,,,,,,,,1.6,1.3,0.9*2F


