5:35:27:385 Nachm. 03/26/17 - $GPGSV,3,1,12,02,29,108,15,06,26,061,19,12,70,066,21,14,30,300,20*71

5:35:27:385 Nachm. 03/26/17 - $GPGSV,3,2,12,19,12,043,15,24,39,147,16,25,58,274,25,29,22,206,14*7C

5:35:27:386 Nachm. 03/26/17 - $GPGSV,3,3,12,31,12,306,19,32,34,271,24,03,02,357,,22,,,*42

5:35:27:387 Nachm. 03/26/17 - $GLGSV,3,1,09,82,66,102,19,73,52,312,25,80,69,090,21,79,11,113,20*69

5:35:27:387 Nachm. 03/26/17 - $GLGSV,3,2,09,83,29,178,19,81,30,035,17,71,14,275,16,72,18,326,23*6F

5:35:27:388 Nachm. 03/26/17 - $GLGSV,3,3,09,65,03,009,*55

5:35:27:388 Nachm. 03/26/17 - $GPGGA,153524.0,5208.401542,N,01138.452404,E,1,08,1.0,60.1,M,45.0,M,,*66

5:35:27:390 Nachm. 03/26/17 - $GNGNS,153524.0,5208.401542,N,01138.452404,E,AA,09,1.0,60.1,45.0,,*53

5:35:27:390 Nachm. 03/26/17 - $GPVTG,118.0,T,117.6,M,0.0,N,0.0,K,A*2A

5:35:27:391 Nachm. 03/26/17 - $GPRMC,153524.0,A,5208.401542,N,01138.452404,E,0.0,118.0,260317,0.4,E,A*0D

5:35:27:392 Nachm. 03/26/17 - $GPGSA,A,2,02,06,12,14,19,24,25,32,,,,,1.4,1.0,0.9*34

5:35:27:392 Nachm. 03/26/17 - $GNGSA,A,2,02,06,12,14,19,24,25,32,,,,,1.4,1.0,0.9*2A

5:35:27:393 Nachm. 03/26/17 - $GNGSA,A,2,73,,,,,,,,,,,,1.4,1.0,0.9*24

5:35:28:388 Nachm. 03/26/17 - $GPGSV,3,1,12,02,29,108,15,06,26,061,19,12,70,066,17,14,30,300,18*7F

5:35:28:389 Nachm. 03/26/17 - $GPGSV,3,2,12,19,12,043,15,24,39,147,16,25,58,274,23,29,22,206,14*7A

5:35:28:392 Nachm. 03/26/17 - $GPGSV,3,3,12,31,12,306,16,32,34,271,23,03,02,357,,22,,,*4A

5:35:28:393 Nachm. 03/26/17 - $GLGSV,3,1,09,82,66,102,23,73,52,312,23,80,69,090,14,79,11,113,19*6A

5:35:28:407 Nachm. 03/26/17 - $GLGSV,3,2,09,83,29,178,15,81,30,035,16,71,14,275,16,72,18,326,26*67

5:35:28:409 Nachm. 03/26/17 - $GLGSV,3,3,09,65,03,009,*55

5:35:28:410 Nachm. 03/26/17 - $GPGGA,153525.0,5208.401530,N,01138.452396,E,1,08,1.0,60.2,M,45.0,M,,*6D

5:35:28:411 Nachm. 03/26/17 - $GNGNS,153525.0,5208.401530,N,01138.452396,E,AA,09,1.0,60.2,45.0,,*58

5:35:28:412 Nachm. 03/26/17 - $GPVTG,118.0,T,117.6,M,0.0,N,0.0,K,A*2A

5:35:28:414 Nachm. 03/26/17 - $GPRMC,153525.0,A,5208.401530,N,01138.452396,E,0.0,118.0,260317,0.4,E,A*05

5:35:28:414 Nachm. 03/26/17 - $GPGSA,A,2,02,06,12,14,19,24,25,32,,,,,1.4,1.0,0.9*34

5:35:28:414 Nachm. 03/26/17 - $GNGSA,A,2,02,06,12,14,19,24,25,32,,,,,1.4,1.0,0.9*2A

5:35:28:415 Nachm. 03/26/17 - $GNGSA,A,2,73,,,,,,,,,,,,1.4,1.0,0.9*24

5:35:29:387 Nachm. 03/26/17 - $GPGSV,3,1,12,02,29,108,15,06,26,061,19,12,70,066,23,14,30,300,17*77

5:35:29:387 Nachm. 03/26/17 - $GPGSV,3,2,12,19,12,043,15,24,39,147,16,25,58,274,27,29,22,206,14*7E

5:35:29:388 Nachm. 03/26/17 - $GPGSV,3,3,12,31,12,306,23,32,34,271,29,03,02,357,,22,,,*46

5:35:29:389 Nachm. 03/26/17 - $GLGSV,3,1,09,82,66,102,23,73,52,312,23,80,69,090,14,79,11,113,20*60

5:35:29:389 Nachm. 03/26/17 - $GLGSV,3,2,09,83,29,178,16,81,30,035,16,71,14,275,16,72,18,326,28*6A

5:35:29:390 Nachm. 03/26/17 - $GLGSV,3,3,09,65,03,009,*55

5:35:29:395 Nachm. 03/26/17 - $GPGGA,153526.0,5208.401409,N,01138.452419,E,1,08,1.0,60.0,M,45.0,M,,*67

5:35:29:416 Nachm. 03/26/17 - $GNGNS,153526.0,5208.401409,N,01138.452419,E,AA,09,1.0,60.0,45.0,,*52

5:35:29:417 Nachm. 03/26/17 - $GPVTG,118.0,T,117.6,M,0.0,N,0.0,K,A*2A

5:35:29:417 Nachm. 03/26/17 - $GPRMC,153526.0,A,5208.401409,N,01138.452419,E,0.0,118.0,260317,0.4,E,A*0D

5:35:29:417 Nachm. 03/26/17 - $GPGSA,A,2,02,06,12,14,19,24,25,32,,,,,1.4,1.0,0.9*34

5:35:29:417 Nachm. 03/26/17 - $GNGSA,A,2,02,06,12,14,19,24,25,32,,,,,1.4,1.0,0.9*2A

5:35:29:417 Nachm. 03/26/17 - $GNGSA,A,2,73,,,,,,,,,,,,1.4,1.0,0.9*24

5:35:30:387 Nachm. 03/26/17 - $GPGSV,3,1,12,02,29,108,15,06,26,061,19,12,70,066,25,14,30,300,18*7E

5:35:30:388 Nachm. 03/26/17 - $GPGSV,3,2,12,19,12,043,15,24,39,147,14,25,58,274,28,29,22,206,14*73

5:35:30:389 Nachm. 03/26/17 - $GPGSV,3,3,12,31,12,306,23,32,34,271,29,03,02,357,,22,,,*46

5:35:30:396 Nachm. 03/26/17 - $GLGSV,3,1,09,82,66,102,17,73,52,312,23,80,69,090,14,79,11,113,21*66

5:35:30:397 Nachm. 03/26/17 - $GLGSV,3,2,09,83,29,178,19,81,30,035,16,71,14,275,13,72,18,326,27*6F

5:35:30:398 Nachm. 03/26/17 - $GLGSV,3,3,09,65,03,009,*55

5:35:30:398 Nachm. 03/26/17 - $GPGGA,153527.0,5208.401369,N,01138.452414,E,1,07,1.1,60.0,M,45.0,M,,*64

5:35:30:405 Nachm. 03/26/17 - $GNGNS,153527.0,5208.401369,N,01138.452414,E,AA,08,1.1,60.0,45.0,,*5F

5:35:30:407 Nachm. 03/26/17 - $GPVTG,118.0,T,117.6,M,0.0,N,0.0,K,A*2A

5:35:30:407 Nachm. 03/26/17 - $GPRMC,153527.0,A,5208.401369,N,01138.452414,E,0.0,118.0,260317,0.4,E,A*00

5:35:30:407 Nachm. 03/26/17 - $GPGSA,A,2,06,12,14,19,24,25,32,,,,,,1.4,1.1,0.9*37

5:35:30:407 Nachm. 03/26/17 - $GNGSA,A,2,06,12,14,19,24,25,32,,,,,,1.4,1.1,0.9*29

5:35:30:408 Nachm. 03/26/17 - $GNGSA,A,2,73,,,,,,,,,,,,1.4,1.1,0.9*25

5:35:31:386 Nachm. 03/26/17 - $GPGSV,3,1,12,02,29,108,15,06,26,061,19,12,70,066,25,14,30,300,20*75

5:35:31:388 Nachm. 03/26/17 - $GPGSV,3,2,12,19,12,043,15,24,39,147,14,25,58,274,27,29,22,206,14*7C

5:35:31:389 Nachm. 03/26/17 - $GPGSV,3,3,12,31,12,306,23,32,34,271,29,03,02,357,,22,,,*46

5:35:31:389 Nachm. 03/26/17 - $GLGSV,3,1,09,82,66,102,17,73,52,312,23,80,69,090,18,79,11,113,22*69

5:35:31:389 Nachm. 03/26/17 - $GLGSV,3,2,09,83,29,178,16,81,30,035,15,71,14,275,17,72,18,326,27*67

5:35:31:391 Nachm. 03/26/17 - $GLGSV,3,3,09,65,03,009,*55

5:35:31:392 Nachm. 03/26/17 - $GPGGA,153528.0,5208.401341,N,01138.452416,E,1,07,1.1,60.0,M,45.0,M,,*63

5:35:31:397 Nachm. 03/26/17 - $GNGNS,153528.0,5208.401341,N,01138.452416,E,AA,08,1.1,60.0,45.0,,*58

5:35:31:399 Nachm. 03/26/17 - $GPVTG,118.0,T,117.6,M,0.0,N,0.0,K,A*2A

5:35:31:399 Nachm. 03/26/17 - $GPRMC,153528.0,A,5208.401341,N,01138.452416,E,0.0,118.0,260317,0.4,E,A*07

5:35:31:401 Nachm. 03/26/17 - $GPGSA,A,2,06,12,14,19,24,25,32,,,,,,1.4,1.1,0.9*37

5:35:31:401 Nachm. 03/26/17 - $GNGSA,A,2,06,12,14,19,24,25,32,,,,,,1.4,1.1,0.9*29

5:35:31:401 Nachm. 03/26/17 - $GNGSA,A,2,73,,,,,,,,,,,,1.4,1.1,0.9*25

5:35:32:387 Nachm. 03/26/17 - $GPGSV,3,1,12,02,29,108,15,06,26,061,19,12,70,066,19,14,30,300,21*7B

5:35:32:388 Nachm. 03/26/17 - $GPGSV,3,2,12,19,12,043,15,24,39,147,14,25,58,274,22,29,22,206,14*79

5:35:32:389 Nachm. 03/26/17 - $GPGSV,3,3,12,31,12,306,19,32,34,271,27,03,02,357,,22,,,*41

5:35:32:391 Nachm. 03/26/17 - $GLGSV,3,1,09,82,66,102,16,73,52,312,23,80,69,090,18,79,11,113,23*69

5:35:32:393 Nachm. 03/26/17 - $GLGSV,3,2,09,83,29,178,17,81,30,035,18,71,14,275,18,72,18,326,27*64

5:35:32:394 Nachm. 03/26/17 - $GLGSV,3,3,09,65,03,009,*55

5:35:32:394 Nachm. 03/26/17 - $GPGGA,153529.0,5208.401320,N,01138.452413,E,1,06,1.2,60.0,M,45.0,M,,*62

5:35:32:400 Nachm. 03/26/17 - $GNGNS,153529.0,5208.401320,N,01138.452413,E,AA,07,1.2,60.0,45.0,,*57

5:35:32:401 Nachm. 03/26/17 - $GPVTG,118.0,T,117.6,M,0.0,N,0.0,K,A*2A

5:35:32:402 Nachm. 03/26/17 - $GPRMC,153529.0,A,5208.401320,N,01138.452413,E,0.0,118.0,260317,0.4,E,A*04

5:35:32:402 Nachm. 03/26/17 - $GPGSA,A,2,12,14,19,24,25,32,,,,,,,1.5,1.2,0.9*33

5:35:32:403 Nachm. 03/26/17 - $GNGSA,A,2,12,14,19,24,25,32,,,,,,,1.5,1.2,0.9*2D

5:35:32:410 Nachm. 03/26/17 - $GNGSA,A,2,73,,,,,,,,,,,,1.5,1.2,0.9*27

5:35:33:387 Nachm. 03/26/17 - $GPGSV,3,1,12,02,29,108,15,06,26,061,19,12,70,066,25,14,30,300,22*77

5:35:33:388 Nachm. 03/26/17 - $GPGSV,3,2,12,19,12,043,14,24,39,147,17,25,58,274,25,29,22,206,14*7C

5:35:33:390 Nachm. 03/26/17 - $GPGSV,3,3,12,31,12,306,24,32,34,271,28,03,02,357,,22,,,*40

5:35:33:394 Nachm. 03/26/17 - $GLGSV,3,1,09,82,66,102,17,73,52,312,17,80,69,090,18,79,11,113,24*68

5:35:33:395 Nachm. 03/26/17 - $GLGSV,3,2,09,83,29,178,17,81,30,035,18,71,14,275,18,72,18,326,27*64

5:35:33:396 Nachm. 03/26/17 - $GLGSV,3,3,09,65,03,009,*55

5:35:33:399 Nachm. 03/26/17 - $GPGGA,153530.0,5208.401318,N,01138.452409,E,1,06,1.2,60.0,M,45.0,M,,*6A

5:35:33:402 Nachm. 03/26/17 - $GNGNS,153530.0,5208.401318,N,01138.452409,E,AA,07,1.2,60.0,45.0,,*5F

5:35:33:402 Nachm. 03/26/17 - $GPVTG,118.0,T,117.6,M,0.0,N,0.0,K,A*2A

5:35:33:407 Nachm. 03/26/17 - $GPRMC,153530.0,A,5208.401318,N,01138.452409,E,0.0,118.0,260317,0.4,E,A*0C

5:35:33:407 Nachm. 03/26/17 - $GPGSA,A,2,12,14,19,24,25,32,,,,,,,1.5,1.2,0.9*33

5:35:33:408 Nachm. 03/26/17 - $GNGSA,A,2,12,14,19,24,25,32,,,,,,,1.5,1.2,0.9*2D

5:35:33:408 Nachm. 03/26/17 - $GNGSA,A,2,73,,,,,,,,,,,,1.5,1.2,0.9*27

5:35:34:387 Nachm. 03/26/17 - $GPGSV,3,1,12,02,29,108,13,06,26,061,19,12,70,066,22,14,30,300,23*77

5:35:34:388 Nachm. 03/26/17 - $GPGSV,3,2,12,19,12,043,14,24,39,147,17,25,58,274,24,29,22,206,14*7D

5:35:34:396 Nachm. 03/26/17 - $GPGSV,3,3,12,31,12,306,25,32,34,271,29,03,02,357,,22,,,*40

5:35:34:398 Nachm. 03/26/17 - $GLGSV,3,1,09,82,66,102,18,73,52,312,23,80,69,090,18,79,11,113,25*61

5:35:34:400 Nachm. 03/26/17 - $GLGSV,3,2,09,83,29,178,16,81,30,035,17,71,14,275,16,72,18,326,27*64

5:35:34:401 Nachm. 03/26/17 - $GLGSV,3,3,09,65,03,009,*55

5:35:34:409 Nachm. 03/26/17 - $GPGGA,153531.0,5208.401308,N,01138.452409,E,1,07,1.1,60.0,M,45.0,M,,*68

5:35:34:410 Nachm. 03/26/17 - $GNGNS,153531.0,5208.401308,N,01138.452409,E,AA,08,1.1,60.0,45.0,,*53

5:35:34:412 Nachm. 03/26/17 - $GPVTG,118.0,T,117.6,M,0.0,N,0.0,K,A*2A

5:35:34:414 Nachm. 03/26/17 - $GPRMC,153531.0,A,5208.401308,N,01138.452409,E,0.0,118.0,260317,0.4,E,A*0C

5:35:34:415 Nachm. 03/26/17 - $GPGSA,A,2,02,12,14,19,24,25,32,,,,,,1.4,1.1,0.9*33

5:35:34:417 Nachm. 03/26/17 - $GNGSA,A,2,02,12,14,19,24,25,32,,,,,,1.4,1.1,0.9*2D

5:35:34:427 Nachm. 03/26/17 - $GNGSA,A,2,73,,,,,,,,,,,,1.4,1.1,0.9*25

5:35:35:386 Nachm. 03/26/17 - $GPGSV,3,1,12,02,29,108,13,06,26,061,13,12,70,066,20,14,30,300,24*78

5:35:35:388 Nachm. 03/26/17 - $GPGSV,3,2,12,19,12,043,14,24,39,147,17,25,58,274,23,29,22,206,14*7A

5:35:35:388 Nachm. 03/26/17 - $GPGSV,3,3,12,31,12,306,20,32,34,271,27,03,02,357,,22,,,*4B

5:35:35:389 Nachm. 03/26/17 - $GLGSV,3,1,09,82,66,102,16,73,52,312,21,80,69,090,18,79,11,113,24*6C

5:35:35:395 Nachm. 03/26/17 - $GLGSV,3,2,09,83,29,178,17,81,30,035,19,71,14,275,16,72,18,326,25*69

5:35:35:395 Nachm. 03/26/17 - $GLGSV,3,3,09,65,03,009,*55

5:35:35:406 Nachm. 03/26/17 - $GPGGA,153532.0,5208.401306,N,01138.452402,E,1,08,1.0,60.0,M,45.0,M,,*60

5:35:35:407 Nachm. 03/26/17 - $GNGNS,153532.0,5208.401306,N,01138.452402,E,AA,09,1.0,60.0,45.0,,*55

5:35:35:408 Nachm. 03/26/17 - $GPVTG,118.0,T,117.6,M,0.0,N,0.0,K,A*2A

5:35:35:408 Nachm. 03/26/17 - $GPRMC,153532.0,A,5208.401306,N,01138.452402,E,0.0,118.0,260317,0.4,E,A*0A

5:35:35:408 Nachm. 03/26/17 - $GPGSA,A,2,02,06,12,14,19,24,25,32,,,,,1.4,1.0,0.9*34

5:35:35:409 Nachm. 03/26/17 - $GNGSA,A,2,02,06,12,14,19,24,25,32,,,,,1.4,1.0,0.9*2A

5:35:35:409 Nachm. 03/26/17 - $GNGSA,A,2,73,,,,,,,,,,,,1.4,1.0,0.9*24

5:35:36:384 Nachm. 03/26/17 - $GPGSV,3,1,12,02,29,108,13,06,26,061,13,12,70,066,24,14,30,300,23*7B

5:35:36:386 Nachm. 03/26/17 - $GPGSV,3,2,12,19,12,043,14,24,39,147,17,25,58,274,27,29,22,206,14*7E

5:35:36:386 Nachm. 03/26/17 - $GPGSV,3,3,12,31,12,306,24,32,34,271,27,03,02,357,,22,,,*4F

5:35:36:391 Nachm. 03/26/17 - $GLGSV,3,1,09,82,66,102,16,73,52,312,21,80,69,090,18,79,11,113,23*6B

5:35:36:398 Nachm. 03/26/17 - $GLGSV,3,2,09,83,29,178,18,81,30,035,19,71,14,275,16,72,18,326,25*66

5:35:36:400 Nachm. 03/26/17 - $GLGSV,3,3,09,65,03,009,*55

5:35:36:400 Nachm. 03/26/17 - $GPGGA,153533.0,5208.401302,N,01138.452408,E,1,08,1.0,60.0,M,45.0,M,,*6F

5:35:36:401 Nachm. 03/26/17 - $GNGNS,153533.0,5208.401302,N,01138.452408,E,AA,09,1.0,60.0,45.0,,*5A

5:35:36:402 Nachm. 03/26/17 - $GPVTG,118.0,T,117.6,M,0.0,N,0.0,K,A*2A

5:35:36:402 Nachm. 03/26/17 - $GPRMC,153533.0,A,5208.401302,N,01138.452408,E,0.0,118.0,260317,0.4,E,A*05

5:35:36:403 Nachm. 03/26/17 - $GPGSA,A,2,02,06,12,14,19,24,25,32,,,,,1.4,1.0,0.9*34

5:35:36:403 Nachm. 03/26/17 - $GNGSA,A,2,02,06,12,14,19,24,25,32,,,,,1.4,1.0,0.9*2A

5:35:36:404 Nachm. 03/26/17 - $GNGSA,A,2,73,,,,,,,,,,,,1.4,1.0,0.9*24

5:35:37:387 Nachm. 03/26/17 - $GPGSV,3,1,12,02,29,108,13,06,26,061,13,12,70,066,23,14,30,300,23*7C

5:35:37:388 Nachm. 03/26/17 - $GPGSV,3,2,12,19,12,043,14,24,39,147,17,25,58,274,27,29,22,206,14*7E

5:35:37:391 Nachm. 03/26/17 - $GPGSV,3,3,12,31,12,306,20,32,34,271,25,03,02,357,,22,,,*49

5:35:37:394 Nachm. 03/26/17 - $GLGSV,3,1,09,82,66,102,16,73,52,312,21,80,69,090,18,79,11,113,23*6B

5:35:37:395 Nachm. 03/26/17 - $GLGSV,3,2,09,83,29,178,20,81,30,035,20,71,14,275,16,72,18,326,26*64

5:35:37:396 Nachm. 03/26/17 - $GLGSV,3,3,09,65,03,009,*55

5:35:37:403 Nachm. 03/26/17 - $GPGGA,153534.0,5208.401282,N,01138.452421,E,1,08,1.0,60.0,M,45.0,M,,*6A

5:35:37:405 Nachm. 03/26/17 - $GNGNS,153534.0,5208.401282,N,01138.452421,E,AA,09,1.0,60.0,45.0,,*5F

5:35:37:407 Nachm. 03/26/17 - $GPVTG,118.0,T,117.6,M,0.0,N,0.0,K,A*2A

5:35:37:407 Nachm. 03/26/17 - $GPRMC,153534.0,A,5208.401282,N,01138.452421,E,0.0,118.0,260317,0.4,E,A*00

5:35:37:407 Nachm. 03/26/17 - $GPGSA,A,2,02,06,12,14,19,24,25,32,,,,,1.4,1.0,0.9*34

5:35:37:408 Nachm. 03/26/17 - $GNGSA,A,2,02,06,12,14,19,24,25,32,,,,,1.4,1.0,0.9*2A

5:35:37:408 Nachm. 03/26/17 - $GNGSA,A,2,73,,,,,,,,,,,,1.4,1.0,0.9*24

5:35:38:387 Nachm. 03/26/17 - $GPGSV,3,1,12,02,29,108,13,03,02,357,12,06,26,061,13,12,70,066,23*7B

5:35:38:389 Nachm. 03/26/17 - $GPGSV,3,2,12,14,30,300,25,19,12,043,14,24,39,147,17,25,58,274,22*73

5:35:38:393 Nachm. 03/26/17 - $GPGSV,3,3,12,29,22,206,14,31,12,306,24,32,34,271,20,22,,,*42

5:35:38:398 Nachm. 03/26/17 - $GLGSV,3,1,09,82,66,102,17,73,52,312,24,80,69,090,18,79,11,113,21*6D

5:35:38:399 Nachm. 03/26/17 - $GLGSV,3,2,09,83,29,178,17,81,30,035,21,71,14,275,16,72,18,326,23*64

5:35:38:409 Nachm. 03/26/17 - $GLGSV,3,3,09,65,03,009,*55

5:35:38:413 Nachm. 03/26/17 - $GPGGA,153535.0,5208.401278,N,01138.452415,E,1,08,1.0,60.0,M,45.0,M,,*69

5:35:38:414 Nachm. 03/26/17 - $GNGNS,153535.0,5208.401278,N,01138.452415,E,AA,09,1.0,60.0,45.0,,*5C

5:35:38:415 Nachm. 03/26/17 - $GPVTG,118.0,T,117.6,M,0.0,N,0.0,K,A*2A

5:35:38:416 Nachm. 03/26/17 - $GPRMC,153535.0,A,5208.401278,N,01138.452415,E,0.0,118.0,260317,0.4,E,A*03

5:35:38:417 Nachm. 03/26/17 - $GPGSA,A,2,02,06,12,14,19,24,25,32,,,,,1.4,1.0,0.9*34

5:35:38:417 Nachm. 03/26/17 - $GNGSA,A,2,02,06,12,14,19,24,25,32,,,,,1.4,1.0,0.9*2A

5:35:38:417 Nachm. 03/26/17 - $GNGSA,A,2,73,,,,,,,,,,,,1.4,1.0,0.9*24

5:35:39:385 Nachm. 03/26/17 - $GPGSV,3,1,12,02,29,108,13,03,02,357,13,06,26,061,13,12,70,066,23*7A

5:35:39:387 Nachm. 03/26/17 - $GPGSV,3,2,12,14,30,300,21,19,12,043,14,24,39,147,17,25,58,274,24*71

5:35:39:387 Nachm. 03/26/17 - $GPGSV,3,3,12,29,22,206,14,31,12,306,24,32,34,271,23,22,,,*41

5:35:39:389 Nachm. 03/26/17 - $GLGSV,3,1,09,82,66,102,17,73,52,312,18,80,69,090,18,79,11,113,24*67

5:35:39:389 Nachm. 03/26/17 - $GLGSV,3,2,09,83,29,178,19,81,30,035,22,71,14,275,16,72,18,326,25*6F

5:35:39:390 Nachm. 03/26/17 - $GLGSV,3,3,09,65,03,009,*55

5:35:39:390 Nachm. 03/26/17 - $GPGGA,153536.0,5208.401260,N,01138.452423,E,1,08,1.0,60.0,M,45.0,M,,*66

5:35:39:390 Nachm. 03/26/17 - $GNGNS,153536.0,5208.401260,N,01138.452423,E,AA,09,1.0,60.0,45.0,,*53

5:35:39:390 Nachm. 03/26/17 - $GPVTG,118.0,T,117.6,M,0.0,N,0.0,K,A*2A

5:35:39:390 Nachm. 03/26/17 - $GPRMC,153536.0,A,5208.401260,N,01138.452423,E,0.0,118.0,260317,0.4,E,A*0C

5:35:39:391 Nachm. 03/26/17 - $GPGSA,A,2,02,06,12,14,19,24,25,32,,,,,1.4,1.0,0.9*34

5:35:39:391 Nachm. 03/26/17 - $GNGSA,A,2,02,06,12,14,19,24,25,32,,,,,1.4,1.0,0.9*2A

5:35:39:391 Nachm. 03/26/17 - $GNGSA,A,2,73,,,,,,,,,,,,1.4,1.0,0.9*24

5:35:40:385 Nachm. 03/26/17 - $GPGSV,3,1,12,02,29,108,13,03,02,357,13,06,26,061,13,12,70,066,23*7A

5:35:40:386 Nachm. 03/26/17 - $GPGSV,3,2,12,14,30,300,22,19,12,043,14,24,39,147,17,25,58,274,27*71

5:35:40:387 Nachm. 03/26/17 - $GPGSV,3,3,12,29,22,206,14,31,12,306,17,32,34,271,22,22,,,*40

5:35:40:387 Nachm. 03/26/17 - $GLGSV,3,1,09,82,66,102,17,73,52,312,21,80,69,090,18,79,11,113,25*6C

5:35:40:387 Nachm. 03/26/17 - $GLGSV,3,2,09,83,29,178,19,81,30,035,23,71,14,275,17,72,18,326,25*6F

5:35:40:388 Nachm. 03/26/17 - $GLGSV,3,3,09,65,03,009,*55

5:35:40:389 Nachm. 03/26/17 - $GPGGA,153537.0,5208.401252,N,01138.452429,E,1,07,1.4,59.9,M,45.0,M,,*64

5:35:40:393 Nachm. 03/26/17 - $GNGNS,153537.0,5208.401252,N,01138.452429,E,AA,08,1.4,59.9,45.0,,*5F

5:35:40:393 Nachm. 03/26/17 - $GPVTG,118.0,T,117.6,M,0.0,N,0.0,K,A*2A

5:35:40:397 Nachm. 03/26/17 - $GPRMC,153537.0,A,5208.401252,N,01138.452429,E,0.0,118.0,260317,0.4,E,A*06

5:35:40:404 Nachm. 03/26/17 - $GPGSA,A,2,02,06,12,14,19,25,32,,,,,,1.7,1.4,0.9*35

5:35:40:406 Nachm. 03/26/17 - $GNGSA,A,2,02,06,12,14,19,25,32,,,,,,1.7,1.4,0.9*2B

5:35:40:412 Nachm. 03/26/17 - $GNGSA,A,2,73,,,,,,,,,,,,1.7,1.4,0.9*23

5:35:41:386 Nachm. 03/26/17 - $GPGSV,3,1,12,02,29,108,13,03,02,357,13,06,26,061,13,12,70,066,16*7C

5:35:41:387 Nachm. 03/26/17 - $GPGSV,3,2,12,14,30,300,24,19,12,043,14,24,39,147,17,25,58,274,29*79

5:35:41:387 Nachm. 03/26/17 - $GPGSV,3,3,12,29,22,206,14,31,12,306,18,32,34,271,24,22,,,*49

5:35:41:388 Nachm. 03/26/17 - $GLGSV,3,1,09,82,66,102,15,73,52,312,22,80,69,090,18,79,11,113,25*6D

5:35:41:389 Nachm. 03/26/17 - $GLGSV,3,2,09,83,29,178,16,81,30,035,22,71,14,275,18,72,18,326,24*6F

5:35:41:390 Nachm. 03/26/17 - $GLGSV,3,3,09,65,03,009,*55

5:35:41:390 Nachm. 03/26/17 - $GPGGA,153538.0,5208.401225,N,01138.452435,E,1,06,2.2,59.9,M,45.0,M,,*62

5:35:41:400 Nachm. 03/26/17 - $GNGNS,153538.0,5208.401225,N,01138.452435,E,AA,07,2.2,59.9,45.0,,*57

5:35:41:401 Nachm. 03/26/17 - $GPVTG,118.0,T,117.6,M,0.0,N,0.0,K,A*2A

5:35:41:402 Nachm. 03/26/17 - $GPRMC,153538.0,A,5208.401225,N,01138.452435,E,0.0,118.0,260317,0.4,E,A*04

5:35:41:403 Nachm. 03/26/17 - $GPGSA,A,2,06,12,14,19,25,32,,,,,,,2.4,2.2,0.9*32

5:35:41:403 Nachm. 03/26/17 - $GNGSA,A,2,06,12,14,19,25,32,,,,,,,2.4,2.2,0.9*2C

5:35:41:404 Nachm. 03/26/17 - $GNGSA,A,2,73,,,,,,,,,,,,2.4,2.2,0.9*26

5:35:42:386 Nachm. 03/26/17 - $GPGSV,3,1,12,02,29,108,13,03,02,357,13,06,26,061,13,12,70,066,20*79

5:35:42:389 Nachm. 03/26/17 - $GPGSV,3,2,12,14,30,300,23,19,12,043,14,24,39,147,17,25,58,274,30*76

5:35:42:392 Nachm. 03/26/17 - $GPGSV,3,3,12,29,22,206,14,31,12,306,19,32,34,271,25,22,,,*49

5:35:42:393 Nachm. 03/26/17 - $GLGSV,3,1,09,82,66,102,19,73,52,312,24,80,69,090,18,79,11,113,27*65

5:35:42:393 Nachm. 03/26/17 - $GLGSV,3,2,09,83,29,178,18,81,30,035,22,71,14,275,20,72,18,326,25*6B

5:35:42:394 Nachm. 03/26/17 - $GLGSV,3,3,09,65,03,009,*55

5:35:42:401 Nachm. 03/26/17 - $GPGGA,153539.0,5208.401208,N,01138.452441,E,1,04,3.0,59.9,M,45.0,M,,*6E

5:35:42:402 Nachm. 03/26/17 - $GNGNS,153539.0,5208.401208,N,01138.452441,E,AA,05,3.0,59.9,45.0,,*5B

5:35:42:402 Nachm. 03/26/17 - $GPVTG,118.0,T,117.6,M,0.0,N,0.0,K,A*2A

5:35:42:404 Nachm. 03/26/17 - $GPRMC,153539.0,A,5208.401208,N,01138.452441,E,0.0,118.0,260317,0.4,E,A*09

5:35:42:404 Nachm. 03/26/17 - $GPGSA,A,2,12,14,25,32,,,,,,,,,3.1,3.0,1.0*33

5:35:42:405 Nachm. 03/26/17 - $GNGSA,A,2,12,14,25,32,,,,,,,,,3.1,3.0,1.0*2D

5:35:42:406 Nachm. 03/26/17 - $GNGSA,A,2,73,,,,,,,,,,,,3.1,3.0,1.0*29

5:35:43:386 Nachm. 03/26/17 - $GPGSV,3,1,12,02,29,108,13,03,02,357,13,06,26,061,13,12,70,066,20*79

5:35:43:387 Nachm. 03/26/17 - $GPGSV,3,2,12,14,30,300,23,19,12,043,12,24,39,147,17,25,58,274,30*70

5:35:43:389 Nachm. 03/26/17 - $GPGSV,3,3,12,29,22,206,14,31,12,306,21,32,34,271,24,22,,,*43

5:35:43:400 Nachm. 03/26/17 - $GLGSV,3,1,09,82,66,102,19,73,52,312,23,80,69,090,10,79,11,113,26*6B

5:35:43:401 Nachm. 03/26/17 - $GLGSV,3,2,09,83,29,178,19,81,30,035,23,71,14,275,19,72,18,326,25*61

5:35:43:403 Nachm. 03/26/17 - $GLGSV,3,3,09,65,03,009,*55

5:35:43:404 Nachm. 03/26/17 - $GPGGA,153540.0,5208.401169,N,01138.452456,E,1,05,2.3,59.9,M,45.0,M,,*61

5:35:43:405 Nachm. 03/26/17 - $GNGNS,153540.0,5208.401169,N,01138.452456,E,AA,06,2.3,59.9,45.0,,*56

5:35:43:405 Nachm. 03/26/17 - $GPVTG,118.0,T,117.6,M,0.0,N,0.0,K,A*2A

5:35:43:406 Nachm. 03/26/17 - $GPRMC,153540.0,A,5208.401169,N,01138.452456,E,0.0,118.0,260317,0.4,E,A*05

5:35:43:407 Nachm. 03/26/17 - $GPGSA,A,2,12,14,19,25,32,,,,,,,,2.5,2.3,0.9*34

5:35:43:407 Nachm. 03/26/17 - $GNGSA,A,2,12,14,19,25,32,,,,,,,,2.5,2.3,0.9*2A

5:35:43:407 Nachm. 03/26/17 - $GNGSA,A,2,73,,,,,,,,,,,,2.5,2.3,0.9*26

5:35:44:387 Nachm. 03/26/17 - $GPGSV,3,1,12,02,29,108,13,03,02,357,13,06,26,061,13,12,70,066,20*79

5:35:44:387 Nachm. 03/26/17 - $GPGSV,3,2,12,14,30,300,23,19,12,043,12,24,39,147,12,25,58,274,28*7C

5:35:44:387 Nachm. 03/26/17 - $GPGSV,3,3,12,29,22,206,14,31,12,306,22,32,34,271,26,22,,,*42

5:35:44:390 Nachm. 03/26/17 - $GLGSV,3,1,09,82,66,102,19,73,52,312,23,80,69,090,10,79,11,113,26*6B

5:35:44:390 Nachm. 03/26/17 - $GLGSV,3,2,09,83,29,178,19,81,30,035,23,71,14,275,20,72,18,326,25*6B

5:35:44:391 Nachm. 03/26/17 - $GLGSV,3,3,09,65,03,009,*55

5:35:44:394 Nachm. 03/26/17 - $GPGGA,153541.0,5208.401166,N,01138.452455,E,1,06,1.2,59.9,M,45.0,M,,*6D

5:35:44:395 Nachm. 03/26/17 - $GNGNS,153541.0,5208.401166,N,01138.452455,E,AA,07,1.2,59.9,45.0,,*58

5:35:44:397 Nachm. 03/26/17 - $GPVTG,118.0,T,117.6,M,0.0,N,0.0,K,A*2A

5:35:44:398 Nachm. 03/26/17 - $GPRMC,153541.0,A,5208.401166,N,01138.452455,E,0.0,118.0,260317,0.4,E,A*08

5:35:44:398 Nachm. 03/26/17 - $GPGSA,A,2,12,14,19,24,25,32,,,,,,,1.5,1.2,0.9*33

5:35:44:399 Nachm. 03/26/17 - $GNGSA,A,2,12,14,19,24,25,32,,,,,,,1.5,1.2,0.9*2D

5:35:44:399 Nachm. 03/26/17 - $GNGSA,A,2,73,,,,,,,,,,,,1.5,1.2,0.9*27

5:35:45:386 Nachm. 03/26/17 - $GPGSV,3,1,12,02,29,108,13,03,02,357,13,06,26,061,13,12,70,066,19*73

5:35:45:387 Nachm. 03/26/17 - $GPGSV,3,2,12,14,30,300,24,19,12,043,16,24,39,147,12,25,58,274,28*7F

5:35:45:388 Nachm. 03/26/17 - $GPGSV,3,3,12,29,22,206,14,31,12,306,23,32,34,271,25,22,,,*40

5:35:45:399 Nachm. 03/26/17 - $GLGSV,3,1,09,82,66,102,19,73,52,312,24,80,69,090,10,79,11,113,26*6C

5:35:45:400 Nachm. 03/26/17 - $GLGSV,3,2,09,83,29,178,17,81,30,035,24,71,14,275,19,72,18,326,25*68

5:35:45:401 Nachm. 03/26/17 - $GLGSV,3,3,09,65,03,009,*55

5:35:45:401 Nachm. 03/26/17 - $GPGGA,153542.0,5208.401151,N,01138.452429,E,1,06,1.2,60.0,M,45.0,M,,*62

5:35:45:402 Nachm. 03/26/17 - $GNGNS,153542.0,5208.401151,N,01138.452429,E,AA,07,1.2,60.0,45.0,,*57

5:35:45:402 Nachm. 03/26/17 - $GPVTG,118.0,T,117.6,M,0.0,N,0.0,K,A*2A

5:35:45:403 Nachm. 03/26/17 - $GPRMC,153542.0,A,5208.401151,N,01138.452429,E,0.0,118.0,260317,0.4,E,A*04

5:35:45:406 Nachm. 03/26/17 - $GPGSA,A,2,12,14,19,24,25,32,,,,,,,1.5,1.2,0.9*33

5:35:45:406 Nachm. 03/26/17 - $GNGSA,A,2,12,14,19,24,25,32,,,,,,,1.5,1.2,0.9*2D

5:35:45:407 Nachm. 03/26/17 - $GNGSA,A,2,73,,,,,,,,,,,,1.5,1.2,0.9*27

5:35:46:386 Nachm. 03/26/17 - $GPGSV,3,1,12,02,29,108,13,03,02,357,13,06,26,061,13,12,70,066,21*78

5:35:46:388 Nachm. 03/26/17 - $GPGSV,3,2,12,14,30,300,21,19,12,043,18,24,39,147,12,25,58,274,29*75

5:35:46:388 Nachm. 03/26/17 - $GPGSV,3,3,12,29,22,206,14,31,12,306,23,32,34,271,24,22,,,*41

5:35:46:389 Nachm. 03/26/17 - $GLGSV,3,1,09,82,66,102,23,73,52,312,24,80,69,090,10,79,11,113,25*66

5:35:46:398 Nachm. 03/26/17 - $GLGSV,3,2,09,83,29,178,17,81,30,035,23,71,14,275,19,72,18,326,26*6C

5:35:46:398 Nachm. 03/26/17 - $GLGSV,3,3,09,65,03,009,*55

5:35:46:399 Nachm. 03/26/17 - $GPGGA,153543.0,5208.401105,N,01138.452386,E,1,06,1.2,60.1,M,45.0,M,,*61

5:35:46:399 Nachm. 03/26/17 - $GNGNS,153543.0,5208.401105,N,01138.452386,E,AA,07,1.2,60.1,45.0,,*54

5:35:46:400 Nachm. 03/26/17 - $GPVTG,118.0,T,117.6,M,0.0,N,0.0,K,A*2A

5:35:46:400 Nachm. 03/26/17 - $GPRMC,153543.0,A,5208.401105,N,01138.452386,E,0.0,118.0,260317,0.4,E,A*06

5:35:46:401 Nachm. 03/26/17 - $GPGSA,A,2,12,14,19,24,25,32,,,,,,,1.5,1.2,0.9*33

5:35:46:401 Nachm. 03/26/17 - $GNGSA,A,2,12,14,19,24,25,32,,,,,,,1.5,1.2,0.9*2D

5:35:46:403 Nachm. 03/26/17 - $GNGSA,A,2,73,,,,,,,,,,,,1.5,1.2,0.9*27


