5:41:17:385 Nachm. 03/26/17 - $GPGSV,3,1,12,02,31,106,14,06,26,059,19,12,68,068,32,14,30,298,24*7D

5:41:17:389 Nachm. 03/26/17 - $GPGSV,3,2,12,24,36,149,22,25,61,277,30,29,25,206,20,31,14,307,26*78

5:41:17:389 Nachm. 03/26/17 - $GPGSV,3,3,12,32,34,268,17,03,02,355,,19,10,043,,22,,,*4A

5:41:17:390 Nachm. 03/26/17 - $GLGSV,3,1,10,82,66,094,29,73,54,313,26,80,66,097,21,65,05,008,12*62

5:41:17:390 Nachm. 03/26/17 - $GLGSV,3,2,10,83,33,178,12,81,27,033,13,71,11,274,13,72,18,323,19*6E

5:41:17:390 Nachm. 03/26/17 - $GLGSV,3,3,10,74,,,,79,09,116,*56

5:41:17:391 Nachm. 03/26/17 - $GPGGA,154114.0,5208.405238,N,01138.450611,E,1,09,0.9,52.3,M,45.0,M,,*66

5:41:17:392 Nachm. 03/26/17 - $GNGNS,154114.0,5208.405238,N,01138.450611,E,AA,10,0.9,52.3,45.0,,*5A

5:41:17:395 Nachm. 03/26/17 - $GPVTG,104.1,T,103.7,M,0.5,N,0.8,K,A*2F

5:41:17:411 Nachm. 03/26/17 - $GPRMC,154114.0,A,5208.405238,N,01138.450611,E,0.5,104.1,260317,0.4,E,A*0E

5:41:17:413 Nachm. 03/26/17 - $GPGSA,A,2,02,06,12,14,24,25,29,31,32,,,,1.2,0.9,0.9*3B

5:41:17:413 Nachm. 03/26/17 - $GNGSA,A,2,02,06,12,14,24,25,29,31,32,,,,1.2,0.9,0.9*25

5:41:17:414 Nachm. 03/26/17 - $GNGSA,A,2,73,,,,,,,,,,,,1.2,0.9,0.9*2A

5:41:18:388 Nachm. 03/26/17 - $GPGSV,3,1,12,02,31,106,15,06,26,059,19,12,68,068,30,14,30,298,22*78

5:41:18:389 Nachm. 03/26/17 - $GPGSV,3,2,12,24,36,149,22,25,61,277,26,29,25,206,18,31,14,307,28*7A

5:41:18:390 Nachm. 03/26/17 - $GPGSV,3,3,12,32,34,268,23,03,02,355,,19,10,043,,22,,,*4D

5:41:18:406 Nachm. 03/26/17 - $GLGSV,3,1,10,82,66,094,28,73,54,313,26,80,66,097,21,65,05,008,12*63

5:41:18:408 Nachm. 03/26/17 - $GLGSV,3,2,10,83,33,178,14,81,27,033,13,71,11,274,17,72,18,323,20*66

5:41:18:409 Nachm. 03/26/17 - $GLGSV,3,3,10,74,,,,79,09,116,*56

5:41:18:409 Nachm. 03/26/17 - $GPGGA,154115.0,5208.406002,N,01138.450742,E,1,09,0.9,54.0,M,45.0,M,,*6D

5:41:18:410 Nachm. 03/26/17 - $GNGNS,154115.0,5208.406002,N,01138.450742,E,AA,10,0.9,54.0,45.0,,*51

5:41:18:411 Nachm. 03/26/17 - $GPVTG,104.1,T,103.7,M,0.4,N,0.8,K,A*2E

5:41:18:411 Nachm. 03/26/17 - $GPRMC,154115.0,A,5208.406002,N,01138.450742,E,0.4,104.1,260317,0.4,E,A*01

5:41:18:412 Nachm. 03/26/17 - $GPGSA,A,2,02,06,12,14,24,25,29,31,32,,,,1.2,0.9,0.9*3B

5:41:18:412 Nachm. 03/26/17 - $GNGSA,A,2,02,06,12,14,24,25,29,31,32,,,,1.2,0.9,0.9*25

5:41:18:413 Nachm. 03/26/17 - $GNGSA,A,2,73,,,,,,,,,,,,1.2,0.9,0.9*2A

5:41:19:385 Nachm. 03/26/17 - $GPGSV,3,1,12,02,31,106,15,06,26,059,19,12,68,068,26,14,30,298,20*7D

5:41:19:386 Nachm. 03/26/17 - $GPGSV,3,2,12,24,36,149,22,25,61,277,17,29,25,206,18,31,14,307,22*72

5:41:19:386 Nachm. 03/26/17 - $GPGSV,3,3,12,32,34,268,23,03,02,355,,19,10,043,,22,,,*4D

5:41:19:390 Nachm. 03/26/17 - $GLGSV,3,1,10,82,66,094,22,73,54,313,26,80,66,097,21,65,05,008,12*69

5:41:19:395 Nachm. 03/26/17 - $GLGSV,3,2,10,83,33,178,14,81,27,033,13,71,11,274,17,72,18,323,20*66

5:41:19:395 Nachm. 03/26/17 - $GLGSV,3,3,10,74,,,,79,09,116,*56

5:41:19:395 Nachm. 03/26/17 - $GPGGA,154116.0,5208.405830,N,01138.450476,E,1,09,0.9,54.4,M,45.0,M,,*64

5:41:19:395 Nachm. 03/26/17 - $GNGNS,154116.0,5208.405830,N,01138.450476,E,AA,10,0.9,54.4,45.0,,*58

5:41:19:396 Nachm. 03/26/17 - $GPVTG,104.1,T,103.7,M,0.0,N,0.0,K,A*22

5:41:19:396 Nachm. 03/26/17 - $GPRMC,154116.0,A,5208.405830,N,01138.450476,E,0.0,104.1,260317,0.4,E,A*08

5:41:19:398 Nachm. 03/26/17 - $GPGSA,A,2,02,06,12,14,24,25,29,31,32,,,,1.2,0.9,0.9*3B

5:41:19:399 Nachm. 03/26/17 - $GNGSA,A,2,02,06,12,14,24,25,29,31,32,,,,1.2,0.9,0.9*25

5:41:19:399 Nachm. 03/26/17 - $GNGSA,A,2,73,,,,,,,,,,,,1.2,0.9,0.9*2A

5:41:20:386 Nachm. 03/26/17 - $GPGSV,3,1,12,02,31,106,20,06,26,059,19,12,68,068,30,14,30,298,17*78

5:41:20:389 Nachm. 03/26/17 - $GPGSV,3,2,12,24,36,149,22,25,61,277,17,29,25,206,18,31,14,307,19*7A

5:41:20:393 Nachm. 03/26/17 - $GPGSV,3,3,12,32,34,268,23,03,02,355,,19,10,043,,22,,,*4D

5:41:20:407 Nachm. 03/26/17 - $GLGSV,3,1,10,82,66,094,25,73,54,313,14,80,66,097,17,65,05,008,12*6A

5:41:20:418 Nachm. 03/26/17 - $GLGSV,3,2,10,83,33,178,13,81,27,033,12,71,11,274,17,72,18,323,20*60

5:41:20:418 Nachm. 03/26/17 - $GLGSV,3,3,10,74,,,,79,09,116,*56

5:41:20:419 Nachm. 03/26/17 - $GPGGA,154117.0,5208.405716,N,01138.450896,E,1,09,0.9,54.3,M,45.0,M,,*6B

5:41:20:420 Nachm. 03/26/17 - $GNGNS,154117.0,5208.405716,N,01138.450896,E,AA,10,0.9,54.3,45.0,,*57

5:41:20:420 Nachm. 03/26/17 - $GPVTG,104.1,T,103.7,M,0.0,N,0.0,K,A*22

5:41:20:420 Nachm. 03/26/17 - $GPRMC,154117.0,A,5208.405716,N,01138.450896,E,0.0,104.1,260317,0.4,E,A*00

5:41:20:421 Nachm. 03/26/17 - $GPGSA,A,2,02,06,12,14,24,25,29,31,32,,,,1.2,0.9,0.9*3B

5:41:20:422 Nachm. 03/26/17 - $GNGSA,A,2,02,06,12,14,24,25,29,31,32,,,,1.2,0.9,0.9*25

5:41:20:422 Nachm. 03/26/17 - $GNGSA,A,2,73,,,,,,,,,,,,1.2,0.9,0.9*2A

5:41:21:385 Nachm. 03/26/17 - $GPGSV,3,1,12,02,31,106,20,06,26,059,19,12,68,068,29,14,30,298,18*7F

5:41:21:386 Nachm. 03/26/17 - $GPGSV,3,2,12,24,36,149,22,25,61,277,17,29,25,206,18,31,14,307,19*7A

5:41:21:388 Nachm. 03/26/17 - $GPGSV,3,3,12,32,34,268,23,03,02,355,,19,10,043,,22,,,*4D

5:41:21:390 Nachm. 03/26/17 - $GLGSV,3,1,10,82,66,094,23,73,54,313,14,80,66,097,16,65,05,008,12*6D

5:41:21:390 Nachm. 03/26/17 - $GLGSV,3,2,10,83,33,178,13,81,27,033,12,71,11,274,17,72,18,323,20*60

5:41:21:390 Nachm. 03/26/17 - $GLGSV,3,3,10,74,,,,79,09,116,*56

5:41:21:390 Nachm. 03/26/17 - $GPGGA,154118.0,5208.405581,N,01138.450949,E,1,09,0.9,54.2,M,45.0,M,,*6A

5:41:21:397 Nachm. 03/26/17 - $GNGNS,154118.0,5208.405581,N,01138.450949,E,AA,10,0.9,54.2,45.0,,*56

5:41:21:397 Nachm. 03/26/17 - $GPVTG,104.1,T,103.7,M,0.0,N,0.0,K,A*22

5:41:21:398 Nachm. 03/26/17 - $GPRMC,154118.0,A,5208.405581,N,01138.450949,E,0.0,104.1,260317,0.4,E,A*00

5:41:21:399 Nachm. 03/26/17 - $GPGSA,A,2,02,06,12,14,24,25,29,31,32,,,,1.2,0.9,0.9*3B

5:41:21:399 Nachm. 03/26/17 - $GNGSA,A,2,02,06,12,14,24,25,29,31,32,,,,1.2,0.9,0.9*25

5:41:21:400 Nachm. 03/26/17 - $GNGSA,A,2,73,,,,,,,,,,,,1.2,0.9,0.9*2A

5:41:22:387 Nachm. 03/26/17 - $GPGSV,3,1,12,02,31,106,18,06,26,059,19,12,68,068,30,14,30,298,18*7C

5:41:22:388 Nachm. 03/26/17 - $GPGSV,3,2,12,24,36,149,22,25,61,277,17,29,25,206,18,31,14,307,19*7A

5:41:22:388 Nachm. 03/26/17 - $GPGSV,3,3,12,32,34,268,23,03,02,355,,19,10,043,,22,,,*4D

5:41:22:393 Nachm. 03/26/17 - $GLGSV,3,1,10,82,66,094,24,73,54,313,14,80,66,097,18,65,05,008,12*64

5:41:22:406 Nachm. 03/26/17 - $GLGSV,3,2,10,83,33,178,13,81,27,033,15,71,11,274,13,72,18,323,14*64

5:41:22:414 Nachm. 03/26/17 - $GLGSV,3,3,10,74,,,,79,09,116,*56

5:41:22:415 Nachm. 03/26/17 - $GPGGA,154119.0,5208.405687,N,01138.450824,E,1,09,0.9,54.4,M,45.0,M,,*62

5:41:22:415 Nachm. 03/26/17 - $GNGNS,154119.0,5208.405687,N,01138.450824,E,AA,10,0.9,54.4,45.0,,*5E

5:41:22:415 Nachm. 03/26/17 - $GPVTG,104.1,T,103.7,M,0.0,N,0.0,K,A*22

5:41:22:416 Nachm. 03/26/17 - $GPRMC,154119.0,A,5208.405687,N,01138.450824,E,0.0,104.1,260317,0.4,E,A*0E

5:41:22:417 Nachm. 03/26/17 - $GPGSA,A,2,02,06,12,14,24,25,29,31,32,,,,1.2,0.9,0.9*3B

5:41:22:417 Nachm. 03/26/17 - $GNGSA,A,2,02,06,12,14,24,25,29,31,32,,,,1.2,0.9,0.9*25

5:41:22:418 Nachm. 03/26/17 - $GNGSA,A,2,73,,,,,,,,,,,,1.2,0.9,0.9*2A

5:41:23:387 Nachm. 03/26/17 - $GPGSV,3,1,12,02,31,106,19,06,26,059,19,12,68,068,30,14,30,298,15*70

5:41:23:388 Nachm. 03/26/17 - $GPGSV,3,2,12,24,36,149,22,25,61,277,17,29,25,206,18,31,14,307,15*76

5:41:23:388 Nachm. 03/26/17 - $GPGSV,3,3,12,32,34,268,13,03,02,355,,19,10,043,,22,,,*4E

5:41:23:392 Nachm. 03/26/17 - $GLGSV,3,1,10,82,66,094,24,73,54,313,14,80,66,097,19,65,05,008,12*65

5:41:23:394 Nachm. 03/26/17 - $GLGSV,3,2,10,83,33,178,13,81,27,033,15,71,11,274,19,72,18,323,16*6C

5:41:23:394 Nachm. 03/26/17 - $GLGSV,3,3,10,74,,,,79,09,116,*56

5:41:23:395 Nachm. 03/26/17 - $GPGGA,154120.0,5208.405727,N,01138.450812,E,1,09,0.9,54.5,M,45.0,M,,*67

5:41:23:395 Nachm. 03/26/17 - $GNGNS,154120.0,5208.405727,N,01138.450812,E,AA,10,0.9,54.5,45.0,,*5B

5:41:23:398 Nachm. 03/26/17 - $GPVTG,104.1,T,103.7,M,0.0,N,0.0,K,A*22

5:41:23:400 Nachm. 03/26/17 - $GPRMC,154120.0,A,5208.405727,N,01138.450812,E,0.0,104.1,260317,0.4,E,A*0A

5:41:23:404 Nachm. 03/26/17 - $GPGSA,A,2,02,06,12,14,24,25,29,31,32,,,,1.2,0.9,0.9*3B

5:41:23:404 Nachm. 03/26/17 - $GNGSA,A,2,02,06,12,14,24,25,29,31,32,,,,1.2,0.9,0.9*25

5:41:23:405 Nachm. 03/26/17 - $GNGSA,A,2,73,,,,,,,,,,,,1.2,0.9,0.9*2A

5:41:24:386 Nachm. 03/26/17 - $GPGSV,3,1,12,02,31,106,19,06,26,059,19,12,68,068,29,14,30,298,15*78

5:41:24:387 Nachm. 03/26/17 - $GPGSV,3,2,12,24,36,149,22,25,61,277,15,29,25,206,18,31,14,307,15*74

5:41:24:387 Nachm. 03/26/17 - $GPGSV,3,3,12,32,34,268,13,03,02,355,,19,10,043,,22,,,*4E

5:41:24:397 Nachm. 03/26/17 - $GLGSV,3,1,10,82,66,094,23,73,54,313,14,80,66,097,18,65,05,008,12*63

5:41:24:404 Nachm. 03/26/17 - $GLGSV,3,2,10,83,33,178,13,81,27,033,16,71,11,274,16,72,18,323,17*61

5:41:24:405 Nachm. 03/26/17 - $GLGSV,3,3,10,74,,,,79,09,116,*56

5:41:24:406 Nachm. 03/26/17 - $GPGGA,154121.0,5208.405666,N,01138.450727,E,1,08,1.1,54.5,M,45.0,M,,*63

5:41:24:407 Nachm. 03/26/17 - $GNGNS,154121.0,5208.405666,N,01138.450727,E,AA,09,1.1,54.5,45.0,,*56

5:41:24:408 Nachm. 03/26/17 - $GPVTG,104.1,T,103.7,M,0.0,N,0.0,K,A*22

5:41:24:409 Nachm. 03/26/17 - $GPRMC,154121.0,A,5208.405666,N,01138.450727,E,0.0,104.1,260317,0.4,E,A*06

5:41:24:416 Nachm. 03/26/17 - $GPGSA,A,2,02,12,14,24,25,29,31,32,,,,,1.4,1.1,0.9*32

5:41:24:417 Nachm. 03/26/17 - $GNGSA,A,2,02,12,14,24,25,29,31,32,,,,,1.4,1.1,0.9*2C

5:41:24:417 Nachm. 03/26/17 - $GNGSA,A,2,73,,,,,,,,,,,,1.4,1.1,0.9*25

5:41:25:387 Nachm. 03/26/17 - $GPGSV,3,1,12,02,31,106,19,06,26,059,19,12,68,068,30,14,30,298,15*70

5:41:25:388 Nachm. 03/26/17 - $GPGSV,3,2,12,24,36,149,22,25,61,277,15,29,25,206,18,31,14,307,15*74

5:41:25:393 Nachm. 03/26/17 - $GPGSV,3,3,12,32,34,268,13,03,02,355,,19,10,043,,22,,,*4E

5:41:25:395 Nachm. 03/26/17 - $GLGSV,3,1,10,82,66,094,23,73,54,313,13,80,66,097,18,65,05,008,12*64

5:41:25:396 Nachm. 03/26/17 - $GLGSV,3,2,10,83,33,178,13,81,27,033,16,71,11,274,16,72,18,323,17*61

5:41:25:398 Nachm. 03/26/17 - $GLGSV,3,3,10,74,,,,79,09,116,*56

5:41:25:400 Nachm. 03/26/17 - $GPGGA,154122.0,5208.405653,N,01138.450730,E,1,06,2.1,54.5,M,45.0,M,,*6D

5:41:25:401 Nachm. 03/26/17 - $GNGNS,154122.0,5208.405653,N,01138.450730,E,AA,07,2.1,54.5,45.0,,*58

5:41:25:409 Nachm. 03/26/17 - $GPVTG,104.1,T,103.7,M,0.0,N,0.0,K,A*22

5:41:25:421 Nachm. 03/26/17 - $GPRMC,154122.0,A,5208.405653,N,01138.450730,E,0.0,104.1,260317,0.4,E,A*05

5:41:25:422 Nachm. 03/26/17 - $GPGSA,A,2,02,12,14,25,31,32,,,,,,,2.3,2.1,0.9*38

5:41:25:422 Nachm. 03/26/17 - $GNGSA,A,2,02,12,14,25,31,32,,,,,,,2.3,2.1,0.9*26

5:41:25:423 Nachm. 03/26/17 - $GNGSA,A,2,73,,,,,,,,,,,,2.3,2.1,0.9*22

5:41:26:386 Nachm. 03/26/17 - $GPGSV,3,1,12,02,31,106,20,06,26,059,19,12,68,068,29,14,30,298,15*72

5:41:26:387 Nachm. 03/26/17 - $GPGSV,3,2,12,24,36,149,22,25,61,277,17,29,25,206,18,31,14,307,15*76

5:41:26:387 Nachm. 03/26/17 - $GPGSV,3,3,12,32,34,268,13,03,02,355,,19,10,043,,22,,,*4E

5:41:26:391 Nachm. 03/26/17 - $GLGSV,3,1,10,82,66,094,22,73,54,313,13,80,66,097,20,65,05,008,12*6E

5:41:26:396 Nachm. 03/26/17 - $GLGSV,3,2,10,83,33,178,13,81,27,033,16,71,11,274,16,72,18,323,17*61

5:41:26:397 Nachm. 03/26/17 - $GLGSV,3,3,10,74,,,,79,09,116,*56

5:41:26:398 Nachm. 03/26/17 - $GPGGA,154123.0,5208.405710,N,01138.450737,E,1,06,2.1,54.6,M,45.0,M,,*6E

5:41:26:398 Nachm. 03/26/17 - $GNGNS,154123.0,5208.405710,N,01138.450737,E,AA,07,2.1,54.6,45.0,,*5B

5:41:26:399 Nachm. 03/26/17 - $GPVTG,104.1,T,103.7,M,0.0,N,0.0,K,A*22

5:41:26:399 Nachm. 03/26/17 - $GPRMC,154123.0,A,5208.405710,N,01138.450737,E,0.0,104.1,260317,0.4,E,A*05

5:41:26:400 Nachm. 03/26/17 - $GPGSA,A,2,02,12,14,25,31,32,,,,,,,2.3,2.1,0.9*38

5:41:26:401 Nachm. 03/26/17 - $GNGSA,A,2,02,12,14,25,31,32,,,,,,,2.3,2.1,0.9*26

5:41:26:401 Nachm. 03/26/17 - $GNGSA,A,2,73,,,,,,,,,,,,2.3,2.1,0.9*22

5:41:27:386 Nachm. 03/26/17 - $GPGSV,3,1,12,02,31,106,18,06,26,059,19,12,68,068,30,14,30,298,15*71

5:41:27:388 Nachm. 03/26/17 - $GPGSV,3,2,12,24,36,149,22,25,61,277,19,29,25,206,18,31,14,307,15*78

5:41:27:392 Nachm. 03/26/17 - $GPGSV,3,3,12,32,34,268,13,03,02,355,,19,10,043,,22,,,*4E

5:41:27:394 Nachm. 03/26/17 - $GLGSV,3,1,10,82,66,094,23,73,54,313,16,80,66,097,20,65,05,008,12*6A

5:41:27:394 Nachm. 03/26/17 - $GLGSV,3,2,10,83,33,178,13,81,27,033,16,71,11,274,16,72,18,323,17*61

5:41:27:395 Nachm. 03/26/17 - $GLGSV,3,3,10,74,,,,79,09,116,*56

5:41:27:399 Nachm. 03/26/17 - $GPGGA,154124.0,5208.405752,N,01138.450800,E,1,06,2.1,54.5,M,45.0,M,,*67

5:41:27:406 Nachm. 03/26/17 - $GNGNS,154124.0,5208.405752,N,01138.450800,E,AA,07,2.1,54.5,45.0,,*52

5:41:27:408 Nachm. 03/26/17 - $GPVTG,104.1,T,103.7,M,0.0,N,0.0,K,A*22

5:41:27:409 Nachm. 03/26/17 - $GPRMC,154124.0,A,5208.405752,N,01138.450800,E,0.0,104.1,260317,0.4,E,A*0F

5:41:27:415 Nachm. 03/26/17 - $GPGSA,A,2,02,12,14,25,31,32,,,,,,,2.3,2.1,0.9*38

5:41:27:415 Nachm. 03/26/17 - $GNGSA,A,2,02,12,14,25,31,32,,,,,,,2.3,2.1,0.9*26

5:41:27:415 Nachm. 03/26/17 - $GNGSA,A,2,73,,,,,,,,,,,,2.3,2.1,0.9*22

5:41:28:387 Nachm. 03/26/17 - $GPGSV,3,1,12,02,31,106,18,06,26,059,19,12,68,068,30,14,30,298,16*72

5:41:28:388 Nachm. 03/26/17 - $GPGSV,3,2,12,24,36,149,22,25,61,277,18,29,25,206,11,31,14,307,15*70

5:41:28:388 Nachm. 03/26/17 - $GPGSV,3,3,12,32,34,268,13,03,02,355,,19,10,043,,22,,,*4E

5:41:28:409 Nachm. 03/26/17 - $GLGSV,3,1,10,82,66,094,23,73,54,313,16,80,66,097,18,65,05,008,12*61

5:41:28:409 Nachm. 03/26/17 - $GLGSV,3,2,10,83,33,178,13,81,27,033,16,71,11,274,15,72,18,323,17*62

5:41:28:409 Nachm. 03/26/17 - $GLGSV,3,3,10,74,,,,79,09,116,*56

5:41:28:410 Nachm. 03/26/17 - $GPGGA,154125.0,5208.405726,N,01138.450843,E,1,07,1.2,54.5,M,45.0,M,,*63

5:41:28:410 Nachm. 03/26/17 - $GNGNS,154125.0,5208.405726,N,01138.450843,E,AA,08,1.2,54.5,45.0,,*58

5:41:28:410 Nachm. 03/26/17 - $GPVTG,104.1,T,103.7,M,0.0,N,0.0,K,A*22

5:41:28:410 Nachm. 03/26/17 - $GPRMC,154125.0,A,5208.405726,N,01138.450843,E,0.0,104.1,260317,0.4,E,A*0A

5:41:28:410 Nachm. 03/26/17 - $GPGSA,A,2,02,12,14,25,29,31,32,,,,,,1.5,1.2,0.9*36

5:41:28:411 Nachm. 03/26/17 - $GNGSA,A,2,02,12,14,25,29,31,32,,,,,,1.5,1.2,0.9*28

5:41:28:411 Nachm. 03/26/17 - $GNGSA,A,2,73,,,,,,,,,,,,1.5,1.2,0.9*27

5:41:29:386 Nachm. 03/26/17 - $GPGSV,3,1,12,02,31,106,18,06,26,059,10,12,68,068,29,14,30,298,16*73

5:41:29:387 Nachm. 03/26/17 - $GPGSV,3,2,12,24,36,149,22,25,61,277,20,29,25,206,17,31,14,307,15*7D

5:41:29:391 Nachm. 03/26/17 - $GPGSV,3,3,12,32,34,268,13,03,02,355,,19,10,043,,22,,,*4E

5:41:29:413 Nachm. 03/26/17 - $GLGSV,3,1,10,82,66,094,22,73,54,313,14,80,66,097,18,65,05,008,12*62

5:41:29:414 Nachm. 03/26/17 - $GLGSV,3,2,10,83,33,178,13,81,27,033,16,71,11,274,15,72,18,323,14*61

5:41:29:415 Nachm. 03/26/17 - $GLGSV,3,3,10,74,,,,79,09,116,*56

5:41:29:415 Nachm. 03/26/17 - $GPGGA,154126.0,5208.405945,N,01138.450842,E,1,08,1.0,55.0,M,45.0,M,,*63

5:41:29:416 Nachm. 03/26/17 - $GNGNS,154126.0,5208.405945,N,01138.450842,E,AA,09,1.0,55.0,45.0,,*56

5:41:29:417 Nachm. 03/26/17 - $GPVTG,104.1,T,103.7,M,0.0,N,0.0,K,A*22

5:41:29:417 Nachm. 03/26/17 - $GPRMC,154126.0,A,5208.405945,N,01138.450842,E,0.0,104.1,260317,0.4,E,A*03

5:41:29:418 Nachm. 03/26/17 - $GPGSA,A,2,02,06,12,14,25,29,31,32,,,,,1.3,1.0,0.9*34

5:41:29:418 Nachm. 03/26/17 - $GNGSA,A,2,02,06,12,14,25,29,31,32,,,,,1.3,1.0,0.9*2A

5:41:29:419 Nachm. 03/26/17 - $GNGSA,A,2,73,,,,,,,,,,,,1.3,1.0,0.9*23

5:41:30:386 Nachm. 03/26/17 - $GPGSV,3,1,12,02,31,106,18,06,26,059,10,12,68,068,29,14,30,298,16*73

5:41:30:386 Nachm. 03/26/17 - $GPGSV,3,2,12,24,36,149,9,25,61,277,20,29,25,206,17,31,14,307,15*44

5:41:30:387 Nachm. 03/26/17 - $GPGSV,3,3,12,32,34,268,13,03,02,355,,19,10,043,,22,,,*4E

5:41:30:390 Nachm. 03/26/17 - $GLGSV,3,1,10,82,66,094,23,73,54,313,16,80,66,097,17,65,05,008,12*6E

5:41:30:399 Nachm. 03/26/17 - $GLGSV,3,2,10,83,33,178,13,81,27,033,16,71,11,274,15,72,18,323,14*61

5:41:30:400 Nachm. 03/26/17 - $GLGSV,3,3,10,74,,,,79,09,116,*56

5:41:30:401 Nachm. 03/26/17 - $GPGGA,154127.0,5208.406085,N,01138.450891,E,1,07,1.0,55.1,M,45.0,M,,*64

5:41:30:402 Nachm. 03/26/17 - $GNGNS,154127.0,5208.406085,N,01138.450891,E,AA,08,1.0,55.1,45.0,,*5F

5:41:30:402 Nachm. 03/26/17 - $GPVTG,104.1,T,103.7,M,0.0,N,0.0,K,A*22

5:41:30:405 Nachm. 03/26/17 - $GPRMC,154127.0,A,5208.406085,N,01138.450891,E,0.0,104.1,260317,0.4,E,A*0A

5:41:30:406 Nachm. 03/26/17 - $GPGSA,A,2,02,06,12,14,24,25,29,,,,,,1.4,1.0,0.9*36

5:41:30:406 Nachm. 03/26/17 - $GNGSA,A,2,02,06,12,14,24,25,29,,,,,,1.4,1.0,0.9*28

5:41:30:407 Nachm. 03/26/17 - $GNGSA,A,2,73,,,,,,,,,,,,1.4,1.0,0.9*24

5:41:31:386 Nachm. 03/26/17 - $GPGSV,3,1,11,02,31,105,17,06,26,059,10,12,67,068,30,14,30,298,16*7B

5:41:31:387 Nachm. 03/26/17 - $GPGSV,3,2,11,24,36,149,9,25,61,277,21,29,25,206,18,31,15,307,15*48

5:41:31:390 Nachm. 03/26/17 - $GPGSV,3,3,11,32,34,267,13,03,02,355,,19,10,043,*42

5:41:31:392 Nachm. 03/26/17 - $GLGSV,3,1,10,82,66,092,24,73,55,313,16,80,66,097,19,65,05,008,12*60

5:41:31:394 Nachm. 03/26/17 - $GLGSV,3,2,10,83,33,178,13,81,27,033,16,71,11,272,15,72,18,323,17*64

5:41:31:395 Nachm. 03/26/17 - $GLGSV,3,3,10,74,,,,79,09,116,*56

5:41:31:396 Nachm. 03/26/17 - $GPGGA,154128.0,5208.406288,N,01138.451039,E,1,07,1.0,55.3,M,45.0,M,,*6D

5:41:31:409 Nachm. 03/26/17 - $GNGNS,154128.0,5208.406288,N,01138.451039,E,AA,08,1.0,55.3,45.0,,*56

5:41:31:411 Nachm. 03/26/17 - $GPVTG,104.1,T,103.7,M,0.0,N,0.0,K,A*22

5:41:31:413 Nachm. 03/26/17 - $GPRMC,154128.0,A,5208.406288,N,01138.451039,E,0.0,104.1,260317,0.4,E,A*01

5:41:31:413 Nachm. 03/26/17 - $GPGSA,A,2,02,06,12,14,24,25,29,,,,,,1.4,1.0,0.9*36

5:41:31:413 Nachm. 03/26/17 - $GNGSA,A,2,02,06,12,14,24,25,29,,,,,,1.4,1.0,0.9*28

5:41:31:414 Nachm. 03/26/17 - $GNGSA,A,2,73,,,,,,,,,,,,1.4,1.0,0.9*24

5:41:32:386 Nachm. 03/26/17 - $GPGSV,3,1,11,02,31,105,17,06,26,059,10,12,67,068,29,14,30,298,16*73

5:41:32:387 Nachm. 03/26/17 - $GPGSV,3,2,11,24,36,149,9,25,61,277,19,29,25,206,18,31,15,307,15*43

5:41:32:391 Nachm. 03/26/17 - $GPGSV,3,3,11,32,34,267,12,03,02,355,,19,10,043,*43

5:41:32:406 Nachm. 03/26/17 - $GLGSV,3,1,10,82,66,092,21,73,55,313,16,80,66,097,18,65,05,008,12*64

5:41:32:407 Nachm. 03/26/17 - $GLGSV,3,2,10,83,33,178,14,81,27,033,16,71,11,272,15,72,18,323,18*6C

5:41:32:408 Nachm. 03/26/17 - $GLGSV,3,3,10,74,,,,79,09,116,*56

5:41:32:409 Nachm. 03/26/17 - $GPGGA,154129.0,5208.406298,N,01138.451080,E,1,08,1.0,55.3,M,45.0,M,,*60

5:41:32:409 Nachm. 03/26/17 - $GNGNS,154129.0,5208.406298,N,01138.451080,E,AA,09,1.0,55.3,45.0,,*55

5:41:32:410 Nachm. 03/26/17 - $GPVTG,104.1,T,103.7,M,0.0,N,0.0,K,A*22

5:41:32:411 Nachm. 03/26/17 - $GPRMC,154129.0,A,5208.406298,N,01138.451080,E,0.0,104.1,260317,0.4,E,A*03

5:41:32:411 Nachm. 03/26/17 - $GPGSA,A,2,02,06,12,14,24,25,29,32,,,,,1.3,1.0,0.9*30

5:41:32:412 Nachm. 03/26/17 - $GNGSA,A,2,02,06,12,14,24,25,29,32,,,,,1.3,1.0,0.9*2E

5:41:32:412 Nachm. 03/26/17 - $GNGSA,A,2,73,,,,,,,,,,,,1.3,1.0,0.9*23

5:41:33:386 Nachm. 03/26/17 - $GPGSV,3,1,11,02,31,105,17,06,26,059,13,12,67,068,29,14,30,298,15*73

5:41:33:386 Nachm. 03/26/17 - $GPGSV,3,2,11,24,36,149,9,25,61,277,19,29,25,206,18,31,15,307,11*47

5:41:33:387 Nachm. 03/26/17 - $GPGSV,3,3,11,32,34,267,19,03,02,355,,19,10,043,*48

5:41:33:393 Nachm. 03/26/17 - $GLGSV,3,1,10,82,66,092,21,73,55,313,16,80,66,097,18,65,05,008,12*64

5:41:33:396 Nachm. 03/26/17 - $GLGSV,3,2,10,83,33,178,14,81,27,033,16,71,11,272,15,72,18,323,18*6C

5:41:33:396 Nachm. 03/26/17 - $GLGSV,3,3,10,74,,,,79,09,116,*56

5:41:33:399 Nachm. 03/26/17 - $GPGGA,154130.0,5208.406293,N,01138.451000,E,1,09,0.9,55.3,M,45.0,M,,*62

5:41:33:399 Nachm. 03/26/17 - $GNGNS,154130.0,5208.406293,N,01138.451000,E,AA,10,0.9,55.3,45.0,,*5E

5:41:33:399 Nachm. 03/26/17 - $GPVTG,104.1,T,103.7,M,0.0,N,0.0,K,A*22

5:41:33:399 Nachm. 03/26/17 - $GPRMC,154130.0,A,5208.406293,N,01138.451000,E,0.0,104.1,260317,0.4,E,A*08

5:41:33:400 Nachm. 03/26/17 - $GPGSA,A,2,02,06,12,14,24,25,29,31,32,,,,1.2,0.9,0.9*3B

5:41:33:400 Nachm. 03/26/17 - $GNGSA,A,2,02,06,12,14,24,25,29,31,32,,,,1.2,0.9,0.9*25

5:41:33:400 Nachm. 03/26/17 - $GNGSA,A,2,73,,,,,,,,,,,,1.2,0.9,0.9*2A

5:41:34:388 Nachm. 03/26/17 - $GPGSV,3,1,11,02,31,105,15,06,26,059,17,12,67,068,29,14,30,298,17*77

5:41:34:389 Nachm. 03/26/17 - $GPGSV,3,2,11,24,36,149,9,25,61,277,19,29,25,206,18,31,15,307,17*41

5:41:34:389 Nachm. 03/26/17 - $GPGSV,3,3,11,32,34,267,17,03,02,355,,19,10,043,*46

5:41:34:394 Nachm. 03/26/17 - $GLGSV,3,1,10,82,66,092,22,73,55,313,16,80,66,097,18,65,05,008,12*67

5:41:34:398 Nachm. 03/26/17 - $GLGSV,3,2,10,83,33,178,14,81,27,033,16,71,11,272,15,72,18,323,19*6D

5:41:34:400 Nachm. 03/26/17 - $GLGSV,3,3,10,74,,,,79,09,116,*56

5:41:34:401 Nachm. 03/26/17 - $GPGGA,154131.0,5208.406265,N,01138.450882,E,1,09,0.9,55.4,M,45.0,M,,*6E

5:41:34:402 Nachm. 03/26/17 - $GNGNS,154131.0,5208.406265,N,01138.450882,E,AA,10,0.9,55.4,45.0,,*52

5:41:34:418 Nachm. 03/26/17 - $GPVTG,104.1,T,103.7,M,0.0,N,0.0,K,A*22

5:41:34:418 Nachm. 03/26/17 - $GPRMC,154131.0,A,5208.406265,N,01138.450882,E,0.0,104.1,260317,0.4,E,A*03

5:41:34:419 Nachm. 03/26/17 - $GPGSA,A,2,02,06,12,14,24,25,29,31,32,,,,1.2,0.9,0.9*3B

5:41:34:420 Nachm. 03/26/17 - $GNGSA,A,2,02,06,12,14,24,25,29,31,32,,,,1.2,0.9,0.9*25

5:41:34:421 Nachm. 03/26/17 - $GNGSA,A,2,73,,,,,,,,,,,,1.2,0.9,0.9*2A

5:41:35:386 Nachm. 03/26/17 - $GPGSV,3,1,11,02,31,105,15,06,26,059,16,12,67,068,29,14,30,298,18*79

5:41:35:387 Nachm. 03/26/17 - $GPGSV,3,2,11,24,36,149,9,25,61,277,21,29,25,206,18,31,15,307,17*4A

5:41:35:387 Nachm. 03/26/17 - $GPGSV,3,3,11,32,34,267,19,03,02,355,,19,10,043,*48

5:41:35:393 Nachm. 03/26/17 - $GLGSV,3,1,10,82,66,092,22,73,55,313,16,80,66,097,17,65,05,008,12*68

5:41:35:396 Nachm. 03/26/17 - $GLGSV,3,2,10,83,33,178,15,81,27,033,10,71,11,272,15,72,18,323,19*6A

5:41:35:396 Nachm. 03/26/17 - $GLGSV,3,3,10,74,,,,79,09,116,*56

5:41:35:396 Nachm. 03/26/17 - $GPGGA,154132.0,5208.406170,N,01138.450747,E,1,09,0.9,55.5,M,45.0,M,,*6D

5:41:35:396 Nachm. 03/26/17 - $GNGNS,154132.0,5208.406170,N,01138.450747,E,AA,10,0.9,55.5,45.0,,*51

5:41:35:396 Nachm. 03/26/17 - $GPVTG,104.1,T,103.7,M,0.0,N,0.0,K,A*22

5:41:35:397 Nachm. 03/26/17 - $GPRMC,154132.0,A,5208.406170,N,01138.450747,E,0.0,104.1,260317,0.4,E,A*01

5:41:35:397 Nachm. 03/26/17 - $GPGSA,A,2,02,06,12,14,24,25,29,31,32,,,,1.2,0.9,0.9*3B

5:41:35:397 Nachm. 03/26/17 - $GNGSA,A,2,02,06,12,14,24,25,29,31,32,,,,1.2,0.9,0.9*25

5:41:35:397 Nachm. 03/26/17 - $GNGSA,A,2,73,,,,,,,,,,,,1.2,0.9,0.9*2A

5:41:36:385 Nachm. 03/26/17 - $GPGSV,3,1,11,02,31,105,15,06,26,059,16,12,67,068,29,14,30,298,18*79

5:41:36:387 Nachm. 03/26/17 - $GPGSV,3,2,11,24,36,149,9,25,61,277,20,29,25,206,13,31,15,307,17*40

5:41:36:388 Nachm. 03/26/17 - $GPGSV,3,3,11,32,34,267,17,03,02,355,,19,10,043,*46

5:41:36:403 Nachm. 03/26/17 - $GLGSV,3,1,10,82,66,092,23,73,55,313,16,80,66,097,17,65,05,008,12*69

5:41:36:409 Nachm. 03/26/17 - $GLGSV,3,2,10,83,33,178,15,81,27,033,10,71,11,272,15,72,18,323,20*60

5:41:36:412 Nachm. 03/26/17 - $GLGSV,3,3,10,74,,,,79,09,116,*56

5:41:36:412 Nachm. 03/26/17 - $GPGGA,154133.0,5208.406094,N,01138.450666,E,1,09,0.9,55.5,M,45.0,M,,*65

5:41:36:413 Nachm. 03/26/17 - $GNGNS,154133.0,5208.406094,N,01138.450666,E,AA,10,0.9,55.5,45.0,,*59

5:41:36:414 Nachm. 03/26/17 - $GPVTG,104.1,T,103.7,M,0.0,N,0.0,K,A*22

5:41:36:416 Nachm. 03/26/17 - $GPRMC,154133.0,A,5208.406094,N,01138.450666,E,0.0,104.1,260317,0.4,E,A*09

5:41:36:417 Nachm. 03/26/17 - $GPGSA,A,2,02,06,12,14,24,25,29,31,32,,,,1.2,0.9,0.9*3B

5:41:36:418 Nachm. 03/26/17 - $GNGSA,A,2,02,06,12,14,24,25,29,31,32,,,,1.2,0.9,0.9*25

5:41:36:419 Nachm. 03/26/17 - $GNGSA,A,2,73,,,,,,,,,,,,1.2,0.9,0.9*2A

5:41:37:386 Nachm. 03/26/17 - $GPGSV,3,1,11,02,31,105,15,06,26,059,16,12,67,068,29,14,30,298,17*76

5:41:37:389 Nachm. 03/26/17 - $GPGSV,3,2,11,24,36,149,9,25,61,277,20,29,25,206,18,31,15,307,18*44

5:41:37:392 Nachm. 03/26/17 - $GPGSV,3,3,11,32,34,267,19,03,02,355,,19,10,043,*48

5:41:37:401 Nachm. 03/26/17 - $GLGSV,3,1,10,82,66,092,23,73,55,313,16,80,66,097,16,65,05,008,12*68

5:41:37:403 Nachm. 03/26/17 - $GLGSV,3,2,10,83,33,178,15,81,27,033,10,71,11,272,15,72,18,323,20*60

5:41:37:404 Nachm. 03/26/17 - $GLGSV,3,3,10,74,,,,79,09,116,*56

5:41:37:406 Nachm. 03/26/17 - $GPGGA,154134.0,5208.406074,N,01138.450594,E,1,08,1.0,55.7,M,45.0,M,,*69

5:41:37:407 Nachm. 03/26/17 - $GNGNS,154134.0,5208.406074,N,01138.450594,E,AN,08,1.0,55.7,45.0,,*52

5:41:37:409 Nachm. 03/26/17 - $GPVTG,104.1,T,103.7,M,0.0,N,0.0,K,A*22

5:41:37:409 Nachm. 03/26/17 - $GPRMC,154134.0,A,5208.406074,N,01138.450594,E,0.0,104.1,260317,0.4,E,A*0E

5:41:37:410 Nachm. 03/26/17 - $GPGSA,A,2,02,06,12,14,25,29,31,32,,,,,1.3,1.0,0.9*34

5:41:37:410 Nachm. 03/26/17 - $GNGSA,A,2,02,06,12,14,25,29,31,32,,,,,1.3,1.0,0.9*2A

5:41:37:411 Nachm. 03/26/17 - $GNGSA,A,2,,,,,,,,,,,,,1.3,1.0,0.9*27

5:41:38:385 Nachm. 03/26/17 - $GPGSV,3,1,11,02,31,105,15,06,26,059,16,12,67,068,30,14,30,298,19*70

5:41:38:386 Nachm. 03/26/17 - $GPGSV,3,2,11,24,36,149,9,25,61,277,21,29,25,206,18,31,15,307,19*44

5:41:38:390 Nachm. 03/26/17 - $GPGSV,3,3,11,32,34,267,17,03,02,355,,19,10,043,*46

5:41:38:391 Nachm. 03/26/17 - $GLGSV,3,1,10,82,66,092,24,73,55,313,16,80,66,097,18,65,05,008,12*61

5:41:38:393 Nachm. 03/26/17 - $GLGSV,3,2,10,83,33,178,15,81,27,033,10,71,11,272,15,72,18,323,20*60

5:41:38:394 Nachm. 03/26/17 - $GLGSV,3,3,10,74,,,,79,09,116,*56

5:41:38:404 Nachm. 03/26/17 - $GPGGA,154135.0,5208.406434,N,01138.450658,E,1,08,1.0,55.8,M,45.0,M,,*64

5:41:38:410 Nachm. 03/26/17 - $GNGNS,154135.0,5208.406434,N,01138.450658,E,AN,08,1.0,55.8,45.0,,*5F

5:41:38:410 Nachm. 03/26/17 - $GPVTG,104.1,T,103.7,M,0.0,N,0.0,K,A*22

5:41:38:411 Nachm. 03/26/17 - $GPRMC,154135.0,A,5208.406434,N,01138.450658,E,0.0,104.1,260317,0.4,E,A*0C

5:41:38:411 Nachm. 03/26/17 - $GPGSA,A,2,02,06,12,14,25,29,31,32,,,,,1.3,1.0,0.9*34

5:41:38:412 Nachm. 03/26/17 - $GNGSA,A,2,02,06,12,14,25,29,31,32,,,,,1.3,1.0,0.9*2A

5:41:38:412 Nachm. 03/26/17 - $GNGSA,A,2,,,,,,,,,,,,,1.3,1.0,0.9*27

5:41:39:396 Nachm. 03/26/17 - $GPGSV,3,1,11,02,31,105,15,06,26,059,16,12,67,068,30,14,30,298,19*70

5:41:39:397 Nachm. 03/26/17 - $GPGSV,3,2,11,24,36,149,9,25,61,277,23,29,25,206,18,31,15,307,16*49

5:41:39:398 Nachm. 03/26/17 - $GPGSV,3,3,11,32,34,267,17,03,02,355,,19,10,043,*46

5:41:39:407 Nachm. 03/26/17 - $GLGSV,3,1,10,82,66,092,25,73,55,313,16,80,66,097,19,65,05,008,12*61

5:41:39:407 Nachm. 03/26/17 - $GLGSV,3,2,10,83,33,178,15,81,27,033,10,71,11,272,12,72,18,323,21*66

5:41:39:408 Nachm. 03/26/17 - $GLGSV,3,3,10,74,,,,79,09,116,*56

5:41:39:408 Nachm. 03/26/17 - $GPGGA,154136.0,5208.406608,N,01138.450658,E,1,08,1.0,55.9,M,45.0,M,,*6B

5:41:39:409 Nachm. 03/26/17 - $GNGNS,154136.0,5208.406608,N,01138.450658,E,AN,08,1.0,55.9,45.0,,*50

5:41:39:409 Nachm. 03/26/17 - $GPVTG,104.1,T,103.7,M,0.0,N,0.0,K,A*22

5:41:39:410 Nachm. 03/26/17 - $GPRMC,154136.0,A,5208.406608,N,01138.450658,E,0.0,104.1,260317,0.4,E,A*02

5:41:39:411 Nachm. 03/26/17 - $GPGSA,A,2,02,06,12,14,25,29,31,32,,,,,1.3,1.0,0.9*34

5:41:39:412 Nachm. 03/26/17 - $GNGSA,A,2,02,06,12,14,25,29,31,32,,,,,1.3,1.0,0.9*2A

5:41:39:413 Nachm. 03/26/17 - $GNGSA,A,2,,,,,,,,,,,,,1.3,1.0,0.9*27

5:41:40:386 Nachm. 03/26/17 - $GPGSV,3,1,11,02,31,105,17,06,26,059,14,12,67,068,29,14,30,298,19*78

5:41:40:387 Nachm. 03/26/17 - $GPGSV,3,2,11,24,36,149,9,25,61,277,20,29,25,206,17,31,15,307,16*45

5:41:40:391 Nachm. 03/26/17 - $GPGSV,3,3,11,32,34,267,17,03,02,355,,19,10,043,*46

5:41:40:400 Nachm. 03/26/17 - $GLGSV,3,1,10,82,66,092,24,73,55,313,16,80,66,097,18,65,05,008,12*61

5:41:40:403 Nachm. 03/26/17 - $GLGSV,3,2,10,83,33,178,16,81,27,033,10,71,11,272,12,72,18,323,21*65

5:41:40:404 Nachm. 03/26/17 - $GLGSV,3,3,10,74,,,,79,09,116,*56

5:41:40:404 Nachm. 03/26/17 - $GPGGA,154137.0,5208.406674,N,01138.450562,E,1,08,1.0,56.0,M,45.0,M,,*61

5:41:40:404 Nachm. 03/26/17 - $GNGNS,154137.0,5208.406674,N,01138.450562,E,AN,08,1.0,56.0,45.0,,*5A

5:41:40:404 Nachm. 03/26/17 - $GPVTG,104.1,T,103.7,M,0.0,N,0.0,K,A*22

5:41:40:404 Nachm. 03/26/17 - $GPRMC,154137.0,A,5208.406674,N,01138.450562,E,0.0,104.1,260317,0.4,E,A*02

5:41:40:404 Nachm. 03/26/17 - $GPGSA,A,2,02,06,12,14,25,29,31,32,,,,,1.3,1.0,0.9*34

5:41:40:405 Nachm. 03/26/17 - $GNGSA,A,2,02,06,12,14,25,29,31,32,,,,,1.3,1.0,0.9*2A

5:41:40:405 Nachm. 03/26/17 - $GNGSA,A,2,,,,,,,,,,,,,1.3,1.0,0.9*27

5:41:41:386 Nachm. 03/26/17 - $GPGSV,3,1,11,02,31,105,19,06,26,059,19,12,67,068,29,14,30,298,18*7A

5:41:41:387 Nachm. 03/26/17 - $GPGSV,3,2,11,24,36,149,9,25,61,277,19,29,25,206,17,31,15,307,16*4F

5:41:41:390 Nachm. 03/26/17 - $GPGSV,3,3,11,32,34,267,15,03,02,355,,19,10,043,*44

5:41:41:400 Nachm. 03/26/17 - $GLGSV,3,1,10,82,66,092,22,73,55,313,16,80,66,097,18,65,05,008,12*67

5:41:41:403 Nachm. 03/26/17 - $GLGSV,3,2,10,83,33,178,16,81,27,033,10,71,11,272,12,72,18,323,17*60

5:41:41:404 Nachm. 03/26/17 - $GLGSV,3,3,10,74,,,,79,09,116,*56

5:41:41:406 Nachm. 03/26/17 - $GPGGA,154138.0,5208.406885,N,01138.450903,E,1,08,1.0,55.9,M,45.0,M,,*6F

5:41:41:407 Nachm. 03/26/17 - $GNGNS,154138.0,5208.406885,N,01138.450903,E,AN,08,1.0,55.9,45.0,,*54

5:41:41:409 Nachm. 03/26/17 - $GPVTG,104.1,T,103.7,M,0.0,N,0.0,K,A*22

5:41:41:410 Nachm. 03/26/17 - $GPRMC,154138.0,A,5208.406885,N,01138.450903,E,0.0,104.1,260317,0.4,E,A*06

5:41:41:413 Nachm. 03/26/17 - $GPGSA,A,2,02,06,12,14,25,29,31,32,,,,,1.3,1.0,0.9*34

5:41:41:413 Nachm. 03/26/17 - $GNGSA,A,2,02,06,12,14,25,29,31,32,,,,,1.3,1.0,0.9*2A

5:41:41:414 Nachm. 03/26/17 - $GNGSA,A,2,,,,,,,,,,,,,1.3,1.0,0.9*27

5:41:42:386 Nachm. 03/26/17 - $GPGSV,3,1,11,02,31,105,19,06,26,059,20,12,67,068,29,14,30,298,18*70

5:41:42:388 Nachm. 03/26/17 - $GPGSV,3,2,11,24,36,149,9,25,61,277,19,29,25,206,17,31,15,307,18*41

5:41:42:390 Nachm. 03/26/17 - $GPGSV,3,3,11,32,34,267,17,03,02,355,,19,10,043,*46

5:41:42:399 Nachm. 03/26/17 - $GLGSV,3,1,10,82,66,092,23,73,55,313,16,80,66,097,15,65,05,008,12*6B

5:41:42:400 Nachm. 03/26/17 - $GLGSV,3,2,10,83,33,178,16,81,27,033,10,71,11,272,12,72,18,323,18*6F

5:41:42:405 Nachm. 03/26/17 - $GLGSV,3,3,10,74,,,,79,09,116,*56

5:41:42:406 Nachm. 03/26/17 - $GPGGA,154139.0,5208.406766,N,01138.450806,E,1,08,1.0,55.8,M,45.0,M,,*69

5:41:42:407 Nachm. 03/26/17 - $GNGNS,154139.0,5208.406766,N,01138.450806,E,AN,08,1.0,55.8,45.0,,*52

5:41:42:408 Nachm. 03/26/17 - $GPVTG,104.1,T,103.7,M,0.0,N,0.0,K,A*22

5:41:42:409 Nachm. 03/26/17 - $GPRMC,154139.0,A,5208.406766,N,01138.450806,E,0.0,104.1,260317,0.4,E,A*01

5:41:42:409 Nachm. 03/26/17 - $GPGSA,A,2,02,06,12,14,25,29,31,32,,,,,1.3,1.0,0.9*34

5:41:42:410 Nachm. 03/26/17 - $GNGSA,A,2,02,06,12,14,25,29,31,32,,,,,1.3,1.0,0.9*2A

5:41:42:411 Nachm. 03/26/17 - $GNGSA,A,2,,,,,,,,,,,,,1.3,1.0,0.9*27

5:41:43:387 Nachm. 03/26/17 - $GPGSV,3,1,11,02,31,105,19,06,26,059,21,12,67,068,30,14,30,298,16*77

5:41:43:388 Nachm. 03/26/17 - $GPGSV,3,2,11,24,36,149,9,25,61,277,19,29,25,206,17,31,15,307,21*4B

5:41:43:389 Nachm. 03/26/17 - $GPGSV,3,3,11,32,34,267,17,03,02,355,,19,10,043,*46

5:41:43:397 Nachm. 03/26/17 - $GLGSV,3,1,10,82,66,092,23,73,55,313,16,80,66,097,19,65,05,008,12*67

5:41:43:403 Nachm. 03/26/17 - $GLGSV,3,2,10,83,33,178,15,81,27,033,10,71,11,272,12,72,18,323,18*6C

5:41:43:404 Nachm. 03/26/17 - $GLGSV,3,3,10,74,,,,79,09,116,*56

5:41:43:404 Nachm. 03/26/17 - $GPGGA,154140.0,5208.406757,N,01138.450734,E,1,08,1.0,55.9,M,45.0,M,,*6A

5:41:43:405 Nachm. 03/26/17 - $GNGNS,154140.0,5208.406757,N,01138.450734,E,AN,08,1.0,55.9,45.0,,*51

5:41:43:405 Nachm. 03/26/17 - $GPVTG,104.1,T,103.7,M,0.0,N,0.0,K,A*22

5:41:43:405 Nachm. 03/26/17 - $GPRMC,154140.0,A,5208.406757,N,01138.450734,E,0.0,104.1,260317,0.4,E,A*03

5:41:43:406 Nachm. 03/26/17 - $GPGSA,A,2,02,06,12,14,25,29,31,32,,,,,1.3,1.0,0.9*34

5:41:43:406 Nachm. 03/26/17 - $GNGSA,A,2,02,06,12,14,25,29,31,32,,,,,1.3,1.0,0.9*2A

5:41:43:408 Nachm. 03/26/17 - $GNGSA,A,2,,,,,,,,,,,,,1.3,1.0,0.9*27

5:41:44:385 Nachm. 03/26/17 - $GPGSV,3,1,11,02,31,105,15,06,26,059,20,12,67,068,30,14,30,298,16*7A

5:41:44:390 Nachm. 03/26/17 - $GPGSV,3,2,11,24,36,149,9,25,61,277,19,29,25,206,17,31,15,307,23*49

5:41:44:395 Nachm. 03/26/17 - $GPGSV,3,3,11,32,34,267,17,03,02,355,,19,10,043,*46

5:41:44:397 Nachm. 03/26/17 - $GLGSV,3,1,10,82,66,092,22,73,55,313,16,80,66,097,19,65,05,008,12*66

5:41:44:397 Nachm. 03/26/17 - $GLGSV,3,2,10,83,33,178,15,81,27,033,10,71,11,272,12,72,18,323,18*6C

5:41:44:397 Nachm. 03/26/17 - $GLGSV,3,3,10,74,,,,79,09,116,*56

5:41:44:398 Nachm. 03/26/17 - $GPGGA,154141.0,5208.406763,N,01138.450742,E,1,08,1.0,55.9,M,45.0,M,,*6D

5:41:44:398 Nachm. 03/26/17 - $GNGNS,154141.0,5208.406763,N,01138.450742,E,AN,08,1.0,55.9,45.0,,*56

5:41:44:398 Nachm. 03/26/17 - $GPVTG,104.1,T,103.7,M,0.0,N,0.0,K,A*22

5:41:44:398 Nachm. 03/26/17 - $GPRMC,154141.0,A,5208.406763,N,01138.450742,E,0.0,104.1,260317,0.4,E,A*04

5:41:44:398 Nachm. 03/26/17 - $GPGSA,A,2,02,06,12,14,25,29,31,32,,,,,1.3,1.0,0.9*34

5:41:44:399 Nachm. 03/26/17 - $GNGSA,A,2,02,06,12,14,25,29,31,32,,,,,1.3,1.0,0.9*2A

5:41:44:399 Nachm. 03/26/17 - $GNGSA,A,2,,,,,,,,,,,,,1.3,1.0,0.9*27

5:41:45:387 Nachm. 03/26/17 - $GPGSV,3,1,11,02,31,105,15,06,26,059,21,12,67,068,29,14,30,298,16*73

5:41:45:388 Nachm. 03/26/17 - $GPGSV,3,2,11,24,36,149,14,25,61,277,19,29,25,206,14,31,15,307,24*71

5:41:45:388 Nachm. 03/26/17 - $GPGSV,3,3,11,32,34,267,15,03,02,355,,19,10,043,*44

5:41:45:403 Nachm. 03/26/17 - $GLGSV,3,1,10,82,66,092,21,73,55,313,16,80,66,097,15,65,05,008,12*69

5:41:45:404 Nachm. 03/26/17 - $GLGSV,3,2,10,83,33,178,15,81,27,033,10,71,11,272,12,72,18,323,18*6C

5:41:45:404 Nachm. 03/26/17 - $GLGSV,3,3,10,74,,,,79,09,116,*56

5:41:45:405 Nachm. 03/26/17 - $GPGGA,154142.0,5208.406663,N,01138.450638,E,1,09,0.9,56.0,M,45.0,M,,*60

5:41:45:405 Nachm. 03/26/17 - $GNGNS,154142.0,5208.406663,N,01138.450638,E,AN,09,0.9,56.0,45.0,,*5B

5:41:45:405 Nachm. 03/26/17 - $GPVTG,104.1,T,103.7,M,0.0,N,0.0,K,A*22

5:41:45:406 Nachm. 03/26/17 - $GPRMC,154142.0,A,5208.406663,N,01138.450638,E,0.0,104.1,260317,0.4,E,A*0A

5:41:45:406 Nachm. 03/26/17 - $GPGSA,A,2,02,06,12,14,24,25,29,31,32,,,,1.3,0.9,0.9*3A

5:41:45:407 Nachm. 03/26/17 - $GNGSA,A,2,02,06,12,14,24,25,29,31,32,,,,1.3,0.9,0.9*24

5:41:45:407 Nachm. 03/26/17 - $GNGSA,A,2,,,,,,,,,,,,,1.3,0.9,0.9*2F

5:41:46:386 Nachm. 03/26/17 - $GPGSV,3,1,11,02,31,105,17,06,26,059,21,12,67,068,29,14,30,298,16*71

5:41:46:388 Nachm. 03/26/17 - $GPGSV,3,2,11,24,36,149,14,25,61,277,19,29,25,206,14,31,15,307,21*74

5:41:46:395 Nachm. 03/26/17 - $GPGSV,3,3,11,32,34,267,15,03,02,355,,19,10,043,*44

5:41:46:406 Nachm. 03/26/17 - $GLGSV,3,1,10,82,66,092,21,73,55,313,16,80,66,097,16,65,05,008,12*6A

5:41:46:407 Nachm. 03/26/17 - $GLGSV,3,2,10,83,33,178,14,81,27,033,10,71,11,272,12,72,18,323,13*66

5:41:46:408 Nachm. 03/26/17 - $GLGSV,3,3,10,74,,,,79,09,116,*56

5:41:46:408 Nachm. 03/26/17 - $GPGGA,154143.0,5208.406676,N,01138.450644,E,1,09,0.9,56.0,M,45.0,M,,*6E

5:41:46:409 Nachm. 03/26/17 - $GNGNS,154143.0,5208.406676,N,01138.450644,E,AN,09,0.9,56.0,45.0,,*55

5:41:46:409 Nachm. 03/26/17 - $GPVTG,104.1,T,103.7,M,0.0,N,0.0,K,A*22

5:41:46:410 Nachm. 03/26/17 - $GPRMC,154143.0,A,5208.406676,N,01138.450644,E,0.0,104.1,260317,0.4,E,A*04

5:41:46:410 Nachm. 03/26/17 - $GPGSA,A,2,02,06,12,14,24,25,29,31,32,,,,1.3,0.9,0.9*3A

5:41:46:411 Nachm. 03/26/17 - $GNGSA,A,2,02,06,12,14,24,25,29,31,32,,,,1.3,0.9,0.9*24

5:41:46:412 Nachm. 03/26/17 - $GNGSA,A,2,,,,,,,,,,,,,1.3,0.9,0.9*2F

5:41:47:385 Nachm. 03/26/17 - $GPGSV,3,1,11,02,31,105,17,06,26,059,19,12,67,068,28,14,30,298,16*7B

5:41:47:386 Nachm. 03/26/17 - $GPGSV,3,2,11,24,36,149,14,25,61,277,19,29,25,206,14,31,15,307,19*7F

5:41:47:386 Nachm. 03/26/17 - $GPGSV,3,3,11,32,34,267,15,03,02,355,,19,10,043,*44

5:41:47:392 Nachm. 03/26/17 - $GLGSV,3,1,10,82,66,092,21,73,55,313,16,80,66,097,16,65,05,008,12*6A

5:41:47:392 Nachm. 03/26/17 - $GLGSV,3,2,10,83,33,178,14,81,27,033,8,71,11,272,12,72,18,323,13*5F

5:41:47:393 Nachm. 03/26/17 - $GLGSV,3,3,10,74,,,,79,09,116,*56

5:41:47:393 Nachm. 03/26/17 - $GPGGA,154144.0,5208.406674,N,01138.450641,E,1,09,0.9,56.0,M,45.0,M,,*6E

5:41:47:393 Nachm. 03/26/17 - $GNGNS,154144.0,5208.406674,N,01138.450641,E,AN,09,0.9,56.0,45.0,,*55

5:41:47:393 Nachm. 03/26/17 - $GPVTG,104.1,T,103.7,M,0.0,N,0.0,K,A*22

5:41:47:394 Nachm. 03/26/17 - $GPRMC,154144.0,A,5208.406674,N,01138.450641,E,0.0,104.1,260317,0.4,E,A*04

5:41:47:394 Nachm. 03/26/17 - $GPGSA,A,2,02,06,12,14,24,25,29,31,32,,,,1.3,0.9,0.9*3A

5:41:47:394 Nachm. 03/26/17 - $GNGSA,A,2,02,06,12,14,24,25,29,31,32,,,,1.3,0.9,0.9*24

5:41:47:394 Nachm. 03/26/17 - $GNGSA,A,2,,,,,,,,,,,,,1.3,0.9,0.9*2F

5:41:48:387 Nachm. 03/26/17 - $GPGSV,3,1,11,02,31,105,17,06,26,059,21,12,67,068,28,14,30,298,12*74

5:41:48:388 Nachm. 03/26/17 - $GPGSV,3,2,11,24,36,149,14,25,61,277,13,29,25,206,14,31,15,307,19*75

5:41:48:389 Nachm. 03/26/17 - $GPGSV,3,3,11,32,34,267,15,03,02,355,,19,10,043,*44

5:41:48:399 Nachm. 03/26/17 - $GLGSV,3,1,10,82,66,092,23,73,55,313,16,80,66,097,16,65,05,008,12*68

5:41:48:412 Nachm. 03/26/17 - $GLGSV,3,2,10,83,33,178,16,81,27,033,8,71,11,272,12,72,18,323,14*5A

5:41:48:413 Nachm. 03/26/17 - $GLGSV,3,3,10,74,,,,79,09,116,*56

5:41:48:413 Nachm. 03/26/17 - $GPGGA,154145.0,5208.406674,N,01138.450643,E,1,09,0.9,56.0,M,45.0,M,,*6D

5:41:48:413 Nachm. 03/26/17 - $GNGNS,154145.0,5208.406674,N,01138.450643,E,AN,09,0.9,56.0,45.0,,*56

5:41:48:413 Nachm. 03/26/17 - $GPVTG,104.1,T,103.7,M,0.0,N,0.0,K,A*22

5:41:48:414 Nachm. 03/26/17 - $GPRMC,154145.0,A,5208.406674,N,01138.450643,E,0.0,104.1,260317,0.4,E,A*07

5:41:48:414 Nachm. 03/26/17 - $GPGSA,A,2,02,06,12,14,24,25,29,31,32,,,,1.3,0.9,0.9*3A

5:41:48:414 Nachm. 03/26/17 - $GNGSA,A,2,02,06,12,14,24,25,29,31,32,,,,1.3,0.9,0.9*24

5:41:48:418 Nachm. 03/26/17 - $GNGSA,A,2,,,,,,,,,,,,,1.3,0.9,0.9*2F

5:41:49:386 Nachm. 03/26/17 - $GPGSV,3,1,11,02,31,105,17,06,26,059,20,12,67,068,28,14,30,298,12*75

5:41:49:386 Nachm. 03/26/17 - $GPGSV,3,2,11,24,36,149,14,25,61,277,17,29,25,206,14,31,15,307,19*71

5:41:49:386 Nachm. 03/26/17 - $GPGSV,3,3,11,32,34,267,15,03,02,355,,19,10,043,*44

5:41:49:391 Nachm. 03/26/17 - $GLGSV,3,1,10,82,66,092,21,73,55,313,16,80,66,097,17,65,05,008,12*6B

5:41:49:397 Nachm. 03/26/17 - $GLGSV,3,2,10,83,33,178,16,81,27,033,8,71,11,272,12,72,18,323,14*5A

5:41:49:397 Nachm. 03/26/17 - $GLGSV,3,3,10,74,,,,79,09,116,*56

5:41:49:397 Nachm. 03/26/17 - $GPGGA,154146.0,5208.406787,N,01138.450701,E,1,09,0.9,56.1,M,45.0,M,,*65

5:41:49:398 Nachm. 03/26/17 - $GNGNS,154146.0,5208.406787,N,01138.450701,E,AN,09,0.9,56.1,45.0,,*5E

5:41:49:398 Nachm. 03/26/17 - $GPVTG,104.1,T,103.7,M,0.0,N,0.0,K,A*22

5:41:49:399 Nachm. 03/26/17 - $GPRMC,154146.0,A,5208.406787,N,01138.450701,E,0.0,104.1,260317,0.4,E,A*0E

5:41:49:399 Nachm. 03/26/17 - $GPGSA,A,2,02,06,12,14,24,25,29,31,32,,,,1.3,0.9,0.9*3A

5:41:49:400 Nachm. 03/26/17 - $GNGSA,A,2,02,06,12,14,24,25,29,31,32,,,,1.3,0.9,0.9*24

5:41:49:400 Nachm. 03/26/17 - $GNGSA,A,2,,,,,,,,,,,,,1.3,0.9,0.9*2F

5:41:50:387 Nachm. 03/26/17 - $GPGSV,3,1,11,02,31,105,19,06,26,059,20,12,67,068,29,14,30,298,15*7D

5:41:50:387 Nachm. 03/26/17 - $GPGSV,3,2,11,24,36,149,14,25,61,277,17,29,25,206,14,31,15,307,21*7A

5:41:50:388 Nachm. 03/26/17 - $GPGSV,3,3,11,32,34,267,15,03,02,355,,19,10,043,*44

5:41:50:391 Nachm. 03/26/17 - $GLGSV,3,1,10,82,66,092,22,73,55,313,16,80,66,097,18,65,05,008,12*67

5:41:50:394 Nachm. 03/26/17 - $GLGSV,3,2,10,83,33,178,16,81,27,033,8,71,11,272,12,72,18,323,14*5A

5:41:50:395 Nachm. 03/26/17 - $GLGSV,3,3,10,74,,,,79,09,116,*56

5:41:50:396 Nachm. 03/26/17 - $GPGGA,154147.0,5208.406783,N,01138.450692,E,1,09,0.9,56.1,M,45.0,M,,*6B

5:41:50:397 Nachm. 03/26/17 - $GNGNS,154147.0,5208.406783,N,01138.450692,E,AN,09,0.9,56.1,45.0,,*50

5:41:50:397 Nachm. 03/26/17 - $GPVTG,104.1,T,103.7,M,0.0,N,0.0,K,A*22

5:41:50:398 Nachm. 03/26/17 - $GPRMC,154147.0,A,5208.406783,N,01138.450692,E,0.0,104.1,260317,0.4,E,A*00

5:41:50:398 Nachm. 03/26/17 - $GPGSA,A,2,02,06,12,14,24,25,29,31,32,,,,1.3,0.9,0.9*3A

5:41:50:399 Nachm. 03/26/17 - $GNGSA,A,2,02,06,12,14,24,25,29,31,32,,,,1.3,0.9,0.9*24

5:41:50:402 Nachm. 03/26/17 - $GNGSA,A,2,,,,,,,,,,,,,1.3,0.9,0.9*2F

5:41:51:385 Nachm. 03/26/17 - $GPGSV,3,1,11,02,31,105,19,06,26,059,16,12,67,068,29,14,30,298,17*7A

5:41:51:386 Nachm. 03/26/17 - $GPGSV,3,2,11,24,36,149,14,25,61,277,19,29,25,206,14,31,15,307,21*74

5:41:51:386 Nachm. 03/26/17 - $GPGSV,3,3,11,32,34,267,15,03,02,355,,19,10,043,*44

5:41:51:388 Nachm. 03/26/17 - $GLGSV,3,1,10,82,66,092,22,73,55,313,16,80,66,097,19,65,05,008,12*66

5:41:51:388 Nachm. 03/26/17 - $GLGSV,3,2,10,83,33,178,16,81,27,033,8,71,11,272,12,72,18,323,13*5D

5:41:51:388 Nachm. 03/26/17 - $GLGSV,3,3,10,74,,,,79,09,116,*56

5:41:51:388 Nachm. 03/26/17 - $GPGGA,154148.0,5208.406779,N,01138.450680,E,1,09,0.9,56.1,M,45.0,M,,*62

5:41:51:388 Nachm. 03/26/17 - $GNGNS,154148.0,5208.406779,N,01138.450680,E,AN,09,0.9,56.1,45.0,,*59

5:41:51:399 Nachm. 03/26/17 - $GPVTG,104.1,T,103.7,M,0.0,N,0.0,K,A*22

5:41:51:400 Nachm. 03/26/17 - $GPRMC,154148.0,A,5208.406779,N,01138.450680,E,0.0,104.1,260317,0.4,E,A*09

5:41:51:400 Nachm. 03/26/17 - $GPGSA,A,2,02,06,12,14,24,25,29,31,32,,,,1.3,0.9,0.9*3A

5:41:51:400 Nachm. 03/26/17 - $GNGSA,A,2,02,06,12,14,24,25,29,31,32,,,,1.3,0.9,0.9*24

5:41:51:401 Nachm. 03/26/17 - $GNGSA,A,2,,,,,,,,,,,,,1.3,0.9,0.9*2F


