6:49:54:753 Nachm. 03/07/17 - $GPGSV,3,1,09,02,38,080,11,06,18,037,13,12,47,088,19,14,28,272,19*72

6:49:54:776 Nachm. 03/07/17 - $GPGSV,3,2,09,24,13,153,18,25,82,322,25,29,49,213,27,31,35,305,29*78

6:49:54:776 Nachm. 03/07/17 - $GPGSV,3,3,09,32,20,246,27*46

6:49:54:792 Nachm. 03/07/17 - $GLGSV,2,1,08,78,71,323,24,70,11,352,19,77,45,126,11,79,28,313,24*6F

6:49:54:793 Nachm. 03/07/17 - $GLGSV,2,2,08,88,61,181,23,81,11,202,20,86,04,030,,69,09,299,*65

6:49:54:793 Nachm. 03/07/17 - $GPGGA,174949.0,5208.345093,N,01139.062941,E,1,09,0.7,78.3,M,45.0,M,,*6C

6:49:54:793 Nachm. 03/07/17 - $GNGNS,174949.0,5208.345093,N,01139.062941,E,AA,14,0.7,78.3,45.0,,*54

6:49:54:794 Nachm. 03/07/17 - $GPVTG,292.4,T,292.0,M,0.0,N,0.0,K,A*27

6:49:54:794 Nachm. 03/07/17 - $GPRMC,174949.0,A,5208.345093,N,01139.062941,E,0.0,292.4,070317,0.4,E,A*0D

6:49:54:794 Nachm. 03/07/17 - $GPGSA,A,2,02,06,12,14,24,25,29,31,32,,,,1.0,0.7,0.7*39

6:49:54:794 Nachm. 03/07/17 - $GNGSA,A,2,02,06,12,14,24,25,29,31,32,,,,1.0,0.7,0.7*27

6:49:54:796 Nachm. 03/07/17 - $GNGSA,A,2,77,78,79,81,88,,,,,,,,1.0,0.7,0.7*24

6:49:55:753 Nachm. 03/07/17 - $GPGSV,3,1,09,02,38,080,11,06,18,037,13,12,47,088,17,14,28,272,20*76

6:49:55:754 Nachm. 03/07/17 - $GPGSV,3,2,09,24,13,153,18,25,82,322,28,29,49,213,23,31,35,305,25*7D

6:49:55:754 Nachm. 03/07/17 - $GPGSV,3,3,09,32,20,246,19*4B

6:49:55:755 Nachm. 03/07/17 - $GLGSV,2,1,08,78,71,323,16,70,11,352,23,77,45,126,11,79,28,313,16*66

6:49:55:770 Nachm. 03/07/17 - $GLGSV,2,2,08,88,61,181,20,81,11,202,22,86,04,030,,69,09,299,*64

6:49:55:773 Nachm. 03/07/17 - $GPGGA,174950.0,5208.345118,N,01139.062914,E,1,09,0.7,78.4,M,45.0,M,,*61

6:49:55:774 Nachm. 03/07/17 - $GNGNS,174950.0,5208.345118,N,01139.062914,E,AA,14,0.7,78.4,45.0,,*59

6:49:55:774 Nachm. 03/07/17 - $GPVTG,292.4,T,292.0,M,0.0,N,0.0,K,A*27

6:49:55:774 Nachm. 03/07/17 - $GPRMC,174950.0,A,5208.345118,N,01139.062914,E,0.0,292.4,070317,0.4,E,A*07

6:49:55:776 Nachm. 03/07/17 - $GPGSA,A,2,02,06,12,14,24,25,29,31,32,,,,1.0,0.7,0.7*39

6:49:55:777 Nachm. 03/07/17 - $GNGSA,A,2,02,06,12,14,24,25,29,31,32,,,,1.0,0.7,0.7*27

6:49:55:777 Nachm. 03/07/17 - $GNGSA,A,2,77,78,79,81,88,,,,,,,,1.0,0.7,0.7*24

6:49:56:754 Nachm. 03/07/17 - $GPGSV,3,1,09,02,38,080,11,06,18,037,13,12,47,088,18,14,28,272,26*7F

6:49:56:755 Nachm. 03/07/17 - $GPGSV,3,2,09,24,13,153,18,25,82,322,28,29,49,213,31,31,35,305,30*7A

6:49:56:756 Nachm. 03/07/17 - $GPGSV,3,3,09,32,20,246,31*41

6:49:56:756 Nachm. 03/07/17 - $GLGSV,2,1,08,78,71,323,18,70,11,352,22,77,45,126,11,79,28,313,22*6E

6:49:56:762 Nachm. 03/07/17 - $GLGSV,2,2,08,88,61,181,24,81,11,202,23,86,04,030,,69,09,299,*61

6:49:56:764 Nachm. 03/07/17 - $GPGGA,174951.0,5208.345131,N,01139.062800,E,1,09,0.7,78.7,M,45.0,M,,*6C

6:49:56:765 Nachm. 03/07/17 - $GNGNS,174951.0,5208.345131,N,01139.062800,E,AA,14,0.7,78.7,45.0,,*54

6:49:56:766 Nachm. 03/07/17 - $GPVTG,292.4,T,292.0,M,0.0,N,0.0,K,A*27

6:49:56:766 Nachm. 03/07/17 - $GPRMC,174951.0,A,5208.345131,N,01139.062800,E,0.0,292.4,070317,0.4,E,A*09

6:49:56:767 Nachm. 03/07/17 - $GPGSA,A,2,02,06,12,14,24,25,29,31,32,,,,1.0,0.7,0.7*39

6:49:56:768 Nachm. 03/07/17 - $GNGSA,A,2,02,06,12,14,24,25,29,31,32,,,,1.0,0.7,0.7*27

6:49:56:769 Nachm. 03/07/17 - $GNGSA,A,2,77,78,79,81,88,,,,,,,,1.0,0.7,0.7*24

6:50:01:750 Nachm. 03/07/17 - $GPGSV,3,1,09,02,38,080,11,06,18,037,13,12,47,088,18,14,28,272,26*7F

6:50:01:751 Nachm. 03/07/17 - $GPGSV,3,2,09,24,13,153,18,25,82,322,28,29,49,213,31,31,35,305,30*7A

6:50:01:752 Nachm. 03/07/17 - $GPGSV,3,3,09,32,20,246,31*41

6:50:01:752 Nachm. 03/07/17 - $GLGSV,2,1,08,78,71,323,18,70,11,352,22,77,45,126,11,79,28,313,22*6E

6:50:01:752 Nachm. 03/07/17 - $GLGSV,2,2,08,88,61,181,24,81,11,202,23,86,04,030,,69,09,299,*61

6:50:01:753 Nachm. 03/07/17 - $GPGGA,,,,,,0,,,,,,,,*66

6:50:01:754 Nachm. 03/07/17 - $GNGNS,,,,,,NN,,,,,,*53

6:50:01:755 Nachm. 03/07/17 - $GPVTG,,T,,M,,N,,K,N*2C

6:50:01:756 Nachm. 03/07/17 - $GPRMC,,V,,,,,,,,,,N*53

6:50:01:756 Nachm. 03/07/17 - $GPGSA,A,1,,,,,,,,,,,,,,,*1E

6:50:01:757 Nachm. 03/07/17 - $GNGSA,A,1,,,,,,,,,,,,,,,*00

6:50:02:110 Nachm. 03/07/17 - $GPGSV,3,1,09,02,38,078,,06,18,037,,12,46,088,,14,28,272,*76

6:50:02:110 Nachm. 03/07/17 - $GPGSV,3,2,09,24,13,153,,25,82,324,,29,49,213,,31,35,305,*7E

6:50:02:111 Nachm. 03/07/17 - $GPGSV,3,3,09,32,20,246,*43

6:50:02:113 Nachm. 03/07/17 - $GLGSV,2,1,08,78,71,323,,70,12,352,,86,04,030,,77,45,126,*68

6:50:02:115 Nachm. 03/07/17 - $GLGSV,2,2,08,79,28,313,,69,08,299,,88,61,181,,81,11,202,*6B

6:50:02:116 Nachm. 03/07/17 - $GPGGA,,,,,,0,,,,,,,,*66

6:50:02:116 Nachm. 03/07/17 - $GNGNS,,,,,,NN,,,,,,*53

6:50:02:116 Nachm. 03/07/17 - $GPVTG,,T,,M,,N,,K,N*2C

6:50:02:116 Nachm. 03/07/17 - $GPRMC,,V,,,,,,,,,,N*53

6:50:02:117 Nachm. 03/07/17 - $GPGSA,A,1,,,,,,,,,,,,,,,*1E

6:50:02:119 Nachm. 03/07/17 - $GNGSA,A,1,,,,,,,,,,,,,,,*00

6:50:02:753 Nachm. 03/07/17 - $GPGSV,3,1,09,31,35,305,30,32,20,246,30,02,38,078,,06,18,037,*7E

6:50:02:755 Nachm. 03/07/17 - $GPGSV,3,2,09,12,46,088,,14,28,272,,24,13,153,,25,82,324,*73

6:50:02:756 Nachm. 03/07/17 - $GPGSV,3,3,09,29,49,213,*46

6:50:02:756 Nachm. 03/07/17 - $GLGSV,2,1,08,78,71,323,,70,12,352,,86,04,030,,77,45,126,*68

6:50:02:756 Nachm. 03/07/17 - $GLGSV,2,2,08,79,28,313,,69,08,299,,88,61,181,,81,11,202,*6B

6:50:02:757 Nachm. 03/07/17 - $GPGGA,174957.0,5208.345044,N,01139.062817,E,1,02,500.0,78.5,M,45.0,M,,*64

6:50:02:757 Nachm. 03/07/17 - $GNGNS,174957.0,5208.345044,N,01139.062817,E,AN,02,500.0,78.5,45.0,,*5F

6:50:02:760 Nachm. 03/07/17 - $GPVTG,292.4,T,292.0,M,0.0,N,0.0,K,A*27

6:50:02:764 Nachm. 03/07/17 - $GPRMC,174957.0,A,5208.345044,N,01139.062817,E,0.0,292.4,070317,0.4,E,A*0A

6:50:02:764 Nachm. 03/07/17 - $GPGSA,A,2,31,32,,,,,,,,,,,500.0,500.0,500.0*35

6:50:02:765 Nachm. 03/07/17 - $GNGSA,A,2,31,32,,,,,,,,,,,500.0,500.0,500.0*2B

6:50:02:765 Nachm. 03/07/17 - $GNGSA,A,2,,,,,,,,,,,,,500.0,500.0,500.0*28

6:50:03:752 Nachm. 03/07/17 - $GPGSV,3,1,09,14,28,272,20,25,82,324,24,29,49,213,24,31,35,305,19*7C

6:50:03:753 Nachm. 03/07/17 - $GPGSV,3,2,09,32,20,246,25,02,38,078,,06,18,037,,12,46,088,*79

6:50:03:753 Nachm. 03/07/17 - $GPGSV,3,3,09,24,13,153,*43

6:50:03:761 Nachm. 03/07/17 - $GLGSV,2,1,08,70,12,352,21,79,28,313,22,88,61,181,23,81,11,202,23*6E

6:50:03:762 Nachm. 03/07/17 - $GLGSV,2,2,08,78,71,323,,86,04,030,,77,45,126,,69,08,299,*6E

6:50:03:764 Nachm. 03/07/17 - $GPGGA,174958.0,5208.345273,N,01139.062664,E,1,05,1.6,78.3,M,45.0,M,,*64

6:50:03:765 Nachm. 03/07/17 - $GNGNS,174958.0,5208.345273,N,01139.062664,E,AA,08,1.6,78.3,45.0,,*5D

6:50:03:766 Nachm. 03/07/17 - $GPVTG,292.4,T,292.0,M,0.0,N,0.0,K,A*27

6:50:03:773 Nachm. 03/07/17 - $GPRMC,174958.0,A,5208.345273,N,01139.062664,E,0.0,292.4,070317,0.4,E,A*09

6:50:03:773 Nachm. 03/07/17 - $GPGSA,A,2,14,25,29,31,32,,,,,,,,1.9,1.6,0.9*3F

6:50:03:773 Nachm. 03/07/17 - $GNGSA,A,2,14,25,29,31,32,,,,,,,,1.9,1.6,0.9*21

6:50:03:775 Nachm. 03/07/17 - $GNGSA,A,2,79,81,88,,,,,,,,,,1.9,1.6,0.9*2C

6:50:04:751 Nachm. 03/07/17 - $GPGSV,3,1,09,12,46,088,17,14,28,272,19,25,82,324,21,29,49,213,24*7E

6:50:04:757 Nachm. 03/07/17 - $GPGSV,3,2,09,31,35,305,19,32,20,246,22,02,38,078,,06,18,037,*75

6:50:04:760 Nachm. 03/07/17 - $GPGSV,3,3,09,24,13,153,*43

6:50:04:761 Nachm. 03/07/17 - $GLGSV,2,1,08,70,12,352,20,79,28,313,22,88,61,181,23,81,11,202,21*6D

6:50:04:772 Nachm. 03/07/17 - $GLGSV,2,2,08,78,71,323,,86,04,030,,77,45,126,,69,08,299,*6E

6:50:04:773 Nachm. 03/07/17 - $GPGGA,174959.0,5208.345528,N,01139.062687,E,1,06,1.1,78.3,M,45.0,M,,*65

6:50:04:773 Nachm. 03/07/17 - $GNGNS,174959.0,5208.345528,N,01139.062687,E,AA,09,1.1,78.3,45.0,,*5E

6:50:04:775 Nachm. 03/07/17 - $GPVTG,292.4,T,292.0,M,0.0,N,0.0,K,A*27

6:50:04:775 Nachm. 03/07/17 - $GPRMC,174959.0,A,5208.345528,N,01139.062687,E,0.0,292.4,070317,0.4,E,A*0C

6:50:04:776 Nachm. 03/07/17 - $GPGSA,A,2,12,14,25,29,31,32,,,,,,,1.4,1.1,0.9*36

6:50:04:777 Nachm. 03/07/17 - $GNGSA,A,2,12,14,25,29,31,32,,,,,,,1.4,1.1,0.9*28

6:50:04:778 Nachm. 03/07/17 - $GNGSA,A,2,79,81,88,,,,,,,,,,1.4,1.1,0.9*26

6:50:05:752 Nachm. 03/07/17 - $GPGSV,3,1,09,12,46,088,17,14,28,272,19,25,82,324,20,29,49,213,25*7E

6:50:05:754 Nachm. 03/07/17 - $GPGSV,3,2,09,31,35,305,19,32,20,246,25,02,38,078,,06,18,037,*72

6:50:05:755 Nachm. 03/07/17 - $GPGSV,3,3,09,24,13,153,*43

6:50:05:756 Nachm. 03/07/17 - $GLGSV,2,1,08,78,71,323,17,70,12,352,20,79,28,313,24,88,61,181,13*6F

6:50:05:757 Nachm. 03/07/17 - $GLGSV,2,2,08,81,11,202,21,86,04,030,,77,45,126,,69,08,299,*6F

6:50:05:764 Nachm. 03/07/17 - $GPGGA,175000.0,5208.345775,N,01139.062589,E,1,06,1.1,78.0,M,45.0,M,,*65

6:50:05:765 Nachm. 03/07/17 - $GNGNS,175000.0,5208.345775,N,01139.062589,E,AA,10,1.1,78.0,45.0,,*56

6:50:05:765 Nachm. 03/07/17 - $GPVTG,292.4,T,292.0,M,0.0,N,0.0,K,A*27

6:50:05:766 Nachm. 03/07/17 - $GPRMC,175000.0,A,5208.345775,N,01139.062589,E,0.0,292.4,070317,0.4,E,A*0F

6:50:05:766 Nachm. 03/07/17 - $GPGSA,A,2,12,14,25,29,31,32,,,,,,,1.4,1.1,0.9*36

6:50:05:767 Nachm. 03/07/17 - $GNGSA,A,2,12,14,25,29,31,32,,,,,,,1.4,1.1,0.9*28

6:50:05:768 Nachm. 03/07/17 - $GNGSA,A,2,78,79,81,88,,,,,,,,,1.4,1.1,0.9*29

6:50:06:753 Nachm. 03/07/17 - $GPGSV,3,1,09,12,46,088,18,14,28,272,18,25,82,324,28,29,49,213,28*75

6:50:06:755 Nachm. 03/07/17 - $GPGSV,3,2,09,31,35,305,24,32,20,246,30,02,38,078,,06,18,037,*78

6:50:06:756 Nachm. 03/07/17 - $GPGSV,3,3,09,24,13,153,*43

6:50:06:757 Nachm. 03/07/17 - $GLGSV,2,1,08,78,71,323,16,70,12,352,21,79,28,313,27,88,61,181,17*68

6:50:06:775 Nachm. 03/07/17 - $GLGSV,2,2,08,81,11,202,24,86,04,030,,77,45,126,,69,08,299,*6A

6:50:06:778 Nachm. 03/07/17 - $GPGGA,175001.0,5208.345898,N,01139.062387,E,1,06,1.1,78.6,M,45.0,M,,*66

6:50:06:779 Nachm. 03/07/17 - $GNGNS,175001.0,5208.345898,N,01139.062387,E,AA,10,1.1,78.6,45.0,,*55

6:50:06:779 Nachm. 03/07/17 - $GPVTG,292.4,T,292.0,M,0.0,N,0.0,K,A*27

6:50:06:779 Nachm. 03/07/17 - $GPRMC,175001.0,A,5208.345898,N,01139.062387,E,0.0,292.4,070317,0.4,E,A*0A

6:50:06:780 Nachm. 03/07/17 - $GPGSA,A,2,12,14,25,29,31,32,,,,,,,1.4,1.1,0.9*36

6:50:06:780 Nachm. 03/07/17 - $GNGSA,A,2,12,14,25,29,31,32,,,,,,,1.4,1.1,0.9*28

6:50:06:780 Nachm. 03/07/17 - $GNGSA,A,2,78,79,81,88,,,,,,,,,1.4,1.1,0.9*29

6:50:07:753 Nachm. 03/07/17 - $GPGSV,3,1,09,12,46,088,17,14,28,272,18,25,82,324,27,29,49,213,30*7C

6:50:07:754 Nachm. 03/07/17 - $GPGSV,3,2,09,31,35,305,27,32,20,246,28,02,38,078,,06,18,037,*72

6:50:07:756 Nachm. 03/07/17 - $GPGSV,3,3,09,24,13,153,*43

6:50:07:770 Nachm. 03/07/17 - $GLGSV,2,1,08,78,71,323,16,70,12,352,22,79,28,313,20,88,61,181,17*6C

6:50:07:775 Nachm. 03/07/17 - $GLGSV,2,2,08,81,11,202,23,86,04,030,,77,45,126,,69,08,299,*6D

6:50:07:775 Nachm. 03/07/17 - $GPGGA,175002.0,5208.345988,N,01139.062952,E,1,06,1.1,75.0,M,45.0,M,,*6C

6:50:07:776 Nachm. 03/07/17 - $GNGNS,175002.0,5208.345988,N,01139.062952,E,AA,10,1.1,75.0,45.0,,*5F

6:50:07:778 Nachm. 03/07/17 - $GPVTG,292.4,T,292.0,M,0.0,N,0.0,K,A*27

6:50:07:778 Nachm. 03/07/17 - $GPRMC,175002.0,A,5208.345988,N,01139.062952,E,0.0,292.4,070317,0.4,E,A*0B

6:50:07:779 Nachm. 03/07/17 - $GPGSA,A,2,12,14,25,29,31,32,,,,,,,1.4,1.1,0.9*36

6:50:07:779 Nachm. 03/07/17 - $GNGSA,A,2,12,14,25,29,31,32,,,,,,,1.4,1.1,0.9*28

6:50:07:780 Nachm. 03/07/17 - $GNGSA,A,2,78,79,81,88,,,,,,,,,1.4,1.1,0.9*29

6:50:08:752 Nachm. 03/07/17 - $GPGSV,3,1,09,06,18,037,14,12,46,088,17,14,28,272,17,25,82,324,22*7D

6:50:08:754 Nachm. 03/07/17 - $GPGSV,3,2,09,29,49,213,21,31,35,305,29,32,20,246,24,02,38,078,*7E

6:50:08:754 Nachm. 03/07/17 - $GPGSV,3,3,09,24,13,153,*43

6:50:08:770 Nachm. 03/07/17 - $GLGSV,2,1,08,78,71,323,16,70,12,352,25,79,28,313,20,88,61,181,17*6B

6:50:08:774 Nachm. 03/07/17 - $GLGSV,2,2,08,81,11,202,23,86,04,030,,77,45,126,,69,08,299,*6D

6:50:08:775 Nachm. 03/07/17 - $GPGGA,175003.0,5208.346067,N,01139.062923,E,1,07,0.9,74.7,M,45.0,M,,*6E

6:50:08:776 Nachm. 03/07/17 - $GNGNS,175003.0,5208.346067,N,01139.062923,E,AA,11,0.9,74.7,45.0,,*5D

6:50:08:777 Nachm. 03/07/17 - $GPVTG,292.4,T,292.0,M,0.0,N,0.0,K,A*27

6:50:08:777 Nachm. 03/07/17 - $GPRMC,175003.0,A,5208.346067,N,01139.062923,E,0.0,292.4,070317,0.4,E,A*07

6:50:08:778 Nachm. 03/07/17 - $GPGSA,A,2,06,12,14,25,29,31,32,,,,,,1.2,0.9,0.8*3E

6:50:08:778 Nachm. 03/07/17 - $GNGSA,A,2,06,12,14,25,29,31,32,,,,,,1.2,0.9,0.8*20

6:50:08:779 Nachm. 03/07/17 - $GNGSA,A,2,78,79,81,88,,,,,,,,,1.2,0.9,0.8*27

6:50:09:752 Nachm. 03/07/17 - $GPGSV,3,1,09,06,18,037,13,12,46,088,17,14,28,272,18,25,82,324,23*74

6:50:09:753 Nachm. 03/07/17 - $GPGSV,3,2,09,29,49,213,24,31,35,305,33,32,20,246,23,02,38,078,*77

6:50:09:754 Nachm. 03/07/17 - $GPGSV,3,3,09,24,13,153,*43

6:50:09:754 Nachm. 03/07/17 - $GLGSV,2,1,08,78,71,323,15,70,12,352,25,79,28,313,22,88,61,181,14*69

6:50:09:767 Nachm. 03/07/17 - $GLGSV,2,2,08,81,11,202,19,86,04,030,,77,45,126,,69,08,299,*64

6:50:09:775 Nachm. 03/07/17 - $GPGGA,175004.0,5208.346266,N,01139.062598,E,1,07,0.9,75.0,M,45.0,M,,*60

6:50:09:775 Nachm. 03/07/17 - $GNGNS,175004.0,5208.346266,N,01139.062598,E,AA,11,0.9,75.0,45.0,,*53

6:50:09:775 Nachm. 03/07/17 - $GPVTG,292.4,T,292.0,M,0.0,N,0.0,K,A*27

6:50:09:776 Nachm. 03/07/17 - $GPRMC,175004.0,A,5208.346266,N,01139.062598,E,0.0,292.4,070317,0.4,E,A*0F

6:50:09:776 Nachm. 03/07/17 - $GPGSA,A,2,06,12,14,25,29,31,32,,,,,,1.2,0.9,0.8*3E

6:50:09:776 Nachm. 03/07/17 - $GNGSA,A,2,06,12,14,25,29,31,32,,,,,,1.2,0.9,0.8*20

6:50:09:776 Nachm. 03/07/17 - $GNGSA,A,2,78,79,81,88,,,,,,,,,1.2,0.9,0.8*27

6:50:10:752 Nachm. 03/07/17 - $GPGSV,3,1,09,06,18,037,15,12,46,088,17,14,28,272,27,25,82,324,25*78

6:50:10:757 Nachm. 03/07/17 - $GPGSV,3,2,09,29,49,213,24,31,35,305,35,32,20,246,23,02,38,078,*71

6:50:10:760 Nachm. 03/07/17 - $GPGSV,3,3,09,24,13,153,*43

6:50:10:760 Nachm. 03/07/17 - $GLGSV,2,1,08,78,71,323,15,70,12,352,26,79,28,313,22,88,61,181,14*6A

6:50:10:761 Nachm. 03/07/17 - $GLGSV,2,2,08,81,11,202,23,86,04,030,,77,45,126,,69,08,299,*6D

6:50:10:766 Nachm. 03/07/17 - $GPGGA,175005.0,5208.346498,N,01139.062635,E,1,07,0.9,74.8,M,45.0,M,,*6B

6:50:10:767 Nachm. 03/07/17 - $GNGNS,175005.0,5208.346498,N,01139.062635,E,AA,11,0.9,74.8,45.0,,*58

6:50:10:767 Nachm. 03/07/17 - $GPVTG,292.4,T,292.0,M,0.0,N,0.0,K,A*27

6:50:10:774 Nachm. 03/07/17 - $GPRMC,175005.0,A,5208.346498,N,01139.062635,E,0.0,292.4,070317,0.4,E,A*0D

6:50:10:775 Nachm. 03/07/17 - $GPGSA,A,2,06,12,14,25,29,31,32,,,,,,1.2,0.9,0.8*3E

6:50:10:775 Nachm. 03/07/17 - $GNGSA,A,2,06,12,14,25,29,31,32,,,,,,1.2,0.9,0.8*20

6:50:10:776 Nachm. 03/07/17 - $GNGSA,A,2,78,79,81,88,,,,,,,,,1.2,0.9,0.8*27

6:50:11:752 Nachm. 03/07/17 - $GPGSV,3,1,09,06,18,037,17,12,46,088,16,14,28,272,26,25,82,324,24*7B

6:50:11:754 Nachm. 03/07/17 - $GPGSV,3,2,09,29,49,213,25,31,35,305,34,32,20,246,26,02,38,078,*74

6:50:11:757 Nachm. 03/07/17 - $GPGSV,3,3,09,24,13,153,*43

6:50:11:772 Nachm. 03/07/17 - $GLGSV,2,1,08,78,71,323,15,70,12,352,24,79,28,313,22,88,61,181,14*68

6:50:11:774 Nachm. 03/07/17 - $GLGSV,2,2,08,81,11,202,23,86,04,030,,77,45,126,,69,08,299,*6D

6:50:11:774 Nachm. 03/07/17 - $GPGGA,175006.0,5208.346929,N,01139.062280,E,1,07,0.9,76.4,M,45.0,M,,*6B

6:50:11:775 Nachm. 03/07/17 - $GNGNS,175006.0,5208.346929,N,01139.062280,E,AA,11,0.9,76.4,45.0,,*58

6:50:11:776 Nachm. 03/07/17 - $GPVTG,292.4,T,292.0,M,0.0,N,0.0,K,A*27

6:50:11:777 Nachm. 03/07/17 - $GPRMC,175006.0,A,5208.346929,N,01139.062280,E,0.0,292.4,070317,0.4,E,A*03

6:50:11:777 Nachm. 03/07/17 - $GPGSA,A,2,06,12,14,25,29,31,32,,,,,,1.2,0.9,0.8*3E

6:50:11:778 Nachm. 03/07/17 - $GNGSA,A,2,06,12,14,25,29,31,32,,,,,,1.2,0.9,0.8*20

6:50:11:778 Nachm. 03/07/17 - $GNGSA,A,2,78,79,81,88,,,,,,,,,1.2,0.9,0.8*27

6:50:12:753 Nachm. 03/07/17 - $GPGSV,3,1,09,06,18,037,30,12,46,088,16,14,28,272,28,25,82,324,22*76

6:50:12:756 Nachm. 03/07/17 - $GPGSV,3,2,09,29,49,213,23,31,35,305,34,32,20,246,22,02,38,078,*76

6:50:12:764 Nachm. 03/07/17 - $GPGSV,3,3,09,24,13,153,*43

6:50:12:772 Nachm. 03/07/17 - $GLGSV,2,1,08,78,71,323,15,70,12,352,20,79,28,313,24,88,61,181,14*6A

6:50:12:772 Nachm. 03/07/17 - $GLGSV,2,2,08,81,11,202,21,86,04,030,,77,45,126,,69,08,299,*6F

6:50:12:772 Nachm. 03/07/17 - $GPGGA,175007.0,5208.347743,N,01139.066881,E,1,07,0.9,69.1,M,45.0,M,,*6D

6:50:12:773 Nachm. 03/07/17 - $GNGNS,175007.0,5208.347743,N,01139.066881,E,AA,11,0.9,69.1,45.0,,*5E

6:50:12:773 Nachm. 03/07/17 - $GPVTG,292.4,T,292.0,M,0.0,N,0.0,K,A*27

6:50:12:773 Nachm. 03/07/17 - $GPRMC,175007.0,A,5208.347743,N,01139.066881,E,0.0,292.4,070317,0.4,E,A*0E

6:50:12:773 Nachm. 03/07/17 - $GPGSA,A,2,06,12,14,25,29,31,32,,,,,,1.2,0.9,0.8*3E

6:50:12:773 Nachm. 03/07/17 - $GNGSA,A,2,06,12,14,25,29,31,32,,,,,,1.2,0.9,0.8*20

6:50:12:774 Nachm. 03/07/17 - $GNGSA,A,2,78,79,81,88,,,,,,,,,1.2,0.9,0.8*27

6:50:13:752 Nachm. 03/07/17 - $GPGSV,3,1,09,06,18,037,30,12,46,088,16,14,28,272,27,25,82,324,22*79

6:50:13:755 Nachm. 03/07/17 - $GPGSV,3,2,09,29,49,213,21,31,35,305,34,32,20,246,21,02,38,078,*77

6:50:13:762 Nachm. 03/07/17 - $GPGSV,3,3,09,24,13,153,*43

6:50:13:780 Nachm. 03/07/17 - $GLGSV,2,1,08,78,71,323,15,70,12,352,17,79,28,313,25,88,61,181,16*6D

6:50:13:781 Nachm. 03/07/17 - $GLGSV,2,2,08,81,11,202,21,86,04,030,,77,45,126,,69,08,299,*6F

6:50:13:782 Nachm. 03/07/17 - $GPGGA,175008.0,5208.347848,N,01139.066182,E,1,07,0.9,69.2,M,45.0,M,,*6F

6:50:13:782 Nachm. 03/07/17 - $GNGNS,175008.0,5208.347848,N,01139.066182,E,AA,11,0.9,69.2,45.0,,*5C

6:50:13:783 Nachm. 03/07/17 - $GPVTG,283.7,T,283.2,M,2.6,N,4.9,K,A*2F

6:50:13:784 Nachm. 03/07/17 - $GPRMC,175008.0,A,5208.347848,N,01139.066182,E,2.6,283.7,070317,0.4,E,A*08

6:50:13:784 Nachm. 03/07/17 - $GPGSA,A,2,06,12,14,25,29,31,32,,,,,,1.2,0.9,0.8*3E

6:50:13:785 Nachm. 03/07/17 - $GNGSA,A,2,06,12,14,25,29,31,32,,,,,,1.2,0.9,0.8*20

6:50:13:786 Nachm. 03/07/17 - $GNGSA,A,2,78,79,81,88,,,,,,,,,1.2,0.9,0.8*27

6:50:14:753 Nachm. 03/07/17 - $GPGSV,3,1,09,02,38,078,12,06,18,037,30,12,46,088,17,14,28,272,24*76

6:50:14:754 Nachm. 03/07/17 - $GPGSV,3,2,09,25,82,324,24,29,49,213,21,31,35,305,35,32,20,246,23*7C

6:50:14:755 Nachm. 03/07/17 - $GPGSV,3,3,09,24,13,153,*43

6:50:14:755 Nachm. 03/07/17 - $GLGSV,2,1,08,78,71,323,15,70,12,352,21,86,04,030,12,79,28,313,25*6A

6:50:14:765 Nachm. 03/07/17 - $GLGSV,2,2,08,88,61,181,19,81,11,202,21,77,45,126,,69,08,299,*61

6:50:14:766 Nachm. 03/07/17 - $GPGGA,175009.0,5208.348822,N,01139.065574,E,1,07,0.9,66.3,M,45.0,M,,*6D

6:50:14:767 Nachm. 03/07/17 - $GNGNS,175009.0,5208.348822,N,01139.065574,E,AA,11,0.9,66.3,45.0,,*5E

6:50:14:775 Nachm. 03/07/17 - $GPVTG,287.8,T,287.4,M,2.7,N,5.0,K,A*2F

6:50:14:776 Nachm. 03/07/17 - $GPRMC,175009.0,A,5208.348822,N,01139.065574,E,2.7,287.8,070317,0.4,E,A*0E

6:50:14:777 Nachm. 03/07/17 - $GPGSA,A,2,06,12,14,25,29,31,32,,,,,,1.2,0.9,0.8*3E

6:50:14:779 Nachm. 03/07/17 - $GNGSA,A,2,06,12,14,25,29,31,32,,,,,,1.2,0.9,0.8*20

6:50:14:779 Nachm. 03/07/17 - $GNGSA,A,2,78,79,81,88,,,,,,,,,1.2,0.9,0.8*27

6:50:15:751 Nachm. 03/07/17 - $GPGSV,3,1,09,02,38,078,12,06,18,037,30,12,46,088,22,14,28,272,24*70

6:50:15:752 Nachm. 03/07/17 - $GPGSV,3,2,09,25,82,324,24,29,49,213,24,31,35,305,35,32,20,246,24*7E

6:50:15:753 Nachm. 03/07/17 - $GPGSV,3,3,09,24,13,153,*43

6:50:15:753 Nachm. 03/07/17 - $GLGSV,2,1,08,78,71,323,15,70,12,352,21,86,04,030,12,79,28,313,24*6B

6:50:15:754 Nachm. 03/07/17 - $GLGSV,2,2,08,88,61,181,19,81,11,202,27,77,45,126,,69,08,299,*67

6:50:15:759 Nachm. 03/07/17 - $GPGGA,175010.0,5208.349551,N,01139.065216,E,1,08,0.8,62.7,M,45.0,M,,*60

6:50:15:759 Nachm. 03/07/17 - $GNGNS,175010.0,5208.349551,N,01139.065216,E,AA,12,0.8,62.7,45.0,,*5F

6:50:15:760 Nachm. 03/07/17 - $GPVTG,283.3,T,282.8,M,2.4,N,4.4,K,A*2F

6:50:15:761 Nachm. 03/07/17 - $GPRMC,175010.0,A,5208.349551,N,01139.065216,E,2.4,283.3,070317,0.4,E,A*01

6:50:15:762 Nachm. 03/07/17 - $GPGSA,A,2,02,06,12,14,25,29,31,32,,,,,1.1,0.8,0.8*3E

6:50:15:762 Nachm. 03/07/17 - $GNGSA,A,2,02,06,12,14,25,29,31,32,,,,,1.1,0.8,0.8*20

6:50:15:762 Nachm. 03/07/17 - $GNGSA,A,2,78,79,81,88,,,,,,,,,1.1,0.8,0.8*25

6:50:16:751 Nachm. 03/07/17 - $GPGSV,3,1,09,02,38,078,19,06,18,037,28,12,46,088,23,14,28,272,24*73

6:50:16:753 Nachm. 03/07/17 - $GPGSV,3,2,09,25,82,324,24,29,49,213,26,31,35,305,33,32,20,246,22*7C

6:50:16:754 Nachm. 03/07/17 - $GPGSV,3,3,09,24,13,153,*43

6:50:16:757 Nachm. 03/07/17 - $GLGSV,2,1,08,78,71,323,15,70,12,352,27,86,04,030,12,77,45,126,19*62

6:50:16:758 Nachm. 03/07/17 - $GLGSV,2,2,08,79,28,313,24,88,61,181,17,81,11,202,23,69,08,299,*6A

6:50:16:758 Nachm. 03/07/17 - $GPGGA,175011.0,5208.350337,N,01139.065303,E,1,08,0.8,60.2,M,45.0,M,,*6D

6:50:16:761 Nachm. 03/07/17 - $GNGNS,175011.0,5208.350337,N,01139.065303,E,AA,13,0.8,60.2,45.0,,*53

6:50:16:762 Nachm. 03/07/17 - $GPVTG,266.3,T,265.8,M,1.9,N,3.5,K,A*25

6:50:16:762 Nachm. 03/07/17 - $GPRMC,175011.0,A,5208.350337,N,01139.065303,E,1.9,266.3,070317,0.4,E,A*0E

6:50:16:762 Nachm. 03/07/17 - $GPGSA,A,2,02,06,12,14,25,29,31,32,,,,,1.1,0.8,0.8*3E

6:50:16:763 Nachm. 03/07/17 - $GNGSA,A,2,02,06,12,14,25,29,31,32,,,,,1.1,0.8,0.8*20

6:50:16:766 Nachm. 03/07/17 - $GNGSA,A,2,77,78,79,81,88,,,,,,,,1.1,0.8,0.8*25

6:50:17:752 Nachm. 03/07/17 - $GPGSV,3,1,09,02,38,078,22,06,18,037,30,12,46,088,23,14,28,272,27*71

6:50:17:763 Nachm. 03/07/17 - $GPGSV,3,2,09,24,13,153,16,25,82,324,26,29,49,213,21,31,35,305,36*7B

6:50:17:765 Nachm. 03/07/17 - $GPGSV,3,3,09,32,20,246,23*42

6:50:17:768 Nachm. 03/07/17 - $GLGSV,2,1,08,78,71,323,18,70,12,352,27,86,04,030,12,77,45,126,19*6F

6:50:17:769 Nachm. 03/07/17 - $GLGSV,2,2,08,79,28,313,25,88,61,181,17,81,11,202,21,69,08,299,*69

6:50:17:769 Nachm. 03/07/17 - $GPGGA,175012.0,5208.350735,N,01139.065920,E,1,08,0.8,59.8,M,45.0,M,,*63

6:50:17:770 Nachm. 03/07/17 - $GNGNS,175012.0,5208.350735,N,01139.065920,E,AA,13,0.8,59.8,45.0,,*5D

6:50:17:772 Nachm. 03/07/17 - $GPVTG,284.2,T,283.7,M,1.7,N,3.2,K,A*26

6:50:17:776 Nachm. 03/07/17 - $GPRMC,175012.0,A,5208.350735,N,01139.065920,E,1.7,284.2,070317,0.4,E,A*03

6:50:17:776 Nachm. 03/07/17 - $GPGSA,A,2,02,06,12,14,25,29,31,32,,,,,1.1,0.8,0.8*3E

6:50:17:777 Nachm. 03/07/17 - $GNGSA,A,2,02,06,12,14,25,29,31,32,,,,,1.1,0.8,0.8*20

6:50:17:777 Nachm. 03/07/17 - $GNGSA,A,2,77,78,79,81,88,,,,,,,,1.1,0.8,0.8*25

6:50:18:752 Nachm. 03/07/17 - $GPGSV,3,1,09,02,38,078,25,06,18,037,30,12,46,088,25,14,28,272,27*70

6:50:18:754 Nachm. 03/07/17 - $GPGSV,3,2,09,24,13,153,16,25,82,324,24,29,49,213,24,31,35,305,34*7E

6:50:18:760 Nachm. 03/07/17 - $GPGSV,3,3,09,32,20,246,24*45

6:50:18:774 Nachm. 03/07/17 - $GLGSV,2,1,08,78,71,323,18,70,12,352,24,86,04,030,15,77,45,126,19*6B

6:50:18:775 Nachm. 03/07/17 - $GLGSV,2,2,08,79,28,313,21,88,61,181,17,81,11,202,21,69,08,299,*6D

6:50:18:775 Nachm. 03/07/17 - $GPGGA,175013.0,5208.352373,N,01139.065106,E,1,09,0.7,62.7,M,45.0,M,,*63

6:50:18:776 Nachm. 03/07/17 - $GNGNS,175013.0,5208.352373,N,01139.065106,E,AA,14,0.7,62.7,45.0,,*5B

6:50:18:776 Nachm. 03/07/17 - $GPVTG,324.8,T,324.4,M,3.3,N,6.1,K,A*28

6:50:18:776 Nachm. 03/07/17 - $GPRMC,175013.0,A,5208.352373,N,01139.065106,E,3.3,324.8,070317,0.4,E,A*0D

6:50:18:776 Nachm. 03/07/17 - $GPGSA,A,2,02,06,12,14,24,25,29,31,32,,,,1.0,0.7,0.7*39

6:50:18:777 Nachm. 03/07/17 - $GNGSA,A,2,02,06,12,14,24,25,29,31,32,,,,1.0,0.7,0.7*27

6:50:18:777 Nachm. 03/07/17 - $GNGSA,A,2,77,78,79,81,88,,,,,,,,1.0,0.7,0.7*24

6:50:19:752 Nachm. 03/07/17 - $GPGSV,3,1,09,02,38,078,20,06,18,037,24,12,46,088,24,14,28,272,30*77

6:50:19:753 Nachm. 03/07/17 - $GPGSV,3,2,09,24,13,153,16,25,82,324,24,29,49,213,23,31,35,305,34*79

6:50:19:756 Nachm. 03/07/17 - $GPGSV,3,3,09,32,20,246,21*40

6:50:19:758 Nachm. 03/07/17 - $GLGSV,2,1,08,78,71,323,19,70,12,352,24,86,04,030,18,77,45,126,18*66

6:50:19:773 Nachm. 03/07/17 - $GLGSV,2,2,08,79,28,313,25,88,61,181,17,81,11,202,21,69,08,299,*69

6:50:19:774 Nachm. 03/07/17 - $GPGGA,175014.0,5208.352487,N,01139.063938,E,1,09,0.7,61.0,M,45.0,M,,*6F

6:50:19:774 Nachm. 03/07/17 - $GNGNS,175014.0,5208.352487,N,01139.063938,E,AA,14,0.7,61.0,45.0,,*57

6:50:19:775 Nachm. 03/07/17 - $GPVTG,284.3,T,283.9,M,3.0,N,5.5,K,A*2D

6:50:19:775 Nachm. 03/07/17 - $GPRMC,175014.0,A,5208.352487,N,01139.063938,E,3.0,284.3,070317,0.4,E,A*06

6:50:19:776 Nachm. 03/07/17 - $GPGSA,A,2,02,06,12,14,24,25,29,31,32,,,,1.0,0.7,0.7*39

6:50:19:776 Nachm. 03/07/17 - $GNGSA,A,2,02,06,12,14,24,25,29,31,32,,,,1.0,0.7,0.7*27

6:50:19:776 Nachm. 03/07/17 - $GNGSA,A,2,77,78,79,81,88,,,,,,,,1.0,0.7,0.7*24

6:50:20:752 Nachm. 03/07/17 - $GPGSV,3,1,09,02,38,078,20,06,18,037,20,12,46,088,19,14,28,272,29*75

6:50:20:754 Nachm. 03/07/17 - $GPGSV,3,2,09,24,13,153,16,25,82,324,27,29,49,213,23,31,35,305,34*7A

6:50:20:759 Nachm. 03/07/17 - $GPGSV,3,3,09,32,20,246,26*47

6:50:20:762 Nachm. 03/07/17 - $GLGSV,2,1,08,78,71,323,18,70,12,352,24,86,04,030,18,77,45,126,18*67

6:50:20:763 Nachm. 03/07/17 - $GLGSV,2,2,08,79,28,313,25,69,08,299,13,88,61,181,12,81,11,202,26*69

6:50:20:771 Nachm. 03/07/17 - $GPGGA,175015.0,5208.353240,N,01139.062766,E,1,09,0.7,61.8,M,45.0,M,,*6E

6:50:20:775 Nachm. 03/07/17 - $GNGNS,175015.0,5208.353240,N,01139.062766,E,AA,15,0.7,61.8,45.0,,*57

6:50:20:775 Nachm. 03/07/17 - $GPVTG,277.7,T,277.3,M,2.2,N,4.0,K,A*23

6:50:20:776 Nachm. 03/07/17 - $GPRMC,175015.0,A,5208.353240,N,01139.062766,E,2.2,277.7,070317,0.4,E,A*04

6:50:20:777 Nachm. 03/07/17 - $GPGSA,A,2,02,06,12,14,24,25,29,31,32,,,,1.0,0.7,0.7*39

6:50:20:777 Nachm. 03/07/17 - $GNGSA,A,2,02,06,12,14,24,25,29,31,32,,,,1.0,0.7,0.7*27

6:50:20:779 Nachm. 03/07/17 - $GNGSA,A,2,69,77,78,79,81,88,,,,,,,1.0,0.7,0.7*2B

6:50:21:752 Nachm. 03/07/17 - $GPGSV,3,1,09,02,38,078,17,06,18,037,20,12,46,088,19,14,28,272,30*79

6:50:21:754 Nachm. 03/07/17 - $GPGSV,3,2,09,24,13,153,16,25,82,324,28,29,49,213,23,31,35,305,31*70

6:50:21:755 Nachm. 03/07/17 - $GPGSV,3,3,09,32,20,246,25*44

6:50:21:770 Nachm. 03/07/17 - $GLGSV,2,1,08,78,71,323,19,70,12,352,24,86,04,030,18,77,45,126,17*69

6:50:21:771 Nachm. 03/07/17 - $GLGSV,2,2,08,79,28,313,26,69,08,299,13,88,61,181,12,81,11,202,21*6D

6:50:21:771 Nachm. 03/07/17 - $GPGGA,175016.0,5208.353490,N,01139.060814,E,1,09,0.7,60.9,M,45.0,M,,*6E

6:50:21:776 Nachm. 03/07/17 - $GNGNS,175016.0,5208.353490,N,01139.060814,E,AA,15,0.7,60.9,45.0,,*57

6:50:21:776 Nachm. 03/07/17 - $GPVTG,273.9,T,273.4,M,2.8,N,5.2,K,A*23

6:50:21:776 Nachm. 03/07/17 - $GPRMC,175016.0,A,5208.353490,N,01139.060814,E,2.8,273.9,070317,0.4,E,A*04

6:50:21:776 Nachm. 03/07/17 - $GPGSA,A,2,02,06,12,14,24,25,29,31,32,,,,1.0,0.7,0.7*39

6:50:21:776 Nachm. 03/07/17 - $GNGSA,A,2,02,06,12,14,24,25,29,31,32,,,,1.0,0.7,0.7*27

6:50:21:777 Nachm. 03/07/17 - $GNGSA,A,2,69,77,78,79,81,88,,,,,,,1.0,0.7,0.7*2B

6:50:22:751 Nachm. 03/07/17 - $GPGSV,3,1,09,02,38,078,17,06,18,037,19,12,46,088,21,14,28,272,30*78

6:50:22:752 Nachm. 03/07/17 - $GPGSV,3,2,09,24,13,153,16,25,82,324,27,29,49,213,22,31,35,305,33*7C

6:50:22:753 Nachm. 03/07/17 - $GPGSV,3,3,09,32,20,246,30*40

6:50:22:763 Nachm. 03/07/17 - $GLGSV,2,1,08,78,71,323,20,70,12,352,21,86,04,030,19,77,45,126,17*67

6:50:22:765 Nachm. 03/07/17 - $GLGSV,2,2,08,79,28,313,29,69,08,299,13,88,61,181,12,81,11,202,23*60

6:50:22:766 Nachm. 03/07/17 - $GPGGA,175017.0,5208.354093,N,01139.058862,E,1,09,0.7,60.6,M,45.0,M,,*6A

6:50:22:767 Nachm. 03/07/17 - $GNGNS,175017.0,5208.354093,N,01139.058862,E,AA,15,0.7,60.6,45.0,,*53

6:50:22:767 Nachm. 03/07/17 - $GPVTG,273.5,T,273.1,M,2.9,N,5.3,K,A*2A

6:50:22:768 Nachm. 03/07/17 - $GPRMC,175017.0,A,5208.354093,N,01139.058862,E,2.9,273.5,070317,0.4,E,A*02

6:50:22:770 Nachm. 03/07/17 - $GPGSA,A,2,02,06,12,14,24,25,29,31,32,,,,1.0,0.7,0.7*39

6:50:22:779 Nachm. 03/07/17 - $GNGSA,A,2,02,06,12,14,24,25,29,31,32,,,,1.0,0.7,0.7*27

6:50:22:780 Nachm. 03/07/17 - $GNGSA,A,2,69,77,78,79,81,88,,,,,,,1.0,0.7,0.7*2B

6:50:23:751 Nachm. 03/07/17 - $GPGSV,3,1,09,02,38,078,17,06,18,037,25,12,46,088,22,14,28,272,31*75

6:50:23:752 Nachm. 03/07/17 - $GPGSV,3,2,09,24,13,153,16,25,82,324,27,29,49,213,22,31,35,305,35*7A

6:50:23:752 Nachm. 03/07/17 - $GPGSV,3,3,09,32,20,246,29*48

6:50:23:761 Nachm. 03/07/17 - $GLGSV,2,1,08,78,71,323,22,70,12,352,26,86,04,030,19,77,45,126,16*63

6:50:23:762 Nachm. 03/07/17 - $GLGSV,2,2,08,79,28,313,29,69,08,299,14,88,61,181,12,81,11,202,25*61

6:50:23:762 Nachm. 03/07/17 - $GPGGA,175018.0,5208.354432,N,01139.057867,E,1,09,0.7,60.6,M,45.0,M,,*60

6:50:23:763 Nachm. 03/07/17 - $GNGNS,175018.0,5208.354432,N,01139.057867,E,AA,15,0.7,60.6,45.0,,*59

6:50:23:763 Nachm. 03/07/17 - $GPVTG,277.1,T,276.6,M,2.2,N,4.2,K,A*23

6:50:23:764 Nachm. 03/07/17 - $GPRMC,175018.0,A,5208.354432,N,01139.057867,E,2.2,277.1,070317,0.4,E,A*03

6:50:23:764 Nachm. 03/07/17 - $GPGSA,A,2,02,06,12,14,24,25,29,31,32,,,,1.0,0.7,0.7*39

6:50:23:764 Nachm. 03/07/17 - $GNGSA,A,2,02,06,12,14,24,25,29,31,32,,,,1.0,0.7,0.7*27

6:50:23:765 Nachm. 03/07/17 - $GNGSA,A,2,69,77,78,79,81,88,,,,,,,1.0,0.7,0.7*2B

6:50:24:754 Nachm. 03/07/17 - $GPGSV,3,1,09,02,38,078,26,06,18,037,27,12,46,088,25,14,28,272,28*7A

6:50:24:757 Nachm. 03/07/17 - $GPGSV,3,2,09,24,13,153,16,25,82,324,25,29,49,213,20,31,35,305,35*7A

6:50:24:762 Nachm. 03/07/17 - $GPGSV,3,3,09,32,20,246,28*49

6:50:24:764 Nachm. 03/07/17 - $GLGSV,2,1,08,78,71,323,19,70,12,352,23,86,04,030,19,77,45,126,16*6E

6:50:24:772 Nachm. 03/07/17 - $GLGSV,2,2,08,79,28,313,29,69,08,299,14,88,61,181,12,81,11,202,22*66

6:50:24:773 Nachm. 03/07/17 - $GPGGA,175019.0,5208.355313,N,01139.057266,E,1,09,0.7,60.5,M,45.0,M,,*6C

6:50:24:773 Nachm. 03/07/17 - $GNGNS,175019.0,5208.355313,N,01139.057266,E,AA,15,0.7,60.5,45.0,,*55

6:50:24:774 Nachm. 03/07/17 - $GPVTG,310.3,T,309.9,M,2.5,N,4.7,K,A*25

6:50:24:774 Nachm. 03/07/17 - $GPRMC,175019.0,A,5208.355313,N,01139.057266,E,2.5,310.3,070317,0.4,E,A*09

6:50:24:775 Nachm. 03/07/17 - $GPGSA,A,2,02,06,12,14,24,25,29,31,32,,,,1.0,0.7,0.7*39

6:50:24:777 Nachm. 03/07/17 - $GNGSA,A,2,02,06,12,14,24,25,29,31,32,,,,1.0,0.7,0.7*27

6:50:24:777 Nachm. 03/07/17 - $GNGSA,A,2,69,77,78,79,81,88,,,,,,,1.0,0.7,0.7*2B

6:50:25:752 Nachm. 03/07/17 - $GPGSV,3,1,09,02,38,078,27,06,18,037,28,12,46,088,27,14,28,272,20*7E

6:50:25:753 Nachm. 03/07/17 - $GPGSV,3,2,09,24,13,153,16,25,82,324,23,29,49,213,20,31,35,305,33*7A

6:50:25:753 Nachm. 03/07/17 - $GPGSV,3,3,09,32,20,246,25*44

6:50:25:760 Nachm. 03/07/17 - $GLGSV,2,1,08,78,71,323,19,70,12,352,16,86,04,030,19,77,45,126,16*68

6:50:25:761 Nachm. 03/07/17 - $GLGSV,2,2,08,79,28,313,27,69,08,299,15,88,61,181,12,81,11,202,19*61

6:50:25:762 Nachm. 03/07/17 - $GPGGA,175020.0,5208.356044,N,01139.057090,E,1,09,0.7,59.5,M,45.0,M,,*65

6:50:25:762 Nachm. 03/07/17 - $GNGNS,175020.0,5208.356044,N,01139.057090,E,AA,15,0.7,59.5,45.0,,*5C

6:50:25:763 Nachm. 03/07/17 - $GPVTG,325.7,T,325.3,M,2.8,N,5.1,K,A*29

6:50:25:763 Nachm. 03/07/17 - $GPRMC,175020.0,A,5208.356044,N,01139.057090,E,2.8,325.7,070317,0.4,E,A*05

6:50:25:763 Nachm. 03/07/17 - $GPGSA,A,2,02,06,12,14,24,25,29,31,32,,,,1.0,0.7,0.7*39

6:50:25:765 Nachm. 03/07/17 - $GNGSA,A,2,02,06,12,14,24,25,29,31,32,,,,1.0,0.7,0.7*27

6:50:25:765 Nachm. 03/07/17 - $GNGSA,A,2,69,77,78,79,81,88,,,,,,,1.0,0.7,0.7*2B

6:50:26:753 Nachm. 03/07/17 - $GPGSV,3,1,09,02,38,078,25,06,18,037,31,12,46,088,26,14,28,272,26*73

6:50:26:755 Nachm. 03/07/17 - $GPGSV,3,2,09,24,13,153,16,25,82,324,23,29,49,213,22,31,35,305,33*78

6:50:26:756 Nachm. 03/07/17 - $GPGSV,3,3,09,32,20,246,18*4A

6:50:26:766 Nachm. 03/07/17 - $GLGSV,2,1,08,78,71,323,19,70,12,352,22,86,04,030,19,77,45,126,16*6F

6:50:26:772 Nachm. 03/07/17 - $GLGSV,2,2,08,79,28,313,28,69,08,299,16,88,61,181,12,81,11,202,19*6D

6:50:26:776 Nachm. 03/07/17 - $GPGGA,175021.0,5208.357177,N,01139.056077,E,1,09,0.7,58.7,M,45.0,M,,*6F

6:50:26:777 Nachm. 03/07/17 - $GNGNS,175021.0,5208.357177,N,01139.056077,E,AA,15,0.7,58.7,45.0,,*56

6:50:26:778 Nachm. 03/07/17 - $GPVTG,325.6,T,325.2,M,2.9,N,5.5,K,A*2C

6:50:26:779 Nachm. 03/07/17 - $GPRMC,175021.0,A,5208.357177,N,01139.056077,E,2.9,325.6,070317,0.4,E,A*0C

6:50:26:780 Nachm. 03/07/17 - $GPGSA,A,2,02,06,12,14,24,25,29,31,32,,,,1.0,0.7,0.7*39

6:50:26:781 Nachm. 03/07/17 - $GNGSA,A,2,02,06,12,14,24,25,29,31,32,,,,1.0,0.7,0.7*27

6:50:26:782 Nachm. 03/07/17 - $GNGSA,A,2,69,77,78,79,81,88,,,,,,,1.0,0.7,0.7*2B

6:50:27:751 Nachm. 03/07/17 - $GPGSV,3,1,09,02,38,078,22,06,18,037,30,12,46,088,21,14,28,272,29*7D

6:50:27:754 Nachm. 03/07/17 - $GPGSV,3,2,09,24,13,153,16,25,82,324,24,29,49,213,23,31,35,305,35*78

6:50:27:756 Nachm. 03/07/17 - $GPGSV,3,3,09,32,20,246,26*47

6:50:27:762 Nachm. 03/07/17 - $GLGSV,2,1,08,78,71,323,16,70,12,352,23,86,04,030,19,77,45,126,16*61

6:50:27:767 Nachm. 03/07/17 - $GLGSV,2,2,08,79,28,313,29,69,08,299,16,88,61,181,10,81,11,202,27*63

6:50:27:768 Nachm. 03/07/17 - $GPGGA,175022.0,5208.357092,N,01139.055217,E,1,09,0.7,58.2,M,45.0,M,,*64

6:50:27:769 Nachm. 03/07/17 - $GNGNS,175022.0,5208.357092,N,01139.055217,E,AA,14,0.7,58.2,45.0,,*5C

6:50:27:770 Nachm. 03/07/17 - $GPVTG,292.1,T,291.7,M,2.3,N,4.3,K,A*20

6:50:27:770 Nachm. 03/07/17 - $GPRMC,175022.0,A,5208.357092,N,01139.055217,E,2.3,292.1,070317,0.4,E,A*02

6:50:27:771 Nachm. 03/07/17 - $GPGSA,A,2,02,06,12,14,24,25,29,31,32,,,,1.0,0.7,0.7*39

6:50:27:771 Nachm. 03/07/17 - $GNGSA,A,2,02,06,12,14,24,25,29,31,32,,,,1.0,0.7,0.7*27

6:50:27:772 Nachm. 03/07/17 - $GNGSA,A,2,69,77,78,79,81,,,,,,,,1.0,0.7,0.7*2B

6:50:28:752 Nachm. 03/07/17 - $GPGSV,3,1,10,02,38,078,21,04,,,27,06,18,037,31,12,46,088,22*46

6:50:28:752 Nachm. 03/07/17 - $GPGSV,3,2,10,14,28,272,29,24,13,153,18,25,82,324,25,29,49,213,20*7B

6:50:28:755 Nachm. 03/07/17 - $GPGSV,3,3,10,31,35,305,34,32,20,246,25*79

6:50:28:760 Nachm. 03/07/17 - $GLGSV,2,1,08,78,71,323,16,70,12,352,24,86,04,030,19,77,45,126,16*66

6:50:28:763 Nachm. 03/07/17 - $GLGSV,2,2,08,79,28,313,27,69,08,299,16,88,61,181,10,81,11,202,20*6A

6:50:28:764 Nachm. 03/07/17 - $GPGGA,175023.0,5208.358330,N,01139.054164,E,1,09,0.7,57.4,M,45.0,M,,*6E

6:50:28:764 Nachm. 03/07/17 - $GNGNS,175023.0,5208.358330,N,01139.054164,E,AA,14,0.7,57.4,45.0,,*56

6:50:28:764 Nachm. 03/07/17 - $GPVTG,299.9,T,299.5,M,2.8,N,5.1,K,A*21

6:50:28:765 Nachm. 03/07/17 - $GPRMC,175023.0,A,5208.358330,N,01139.054164,E,2.8,299.9,070317,0.4,E,A*09

6:50:28:765 Nachm. 03/07/17 - $GPGSA,A,2,02,06,12,14,24,25,29,31,32,,,,1.0,0.7,0.7*39

6:50:28:765 Nachm. 03/07/17 - $GNGSA,A,2,02,06,12,14,24,25,29,31,32,,,,1.0,0.7,0.7*27

6:50:28:766 Nachm. 03/07/17 - $GNGSA,A,2,69,77,78,79,81,,,,,,,,1.0,0.7,0.7*2B

6:50:29:751 Nachm. 03/07/17 - $GPGSV,3,1,10,02,38,078,20,04,,,27,06,18,037,32,12,46,088,20*46

6:50:29:751 Nachm. 03/07/17 - $GPGSV,3,2,10,14,28,272,30,24,13,153,19,25,82,324,25,29,49,213,21*73

6:50:29:752 Nachm. 03/07/17 - $GPGSV,3,3,10,31,35,305,34,32,20,246,26*7A

6:50:29:752 Nachm. 03/07/17 - $GLGSV,2,1,08,78,71,323,16,70,12,352,23,86,04,030,12,77,45,126,16*6A

6:50:29:755 Nachm. 03/07/17 - $GLGSV,2,2,08,79,28,313,27,69,08,299,16,88,61,181,10,81,11,202,20*6A

6:50:29:755 Nachm. 03/07/17 - $GPGGA,175024.0,5208.359155,N,01139.052792,E,1,09,0.7,56.2,M,45.0,M,,*67

6:50:29:761 Nachm. 03/07/17 - $GNGNS,175024.0,5208.359155,N,01139.052792,E,AA,14,0.7,56.2,45.0,,*5F

6:50:29:762 Nachm. 03/07/17 - $GPVTG,300.3,T,299.9,M,2.9,N,5.4,K,A*22

6:50:29:762 Nachm. 03/07/17 - $GPRMC,175024.0,A,5208.359155,N,01139.052792,E,2.9,300.3,070317,0.4,E,A*0D

6:50:29:763 Nachm. 03/07/17 - $GPGSA,A,2,02,06,12,14,24,25,29,31,32,,,,1.0,0.7,0.7*39

6:50:29:763 Nachm. 03/07/17 - $GNGSA,A,2,02,06,12,14,24,25,29,31,32,,,,1.0,0.7,0.7*27

6:50:29:764 Nachm. 03/07/17 - $GNGSA,A,2,69,77,78,79,81,,,,,,,,1.0,0.7,0.7*2B

6:50:30:750 Nachm. 03/07/17 - $GPGSV,3,1,10,02,38,078,19,04,,,27,06,18,037,31,12,46,088,21*4E

6:50:30:752 Nachm. 03/07/17 - $GPGSV,3,2,10,14,28,272,31,24,13,153,22,25,82,324,25,29,49,213,23*78

6:50:30:761 Nachm. 03/07/17 - $GPGSV,3,3,10,31,35,305,33,32,20,246,30*7A

6:50:30:763 Nachm. 03/07/17 - $GLGSV,2,1,08,78,71,323,16,70,12,352,22,86,04,030,12,77,45,126,16*6B

6:50:30:764 Nachm. 03/07/17 - $GLGSV,2,2,08,79,28,313,26,69,08,299,16,88,61,181,10,81,11,202,26*6D

6:50:30:773 Nachm. 03/07/17 - $GPGGA,175025.0,5208.360147,N,01139.051387,E,1,09,0.7,55.5,M,45.0,M,,*68

6:50:30:775 Nachm. 03/07/17 - $GNGNS,175025.0,5208.360147,N,01139.051387,E,AA,14,0.7,55.5,45.0,,*50

6:50:30:775 Nachm. 03/07/17 - $GPVTG,297.3,T,296.9,M,2.8,N,5.1,K,A*26

6:50:30:776 Nachm. 03/07/17 - $GPRMC,175025.0,A,5208.360147,N,01139.051387,E,2.8,297.3,070317,0.4,E,A*08

6:50:30:777 Nachm. 03/07/17 - $GPGSA,A,2,02,06,12,14,24,25,29,31,32,,,,1.0,0.7,0.7*39

6:50:30:777 Nachm. 03/07/17 - $GNGSA,A,2,02,06,12,14,24,25,29,31,32,,,,1.0,0.7,0.7*27

6:50:30:778 Nachm. 03/07/17 - $GNGSA,A,2,69,77,78,79,81,,,,,,,,1.0,0.7,0.7*2B

6:50:31:750 Nachm. 03/07/17 - $GPGSV,3,1,10,02,38,078,19,04,,,24,06,18,037,30,12,46,088,20*4D

6:50:31:751 Nachm. 03/07/17 - $GPGSV,3,2,10,14,28,272,30,24,13,153,19,25,82,324,24,29,49,213,26*75

6:50:31:754 Nachm. 03/07/17 - $GPGSV,3,3,10,31,35,305,33,32,20,246,27*7C

6:50:31:758 Nachm. 03/07/17 - $GLGSV,2,1,08,78,71,323,17,70,12,352,21,86,04,030,12,77,45,126,16*69

6:50:31:762 Nachm. 03/07/17 - $GLGSV,2,2,08,79,28,313,26,69,08,299,16,88,61,181,10,81,11,202,27*6C

6:50:31:762 Nachm. 03/07/17 - $GPGGA,175026.0,5208.360672,N,01139.050318,E,1,09,0.7,55.1,M,45.0,M,,*69

6:50:31:763 Nachm. 03/07/17 - $GNGNS,175026.0,5208.360672,N,01139.050318,E,AA,14,0.7,55.1,45.0,,*51

6:50:31:763 Nachm. 03/07/17 - $GPVTG,284.4,T,283.9,M,2.6,N,4.8,K,A*21

6:50:31:764 Nachm. 03/07/17 - $GPRMC,175026.0,A,5208.360672,N,01139.050318,E,2.6,284.4,070317,0.4,E,A*06

6:50:31:764 Nachm. 03/07/17 - $GPGSA,A,2,02,06,12,14,24,25,29,31,32,,,,1.0,0.7,0.7*39

6:50:31:765 Nachm. 03/07/17 - $GNGSA,A,2,02,06,12,14,24,25,29,31,32,,,,1.0,0.7,0.7*27

6:50:31:765 Nachm. 03/07/17 - $GNGSA,A,2,69,77,78,79,81,,,,,,,,1.0,0.7,0.7*2B

6:50:32:753 Nachm. 03/07/17 - $GPGSV,3,1,10,02,38,078,20,04,,,24,06,18,037,28,12,46,088,20*4E

6:50:32:757 Nachm. 03/07/17 - $GPGSV,3,2,10,14,28,272,31,24,13,153,19,25,82,324,24,29,49,213,21*73

6:50:32:758 Nachm. 03/07/17 - $GPGSV,3,3,10,31,35,305,33,32,20,246,30*7A

6:50:32:759 Nachm. 03/07/17 - $GLGSV,2,1,08,78,71,323,17,70,12,352,23,86,04,030,12,77,45,126,12*6F

6:50:32:759 Nachm. 03/07/17 - $GLGSV,2,2,08,79,28,313,28,69,08,299,16,88,61,181,13,81,11,202,25*63

6:50:32:768 Nachm. 03/07/17 - $GPGGA,175027.0,5208.361192,N,01139.049598,E,1,09,0.7,53.9,M,45.0,M,,*68

6:50:32:774 Nachm. 03/07/17 - $GNGNS,175027.0,5208.361192,N,01139.049598,E,AA,15,0.7,53.9,45.0,,*51

6:50:32:779 Nachm. 03/07/17 - $GPVTG,284.4,T,283.9,M,0.0,N,0.0,K,A*29

6:50:32:784 Nachm. 03/07/17 - $GPRMC,175027.0,A,5208.361192,N,01139.049598,E,0.0,284.4,070317,0.4,E,A*0D

6:50:32:784 Nachm. 03/07/17 - $GPGSA,A,2,02,06,12,14,24,25,29,31,32,,,,1.0,0.7,0.7*39

6:50:32:785 Nachm. 03/07/17 - $GNGSA,A,2,02,06,12,14,24,25,29,31,32,,,,1.0,0.7,0.7*27

6:50:32:785 Nachm. 03/07/17 - $GNGSA,A,2,69,77,78,79,81,88,,,,,,,1.0,0.7,0.7*2B

6:50:33:754 Nachm. 03/07/17 - $GPGSV,3,1,10,02,38,078,19,04,,,26,06,18,037,26,12,46,088,19*42

6:50:33:755 Nachm. 03/07/17 - $GPGSV,3,2,10,14,28,272,30,24,13,153,19,25,82,324,26,29,49,213,23*72

6:50:33:757 Nachm. 03/07/17 - $GPGSV,3,3,10,31,35,305,33,32,20,246,30*7A

6:50:33:773 Nachm. 03/07/17 - $GLGSV,2,1,08,78,71,323,17,70,12,352,23,86,04,030,12,77,45,126,12*6F

6:50:33:776 Nachm. 03/07/17 - $GLGSV,2,2,08,79,28,313,27,69,08,299,16,88,61,181,13,81,11,202,26*6F

6:50:33:777 Nachm. 03/07/17 - $GPGGA,175028.0,5208.361581,N,01139.049064,E,1,09,0.7,54.2,M,45.0,M,,*6B

6:50:33:779 Nachm. 03/07/17 - $GNGNS,175028.0,5208.361581,N,01139.049064,E,AA,15,0.7,54.2,45.0,,*52

6:50:33:781 Nachm. 03/07/17 - $GPVTG,284.4,T,283.9,M,0.0,N,0.0,K,A*29

6:50:33:782 Nachm. 03/07/17 - $GPRMC,175028.0,A,5208.361581,N,01139.049064,E,0.0,284.4,070317,0.4,E,A*02

6:50:33:783 Nachm. 03/07/17 - $GPGSA,A,2,02,06,12,14,24,25,29,31,32,,,,1.0,0.7,0.7*39

6:50:33:783 Nachm. 03/07/17 - $GNGSA,A,2,02,06,12,14,24,25,29,31,32,,,,1.0,0.7,0.7*27

6:50:33:784 Nachm. 03/07/17 - $GNGSA,A,2,69,77,78,79,81,88,,,,,,,1.0,0.7,0.7*2B

6:50:34:752 Nachm. 03/07/17 - $GPGSV,3,1,10,02,38,078,19,04,,,27,06,18,037,24,12,46,088,21*4A

6:50:34:754 Nachm. 03/07/17 - $GPGSV,3,2,10,14,28,272,30,24,13,153,19,25,82,324,25,29,49,213,19*78

6:50:34:755 Nachm. 03/07/17 - $GPGSV,3,3,10,31,35,305,34,32,20,246,30*7D

6:50:34:760 Nachm. 03/07/17 - $GLGSV,2,1,08,78,71,323,17,70,12,352,20,86,04,030,13,77,45,126,12*6D

6:50:34:764 Nachm. 03/07/17 - $GLGSV,2,2,08,79,28,313,23,69,08,299,16,88,61,181,15,81,11,202,27*6C

6:50:34:765 Nachm. 03/07/17 - $GPGGA,175029.0,5208.361929,N,01139.048499,E,1,09,0.7,53.8,M,45.0,M,,*6E

6:50:34:767 Nachm. 03/07/17 - $GNGNS,175029.0,5208.361929,N,01139.048499,E,AA,15,0.7,53.8,45.0,,*57

6:50:34:768 Nachm. 03/07/17 - $GPVTG,284.4,T,283.9,M,0.0,N,0.0,K,A*29

6:50:34:769 Nachm. 03/07/17 - $GPRMC,175029.0,A,5208.361929,N,01139.048499,E,0.0,284.4,070317,0.4,E,A*0A

6:50:34:770 Nachm. 03/07/17 - $GPGSA,A,2,02,06,12,14,24,25,29,31,32,,,,1.0,0.7,0.7*39

6:50:34:770 Nachm. 03/07/17 - $GNGSA,A,2,02,06,12,14,24,25,29,31,32,,,,1.0,0.7,0.7*27

6:50:34:771 Nachm. 03/07/17 - $GNGSA,A,2,69,77,78,79,81,88,,,,,,,1.0,0.7,0.7*2B

6:50:35:753 Nachm. 03/07/17 - $GPGSV,3,1,10,02,38,078,20,04,,,24,06,18,037,28,12,46,088,21*4F

6:50:35:755 Nachm. 03/07/17 - $GPGSV,3,2,10,14,28,272,30,24,13,153,20,25,82,324,24,29,49,213,21*78

6:50:35:756 Nachm. 03/07/17 - $GPGSV,3,3,10,31,35,305,32,32,20,246,28*72

6:50:35:764 Nachm. 03/07/17 - $GLGSV,2,1,08,78,71,323,17,70,12,352,17,86,04,030,13,77,45,126,12*69

6:50:35:765 Nachm. 03/07/17 - $GLGSV,2,2,08,79,28,313,21,69,08,299,16,88,61,181,15,81,11,202,28*61

6:50:35:766 Nachm. 03/07/17 - $GPGGA,175030.0,5208.362240,N,01139.047952,E,1,09,0.7,53.5,M,45.0,M,,*69

6:50:35:767 Nachm. 03/07/17 - $GNGNS,175030.0,5208.362240,N,01139.047952,E,AA,15,0.7,53.5,45.0,,*50

6:50:35:768 Nachm. 03/07/17 - $GPVTG,284.4,T,283.9,M,0.0,N,0.0,K,A*29

6:50:35:769 Nachm. 03/07/17 - $GPRMC,175030.0,A,5208.362240,N,01139.047952,E,0.0,284.4,070317,0.4,E,A*00

6:50:35:770 Nachm. 03/07/17 - $GPGSA,A,2,02,06,12,14,24,25,29,31,32,,,,1.0,0.7,0.7*39

6:50:35:775 Nachm. 03/07/17 - $GNGSA,A,2,02,06,12,14,24,25,29,31,32,,,,1.0,0.7,0.7*27

6:50:35:775 Nachm. 03/07/17 - $GNGSA,A,2,69,77,78,79,81,88,,,,,,,1.0,0.7,0.7*2B

6:50:36:753 Nachm. 03/07/17 - $GPGSV,3,1,10,02,38,078,21,04,,,24,06,18,037,24,12,46,088,23*40

6:50:36:753 Nachm. 03/07/17 - $GPGSV,3,2,10,14,28,272,30,24,13,153,21,25,82,324,25,29,49,213,23*7A

6:50:36:754 Nachm. 03/07/17 - $GPGSV,3,3,10,31,35,305,32,32,20,246,27*7D

6:50:36:754 Nachm. 03/07/17 - $GLGSV,2,1,08,78,71,323,16,70,12,352,19,86,04,030,16,77,45,126,12*63

6:50:36:760 Nachm. 03/07/17 - $GLGSV,2,2,08,79,28,313,19,69,08,299,16,88,61,181,15,81,11,202,23*61

6:50:36:761 Nachm. 03/07/17 - $GPGGA,175031.0,5208.362405,N,01139.047596,E,1,09,0.7,53.2,M,45.0,M,,*6C

6:50:36:761 Nachm. 03/07/17 - $GNGNS,175031.0,5208.362405,N,01139.047596,E,AA,15,0.7,53.2,45.0,,*55

6:50:36:762 Nachm. 03/07/17 - $GPVTG,284.4,T,283.9,M,0.0,N,0.0,K,A*29

6:50:36:763 Nachm. 03/07/17 - $GPRMC,175031.0,A,5208.362405,N,01139.047596,E,0.0,284.4,070317,0.4,E,A*02

6:50:36:763 Nachm. 03/07/17 - $GPGSA,A,2,02,06,12,14,24,25,29,31,32,,,,1.0,0.7,0.7*39

6:50:36:764 Nachm. 03/07/17 - $GNGSA,A,2,02,06,12,14,24,25,29,31,32,,,,1.0,0.7,0.7*27

6:50:36:765 Nachm. 03/07/17 - $GNGSA,A,2,69,77,78,79,81,88,,,,,,,1.0,0.7,0.7*2B

6:50:37:752 Nachm. 03/07/17 - $GPGSV,3,1,10,02,38,078,21,04,,,25,06,18,037,27,12,46,088,21*40

6:50:37:753 Nachm. 03/07/17 - $GPGSV,3,2,10,14,28,272,29,24,13,153,22,25,82,324,24,29,49,213,23*70

6:50:37:754 Nachm. 03/07/17 - $GPGSV,3,3,10,31,35,305,33,32,20,246,29*72

6:50:37:760 Nachm. 03/07/17 - $GLGSV,2,1,08,78,71,323,16,70,12,352,18,86,04,030,16,77,45,126,12*62

6:50:37:760 Nachm. 03/07/17 - $GLGSV,2,2,08,79,28,313,19,69,08,299,16,88,61,181,15,81,11,202,23*61

6:50:37:760 Nachm. 03/07/17 - $GPGGA,175032.0,5208.362456,N,01139.047472,E,1,09,0.7,53.0,M,45.0,M,,*60

6:50:37:761 Nachm. 03/07/17 - $GNGNS,175032.0,5208.362456,N,01139.047472,E,AA,14,0.7,53.0,45.0,,*58

6:50:37:761 Nachm. 03/07/17 - $GPVTG,284.4,T,283.9,M,0.0,N,0.0,K,A*29

6:50:37:761 Nachm. 03/07/17 - $GPRMC,175032.0,A,5208.362456,N,01139.047472,E,0.0,284.4,070317,0.4,E,A*0C

6:50:37:761 Nachm. 03/07/17 - $GPGSA,A,2,02,06,12,14,24,25,29,31,32,,,,1.0,0.7,0.7*39

6:50:37:762 Nachm. 03/07/17 - $GNGSA,A,2,02,06,12,14,24,25,29,31,32,,,,1.0,0.7,0.7*27

6:50:37:762 Nachm. 03/07/17 - $GNGSA,A,2,77,78,79,81,88,,,,,,,,1.0,0.7,0.7*24

6:50:38:752 Nachm. 03/07/17 - $GPGSV,3,1,10,02,38,078,19,04,,,23,06,18,037,27,12,46,088,22*4E

6:50:38:753 Nachm. 03/07/17 - $GPGSV,3,2,10,14,28,272,29,24,13,153,19,25,82,324,22,29,49,213,22*7F

6:50:38:753 Nachm. 03/07/17 - $GPGSV,3,3,10,31,35,305,32,32,20,246,27*7D

6:50:38:757 Nachm. 03/07/17 - $GLGSV,2,1,08,78,71,323,16,70,12,352,20,86,04,030,16,77,45,126,12*69

6:50:38:758 Nachm. 03/07/17 - $GLGSV,2,2,08,79,28,313,16,69,08,299,16,88,61,181,14,81,11,202,25*69

6:50:38:759 Nachm. 03/07/17 - $GPGGA,175033.0,5208.362586,N,01139.047152,E,1,09,0.7,52.7,M,45.0,M,,*6C

6:50:38:760 Nachm. 03/07/17 - $GNGNS,175033.0,5208.362586,N,01139.047152,E,AA,14,0.7,52.7,45.0,,*54

6:50:38:760 Nachm. 03/07/17 - $GPVTG,284.4,T,283.9,M,0.0,N,0.0,K,A*29

6:50:38:761 Nachm. 03/07/17 - $GPRMC,175033.0,A,5208.362586,N,01139.047152,E,0.0,284.4,070317,0.4,E,A*06

6:50:38:761 Nachm. 03/07/17 - $GPGSA,A,2,02,06,12,14,24,25,29,31,32,,,,1.0,0.7,0.7*39

6:50:38:761 Nachm. 03/07/17 - $GNGSA,A,2,02,06,12,14,24,25,29,31,32,,,,1.0,0.7,0.7*27

6:50:38:762 Nachm. 03/07/17 - $GNGSA,A,2,77,78,79,81,88,,,,,,,,1.0,0.7,0.7*24

6:50:39:752 Nachm. 03/07/17 - $GPGSV,3,1,10,02,38,078,21,04,,,19,06,18,037,30,12,46,088,24*4C

6:50:39:753 Nachm. 03/07/17 - $GPGSV,3,2,10,14,28,272,26,24,13,153,20,25,82,324,23,29,49,213,20*79

6:50:39:753 Nachm. 03/07/17 - $GPGSV,3,3,10,31,35,305,29,32,20,246,24*74

6:50:39:754 Nachm. 03/07/17 - $GLGSV,2,1,08,78,71,323,16,70,12,352,17,86,04,030,16,77,45,126,12*6D

6:50:39:757 Nachm. 03/07/17 - $GLGSV,2,2,08,79,28,313,16,69,08,299,16,88,61,181,14,81,11,202,25*69

6:50:39:757 Nachm. 03/07/17 - $GPGGA,175034.0,5208.362774,N,01139.046748,E,1,09,0.8,52.2,M,45.0,M,,*62

6:50:39:757 Nachm. 03/07/17 - $GNGNS,175034.0,5208.362774,N,01139.046748,E,AA,13,0.8,52.2,45.0,,*5D

6:50:39:758 Nachm. 03/07/17 - $GPVTG,284.4,T,283.9,M,0.0,N,0.0,K,A*29

6:50:39:758 Nachm. 03/07/17 - $GPRMC,175034.0,A,5208.362774,N,01139.046748,E,0.0,284.4,070317,0.4,E,A*02

6:50:39:759 Nachm. 03/07/17 - $GPGSA,A,2,02,06,12,14,24,25,29,31,32,,,,1.1,0.8,0.7*37

6:50:39:759 Nachm. 03/07/17 - $GNGSA,A,2,02,06,12,14,24,25,29,31,32,,,,1.1,0.8,0.7*29

6:50:39:759 Nachm. 03/07/17 - $GNGSA,A,2,78,79,81,88,,,,,,,,,1.1,0.8,0.7*2A

6:50:40:754 Nachm. 03/07/17 - $GPGSV,3,1,10,02,38,078,24,04,,,18,06,18,037,31,12,46,088,25*48

6:50:40:754 Nachm. 03/07/17 - $GPGSV,3,2,10,14,28,272,23,24,13,153,19,25,82,324,22,29,49,213,20*77

6:50:40:754 Nachm. 03/07/17 - $GPGSV,3,3,10,31,35,305,26,32,20,246,19*75

6:50:40:756 Nachm. 03/07/17 - $GLGSV,2,1,08,78,71,323,16,70,12,352,16,86,04,030,16,77,45,126,13*6D

6:50:40:756 Nachm. 03/07/17 - $GLGSV,2,2,08,79,28,313,16,69,08,299,12,88,61,181,14,81,11,202,23*6B

6:50:40:758 Nachm. 03/07/17 - $GPGGA,175035.0,5208.362869,N,01139.046607,E,1,09,0.7,51.9,M,45.0,M,,*6D

6:50:40:760 Nachm. 03/07/17 - $GNGNS,175035.0,5208.362869,N,01139.046607,E,AA,15,0.7,51.9,45.0,,*54

6:50:40:761 Nachm. 03/07/17 - $GPVTG,284.4,T,283.9,M,0.0,N,0.0,K,A*29

6:50:40:761 Nachm. 03/07/17 - $GPRMC,175035.0,A,5208.362869,N,01139.046607,E,0.0,284.4,070317,0.4,E,A*0A

6:50:40:761 Nachm. 03/07/17 - $GPGSA,A,2,02,06,12,14,24,25,29,31,32,,,,1.0,0.7,0.7*39

6:50:40:762 Nachm. 03/07/17 - $GNGSA,A,2,02,06,12,14,24,25,29,31,32,,,,1.0,0.7,0.7*27

6:50:40:762 Nachm. 03/07/17 - $GNGSA,A,2,69,77,78,79,81,88,,,,,,,1.0,0.7,0.7*2B

6:50:41:753 Nachm. 03/07/17 - $GPGSV,3,1,10,02,38,078,18,04,,,17,06,18,037,31,12,46,088,29*44

6:50:41:754 Nachm. 03/07/17 - $GPGSV,3,2,10,14,28,272,23,24,13,153,27,25,82,324,23,29,49,213,21*7A

6:50:41:754 Nachm. 03/07/17 - $GPGSV,3,3,10,31,35,305,25,32,20,246,19*76

6:50:41:755 Nachm. 03/07/17 - $GLGSV,2,1,08,78,71,323,16,70,12,352,18,86,04,030,16,77,45,126,13*63

6:50:41:757 Nachm. 03/07/17 - $GLGSV,2,2,08,79,28,313,16,69,08,299,12,88,61,181,14,81,11,202,23*6B

6:50:41:760 Nachm. 03/07/17 - $GPGGA,175036.0,5208.362946,N,01139.046769,E,1,09,0.7,52.6,M,45.0,M,,*67

6:50:41:763 Nachm. 03/07/17 - $GNGNS,175036.0,5208.362946,N,01139.046769,E,AA,15,0.7,52.6,45.0,,*5E

6:50:41:763 Nachm. 03/07/17 - $GPVTG,284.4,T,283.9,M,0.0,N,0.0,K,A*29

6:50:41:764 Nachm. 03/07/17 - $GPRMC,175036.0,A,5208.362946,N,01139.046769,E,0.0,284.4,070317,0.4,E,A*0C

6:50:41:764 Nachm. 03/07/17 - $GPGSA,A,2,02,06,12,14,24,25,29,31,32,,,,1.0,0.7,0.7*39

6:50:41:764 Nachm. 03/07/17 - $GNGSA,A,2,02,06,12,14,24,25,29,31,32,,,,1.0,0.7,0.7*27

6:50:41:765 Nachm. 03/07/17 - $GNGSA,A,2,69,77,78,79,81,88,,,,,,,1.0,0.7,0.7*2B

6:50:42:753 Nachm. 03/07/17 - $GPGSV,3,1,10,02,38,078,20,04,,,18,06,18,037,29,12,46,088,26*46

6:50:42:753 Nachm. 03/07/17 - $GPGSV,3,2,10,14,28,272,23,24,13,153,25,25,82,324,21,29,49,213,19*71

6:50:42:753 Nachm. 03/07/17 - $GPGSV,3,3,10,31,35,305,18,32,20,246,20*72

6:50:42:755 Nachm. 03/07/17 - $GLGSV,2,1,08,78,71,323,16,70,12,352,20,86,04,030,16,77,45,126,20*68

6:50:42:760 Nachm. 03/07/17 - $GLGSV,2,2,08,79,28,313,16,69,08,299,12,88,61,181,14,81,11,202,25*6D

6:50:42:761 Nachm. 03/07/17 - $GPGGA,175037.0,5208.363131,N,01139.046778,E,1,09,0.7,52.8,M,45.0,M,,*61

6:50:42:762 Nachm. 03/07/17 - $GNGNS,175037.0,5208.363131,N,01139.046778,E,AA,15,0.7,52.8,45.0,,*58

6:50:42:762 Nachm. 03/07/17 - $GPVTG,284.4,T,283.9,M,0.0,N,0.0,K,A*29

6:50:42:762 Nachm. 03/07/17 - $GPRMC,175037.0,A,5208.363131,N,01139.046778,E,0.0,284.4,070317,0.4,E,A*04

6:50:42:762 Nachm. 03/07/17 - $GPGSA,A,2,02,06,12,14,24,25,29,31,32,,,,1.0,0.7,0.7*39

6:50:42:762 Nachm. 03/07/17 - $GNGSA,A,2,02,06,12,14,24,25,29,31,32,,,,1.0,0.7,0.7*27

6:50:42:763 Nachm. 03/07/17 - $GNGSA,A,2,69,77,78,79,81,88,,,,,,,1.0,0.7,0.7*2B

6:50:43:752 Nachm. 03/07/17 - $GPGSV,3,1,10,02,38,078,21,04,,,21,06,18,037,26,12,46,088,24*40

6:50:43:754 Nachm. 03/07/17 - $GPGSV,3,2,10,14,28,272,14,24,13,153,21,25,82,324,24,29,49,213,18*75

6:50:43:755 Nachm. 03/07/17 - $GPGSV,3,3,10,31,35,305,19,32,20,246,20*73

6:50:43:757 Nachm. 03/07/17 - $GLGSV,2,1,08,78,71,323,16,70,12,352,20,86,04,030,16,77,45,126,20*68

6:50:43:763 Nachm. 03/07/17 - $GLGSV,2,2,08,79,28,313,16,69,08,299,12,88,61,181,14,81,11,202,23*6B

6:50:43:763 Nachm. 03/07/17 - $GPGGA,175038.0,5208.363152,N,01139.046759,E,1,09,0.7,52.8,M,45.0,M,,*68

6:50:43:763 Nachm. 03/07/17 - $GNGNS,175038.0,5208.363152,N,01139.046759,E,AA,15,0.7,52.8,45.0,,*51

6:50:43:763 Nachm. 03/07/17 - $GPVTG,284.4,T,283.9,M,0.0,N,0.0,K,A*29

6:50:43:763 Nachm. 03/07/17 - $GPRMC,175038.0,A,5208.363152,N,01139.046759,E,0.0,284.4,070317,0.4,E,A*0D

6:50:43:764 Nachm. 03/07/17 - $GPGSA,A,2,02,06,12,14,24,25,29,31,32,,,,1.0,0.7,0.7*39

6:50:43:766 Nachm. 03/07/17 - $GNGSA,A,2,02,06,12,14,24,25,29,31,32,,,,1.0,0.7,0.7*27

6:50:43:767 Nachm. 03/07/17 - $GNGSA,A,2,69,77,78,79,81,88,,,,,,,1.0,0.7,0.7*2B

6:50:44:754 Nachm. 03/07/17 - $GPGSV,3,1,10,02,38,078,18,04,,,22,06,18,037,27,12,46,088,24*48

6:50:44:755 Nachm. 03/07/17 - $GPGSV,3,2,10,14,28,272,24,24,13,153,25,25,82,324,23,29,49,213,20*7E

6:50:44:757 Nachm. 03/07/17 - $GPGSV,3,3,10,31,35,305,18,32,20,246,21*73

6:50:44:761 Nachm. 03/07/17 - $GLGSV,2,1,08,78,71,323,16,70,12,352,20,86,04,030,16,77,45,126,17*6C

6:50:44:762 Nachm. 03/07/17 - $GLGSV,2,2,08,79,28,313,16,69,08,299,15,88,61,181,14,81,11,202,16*6A

6:50:44:764 Nachm. 03/07/17 - $GPGGA,175039.0,5208.363202,N,01139.046737,E,1,09,0.7,53.0,M,45.0,M,,*6E

6:50:44:764 Nachm. 03/07/17 - $GNGNS,175039.0,5208.363202,N,01139.046737,E,AA,15,0.7,53.0,45.0,,*57

6:50:44:765 Nachm. 03/07/17 - $GPVTG,284.4,T,283.9,M,0.0,N,0.0,K,A*29

6:50:44:766 Nachm. 03/07/17 - $GPRMC,175039.0,A,5208.363202,N,01139.046737,E,0.0,284.4,070317,0.4,E,A*02

6:50:44:766 Nachm. 03/07/17 - $GPGSA,A,2,02,06,12,14,24,25,29,31,32,,,,1.0,0.7,0.7*39

6:50:44:767 Nachm. 03/07/17 - $GNGSA,A,2,02,06,12,14,24,25,29,31,32,,,,1.0,0.7,0.7*27

6:50:44:767 Nachm. 03/07/17 - $GNGSA,A,2,69,77,78,79,81,88,,,,,,,1.0,0.7,0.7*2B

6:50:45:751 Nachm. 03/07/17 - $GPGSV,3,1,10,02,38,078,23,04,,,22,06,18,037,26,12,46,088,19*4F

6:50:45:752 Nachm. 03/07/17 - $GPGSV,3,2,10,14,28,272,24,24,13,153,20,25,82,324,25,29,49,213,20*7D

6:50:45:752 Nachm. 03/07/17 - $GPGSV,3,3,10,31,35,305,18,32,20,246,20*72

6:50:45:753 Nachm. 03/07/17 - $GLGSV,2,1,08,78,71,323,17,70,12,352,20,86,04,030,16,77,45,126,17*6D

6:50:45:754 Nachm. 03/07/17 - $GLGSV,2,2,08,79,28,313,12,69,08,299,15,88,61,181,10,81,11,202,22*6D

6:50:45:758 Nachm. 03/07/17 - $GPGGA,175040.0,5208.363247,N,01139.046675,E,1,09,0.7,53.1,M,45.0,M,,*67

6:50:45:758 Nachm. 03/07/17 - $GNGNS,175040.0,5208.363247,N,01139.046675,E,AA,15,0.7,53.1,45.0,,*5E

6:50:45:758 Nachm. 03/07/17 - $GPVTG,284.4,T,283.9,M,0.0,N,0.0,K,A*29

6:50:45:759 Nachm. 03/07/17 - $GPRMC,175040.0,A,5208.363247,N,01139.046675,E,0.0,284.4,070317,0.4,E,A*0A

6:50:45:760 Nachm. 03/07/17 - $GPGSA,A,2,02,06,12,14,24,25,29,31,32,,,,1.0,0.7,0.7*39

6:50:45:760 Nachm. 03/07/17 - $GNGSA,A,2,02,06,12,14,24,25,29,31,32,,,,1.0,0.7,0.7*27

6:50:45:760 Nachm. 03/07/17 - $GNGSA,A,2,69,77,78,79,81,88,,,,,,,1.0,0.7,0.7*2B

6:50:46:752 Nachm. 03/07/17 - $GPGSV,3,1,10,02,38,078,24,04,,,24,06,18,037,26,12,46,088,22*46

6:50:46:753 Nachm. 03/07/17 - $GPGSV,3,2,10,14,28,272,23,24,13,153,24,25,82,324,23,29,49,213,23*7B

6:50:46:755 Nachm. 03/07/17 - $GPGSV,3,3,10,31,35,305,16,32,20,246,19*76

6:50:46:755 Nachm. 03/07/17 - $GLGSV,2,1,08,78,71,323,17,70,12,352,20,86,04,030,16,77,45,126,17*6D

6:50:46:755 Nachm. 03/07/17 - $GLGSV,2,2,08,79,28,313,12,69,08,299,15,88,61,181,10,81,11,202,27*68

6:50:46:758 Nachm. 03/07/17 - $GPGGA,175041.0,5208.363262,N,01139.046662,E,1,09,0.7,53.1,M,45.0,M,,*67

6:50:46:761 Nachm. 03/07/17 - $GNGNS,175041.0,5208.363262,N,01139.046662,E,AA,15,0.7,53.1,45.0,,*5E

6:50:46:761 Nachm. 03/07/17 - $GPVTG,284.4,T,283.9,M,0.0,N,0.0,K,A*29

6:50:46:762 Nachm. 03/07/17 - $GPRMC,175041.0,A,5208.363262,N,01139.046662,E,0.0,284.4,070317,0.4,E,A*0A

6:50:46:762 Nachm. 03/07/17 - $GPGSA,A,2,02,06,12,14,24,25,29,31,32,,,,1.0,0.7,0.7*39

6:50:46:763 Nachm. 03/07/17 - $GNGSA,A,2,02,06,12,14,24,25,29,31,32,,,,1.0,0.7,0.7*27

6:50:46:764 Nachm. 03/07/17 - $GNGSA,A,2,69,77,78,79,81,88,,,,,,,1.0,0.7,0.7*2B

6:50:47:752 Nachm. 03/07/17 - $GPGSV,3,1,10,02,38,078,26,04,,,25,06,18,037,26,12,46,088,23*44

6:50:47:753 Nachm. 03/07/17 - $GPGSV,3,2,10,14,28,272,22,24,13,153,24,25,82,324,25,29,49,213,22*7D

6:50:47:753 Nachm. 03/07/17 - $GPGSV,3,3,10,31,35,305,16,32,20,246,20*7C

6:50:47:756 Nachm. 03/07/17 - $GLGSV,2,1,08,78,71,323,17,70,12,352,20,86,04,030,16,77,45,126,17*6D

6:50:47:756 Nachm. 03/07/17 - $GLGSV,2,2,08,79,28,313,12,69,08,299,15,88,61,181,10,81,11,202,28*67

6:50:47:756 Nachm. 03/07/17 - $GPGGA,175042.0,5208.363259,N,01139.046661,E,1,09,0.7,53.0,M,45.0,M,,*6E

6:50:47:760 Nachm. 03/07/17 - $GNGNS,175042.0,5208.363259,N,01139.046661,E,AA,15,0.7,53.0,45.0,,*57

6:50:47:764 Nachm. 03/07/17 - $GPVTG,284.4,T,283.9,M,0.0,N,0.0,K,A*29

6:50:47:764 Nachm. 03/07/17 - $GPRMC,175042.0,A,5208.363259,N,01139.046661,E,0.0,284.4,070317,0.4,E,A*02

6:50:47:765 Nachm. 03/07/17 - $GPGSA,A,2,02,06,12,14,24,25,29,31,32,,,,1.0,0.7,0.7*39

6:50:47:766 Nachm. 03/07/17 - $GNGSA,A,2,02,06,12,14,24,25,29,31,32,,,,1.0,0.7,0.7*27

6:50:47:769 Nachm. 03/07/17 - $GNGSA,A,2,69,77,78,79,81,88,,,,,,,1.0,0.7,0.7*2B

6:50:48:752 Nachm. 03/07/17 - $GPGSV,3,1,10,02,38,078,26,04,,,21,06,18,037,26,12,46,088,28*4B

6:50:48:753 Nachm. 03/07/17 - $GPGSV,3,2,10,14,28,272,23,24,13,153,27,25,82,324,24,29,49,213,18*77

6:50:48:757 Nachm. 03/07/17 - $GPGSV,3,3,10,31,35,305,17,32,20,246,26*7B

6:50:48:761 Nachm. 03/07/17 - $GLGSV,2,1,08,78,71,323,19,70,12,352,20,86,04,030,12,77,45,126,15*65

6:50:48:762 Nachm. 03/07/17 - $GLGSV,2,2,08,79,28,313,14,69,08,299,15,88,61,181,10,81,11,202,26*6F

6:50:48:763 Nachm. 03/07/17 - $GPGGA,175043.0,5208.363237,N,01139.046681,E,1,09,0.7,53.0,M,45.0,M,,*69

6:50:48:765 Nachm. 03/07/17 - $GNGNS,175043.0,5208.363237,N,01139.046681,E,AA,15,0.7,53.0,45.0,,*50

6:50:48:773 Nachm. 03/07/17 - $GPVTG,284.4,T,283.9,M,0.0,N,0.0,K,A*29

6:50:48:776 Nachm. 03/07/17 - $GPRMC,175043.0,A,5208.363237,N,01139.046681,E,0.0,284.4,070317,0.4,E,A*05

6:50:48:776 Nachm. 03/07/17 - $GPGSA,A,2,02,06,12,14,24,25,29,31,32,,,,1.0,0.7,0.7*39

6:50:48:776 Nachm. 03/07/17 - $GNGSA,A,2,02,06,12,14,24,25,29,31,32,,,,1.0,0.7,0.7*27

6:50:48:777 Nachm. 03/07/17 - $GNGSA,A,2,69,77,78,79,81,88,,,,,,,1.0,0.7,0.7*2B

6:50:49:753 Nachm. 03/07/17 - $GPGSV,3,1,10,02,38,078,28,04,,,21,06,18,037,25,12,46,088,28*46

6:50:49:756 Nachm. 03/07/17 - $GPGSV,3,2,10,14,28,272,23,24,13,153,25,25,82,324,22,29,49,213,22*7A

6:50:49:757 Nachm. 03/07/17 - $GPGSV,3,3,10,31,35,305,21,32,20,246,26*7E

6:50:49:757 Nachm. 03/07/17 - $GLGSV,2,1,08,78,71,323,19,70,12,352,20,86,04,030,12,77,45,126,15*65

6:50:49:764 Nachm. 03/07/17 - $GLGSV,2,2,08,79,28,313,17,69,08,299,15,88,61,181,10,81,11,202,20*6A

6:50:49:765 Nachm. 03/07/17 - $GPGGA,175044.0,5208.363309,N,01139.046603,E,1,09,0.7,52.8,M,45.0,M,,*61

6:50:49:766 Nachm. 03/07/17 - $GNGNS,175044.0,5208.363309,N,01139.046603,E,AA,15,0.7,52.8,45.0,,*58

6:50:49:767 Nachm. 03/07/17 - $GPVTG,284.4,T,283.9,M,0.0,N,0.0,K,A*29

6:50:49:767 Nachm. 03/07/17 - $GPRMC,175044.0,A,5208.363309,N,01139.046603,E,0.0,284.4,070317,0.4,E,A*04

6:50:49:768 Nachm. 03/07/17 - $GPGSA,A,2,02,06,12,14,24,25,29,31,32,,,,1.0,0.7,0.7*39

6:50:49:769 Nachm. 03/07/17 - $GNGSA,A,2,02,06,12,14,24,25,29,31,32,,,,1.0,0.7,0.7*27

6:50:49:769 Nachm. 03/07/17 - $GNGSA,A,2,69,77,78,79,81,88,,,,,,,1.0,0.7,0.7*2B

6:50:50:753 Nachm. 03/07/17 - $GPGSV,3,1,10,02,38,078,27,04,,,17,06,18,037,26,12,46,088,29*4E

6:50:50:753 Nachm. 03/07/17 - $GPGSV,3,2,10,14,28,272,23,24,13,153,24,25,82,324,23,29,49,213,19*72

6:50:50:754 Nachm. 03/07/17 - $GPGSV,3,3,10,31,35,305,21,32,20,246,20*78

6:50:50:760 Nachm. 03/07/17 - $GLGSV,2,1,08,78,71,323,19,70,12,352,20,86,04,030,12,77,45,126,16*66

6:50:50:760 Nachm. 03/07/17 - $GLGSV,2,2,08,79,28,313,17,69,08,299,15,88,61,181,10,81,11,202,22*68

6:50:50:760 Nachm. 03/07/17 - $GPGGA,175045.0,5208.363289,N,01139.046634,E,1,09,0.7,52.9,M,45.0,M,,*6C

6:50:50:761 Nachm. 03/07/17 - $GNGNS,175045.0,5208.363289,N,01139.046634,E,AA,15,0.7,52.9,45.0,,*55

6:50:50:761 Nachm. 03/07/17 - $GPVTG,284.4,T,283.9,M,0.0,N,0.0,K,A*29

6:50:50:761 Nachm. 03/07/17 - $GPRMC,175045.0,A,5208.363289,N,01139.046634,E,0.0,284.4,070317,0.4,E,A*08

6:50:50:762 Nachm. 03/07/17 - $GPGSA,A,2,02,06,12,14,24,25,29,31,32,,,,1.0,0.7,0.7*39

6:50:50:762 Nachm. 03/07/17 - $GNGSA,A,2,02,06,12,14,24,25,29,31,32,,,,1.0,0.7,0.7*27

6:50:50:762 Nachm. 03/07/17 - $GNGSA,A,2,69,77,78,79,81,88,,,,,,,1.0,0.7,0.7*2B

6:50:51:753 Nachm. 03/07/17 - $GPGSV,3,1,10,02,38,078,26,04,,,17,06,18,037,19,12,46,088,29*43

6:50:51:755 Nachm. 03/07/17 - $GPGSV,3,2,10,14,28,272,14,24,13,153,25,25,82,324,24,29,49,213,19*70

6:50:51:755 Nachm. 03/07/17 - $GPGSV,3,3,10,31,35,305,15,32,20,246,23*7C

6:50:51:760 Nachm. 03/07/17 - $GLGSV,2,1,08,78,71,323,16,70,12,352,20,86,04,030,12,77,45,126,16*69

6:50:51:761 Nachm. 03/07/17 - $GLGSV,2,2,08,79,28,313,17,69,08,299,15,88,61,181,12,81,11,202,21*69

6:50:51:762 Nachm. 03/07/17 - $GPGGA,175046.0,5208.363293,N,01139.046629,E,1,09,0.7,52.9,M,45.0,M,,*68

6:50:51:764 Nachm. 03/07/17 - $GNGNS,175046.0,5208.363293,N,01139.046629,E,AA,14,0.7,52.9,45.0,,*50

6:50:51:768 Nachm. 03/07/17 - $GPVTG,284.4,T,283.9,M,0.0,N,0.0,K,A*29

6:50:51:768 Nachm. 03/07/17 - $GPRMC,175046.0,A,5208.363293,N,01139.046629,E,0.0,284.4,070317,0.4,E,A*0C

6:50:51:768 Nachm. 03/07/17 - $GPGSA,A,2,02,06,12,14,24,25,29,31,32,,,,1.0,0.7,0.7*39

6:50:51:769 Nachm. 03/07/17 - $GNGSA,A,2,02,06,12,14,24,25,29,31,32,,,,1.0,0.7,0.7*27

6:50:51:769 Nachm. 03/07/17 - $GNGSA,A,2,77,78,79,81,88,,,,,,,,1.0,0.7,0.7*24

6:50:52:752 Nachm. 03/07/17 - $GPGSV,3,1,10,02,38,078,27,04,,,16,06,18,037,22,12,46,088,28*4A

6:50:52:754 Nachm. 03/07/17 - $GPGSV,3,2,10,14,28,272,14,24,13,153,27,25,82,324,24,29,49,213,17*7C

6:50:52:755 Nachm. 03/07/17 - $GPGSV,3,3,10,31,35,305,17,32,20,246,23*7E

6:50:52:756 Nachm. 03/07/17 - $GLGSV,2,1,08,78,71,323,16,70,12,352,20,86,04,030,12,77,45,126,16*69

6:50:52:756 Nachm. 03/07/17 - $GLGSV,2,2,08,79,28,313,17,69,08,299,15,88,61,181,12,81,11,202,24*6C

